[{"id":"be-2786792","label":"'s-Gravenwezel","lat":51.26267,"lon":4.56113,"type":"city"},{"id":"be-2803448","label":"Aalst","lat":50.93604,"lon":4.0355,"type":"city"},{"id":"be-2803443","label":"Aalter","lat":51.09017,"lon":3.44693,"type":"city"},{"id":"be-2803429","label":"Aarschot","lat":50.98715,"lon":4.83695,"type":"city"},{"id":"be-2803420","label":"Aartselaar","lat":51.13412,"lon":4.38678,"type":"city"},{"id":"be-2803391","label":"Achel","lat":51.253,"lon":5.47977,"type":"city"},{"id":"be-2803347","label":"Adegem","lat":51.20509,"lon":3.4954,"type":"city"},{"id":"be-2803323","label":"Aiseau","lat":50.41158,"lon":4.58671,"type":"city"},{"id":"be-2803285","label":"Alken","lat":50.87553,"lon":5.30558,"type":"city"},{"id":"be-2803278","label":"Alleur","lat":50.67465,"lon":5.51316,"type":"city"},{"id":"be-2803266","label":"Alsemberg","lat":50.74134,"lon":4.33754,"type":"city"},{"id":"be-2803246","label":"Amay","lat":50.54829,"lon":5.30974,"type":"city"},{"id":"be-2803242","label":"Ambleve","lat":50.35357,"lon":6.17002,"type":"city"},{"id":"be-2803204","label":"Andenne","lat":50.48941,"lon":5.09513,"type":"city"},{"id":"be-2803201","label":"Anderlecht","lat":50.83619,"lon":4.31454,"type":"city"},{"id":"be-2803199","label":"Anderlues","lat":50.40704,"lon":4.27136,"type":"city"},{"id":"be-2803187","label":"Andrimont","lat":50.61298,"lon":5.88294,"type":"city"},{"id":"be-2803183","label":"Angleur","lat":50.6113,"lon":5.59942,"type":"city"},{"id":"be-2803174","label":"Anhee","lat":50.31039,"lon":4.87827,"type":"city"},{"id":"be-2803160","label":"Ans","lat":50.6623,"lon":5.52029,"type":"city"},{"id":"be-2803144","label":"Antoing","lat":50.56765,"lon":3.4492,"type":"city"},{"id":"be-2803138","label":"Antwerp","lat":51.22047,"lon":4.40026,"type":"city"},{"id":"be-2803130","label":"Anzegem","lat":50.837,"lon":3.47786,"type":"city"},{"id":"be-2803091","label":"Ardooie","lat":50.9757,"lon":3.19736,"type":"city"},{"id":"be-2803083","label":"Arendonk","lat":51.32267,"lon":5.08289,"type":"city"},{"id":"be-2803073","label":"Arlon","lat":49.68333,"lon":5.81667,"type":"city"},{"id":"be-2803053","label":"As","lat":51.00755,"lon":5.58453,"type":"city"},{"id":"be-2803033","label":"Asse","lat":50.91011,"lon":4.19836,"type":"city"},{"id":"be-2803030","label":"Assebroek","lat":51.19367,"lon":3.2623,"type":"city"},{"id":"be-2803026","label":"Assenede","lat":51.22598,"lon":3.75085,"type":"city"},{"id":"be-2803018","label":"Assesse","lat":50.36934,"lon":5.02204,"type":"city"},{"id":"be-2803010","label":"Ath","lat":50.62937,"lon":3.77801,"type":"city"},{"id":"be-2803005","label":"Athus","lat":49.56475,"lon":5.83736,"type":"city"},{"id":"be-2802990","label":"Aubange","lat":49.56652,"lon":5.80492,"type":"city"},{"id":"be-2802960","label":"Auderghem","lat":50.81667,"lon":4.43333,"type":"city"},{"id":"be-2802902","label":"Auvelais","lat":50.4504,"lon":4.63228,"type":"city"},{"id":"be-2802871","label":"Avelgem","lat":50.77618,"lon":3.44502,"type":"city"},{"id":"be-2802849","label":"Awans","lat":50.66774,"lon":5.46329,"type":"city"},{"id":"be-2802837","label":"Aywaille","lat":50.47411,"lon":5.67684,"type":"city"},{"id":"be-2802828","label":"Baal","lat":50.9955,"lon":4.75317,"type":"city"},{"id":"be-2802812","label":"Baasrode","lat":51.03805,"lon":4.1546,"type":"city"},{"id":"be-2802743","label":"Balen","lat":51.16837,"lon":5.17027,"type":"city"},{"id":"be-2802610","label":"Basse Lasne","lat":50.69503,"lon":4.49218,"type":"city"},{"id":"be-2802606","label":"Bassenge","lat":50.75883,"lon":5.60989,"type":"city"},{"id":"be-2802583","label":"Bastogne","lat":50.00347,"lon":5.71844,"type":"city"},{"id":"be-2802570","label":"Battice","lat":50.64734,"lon":5.82104,"type":"city"},{"id":"be-2802557","label":"Baudour","lat":50.48296,"lon":3.8332,"type":"city"},{"id":"be-2802529","label":"Bazel","lat":51.14741,"lon":4.30129,"type":"city"},{"id":"be-2802518","label":"Beaufays","lat":50.55884,"lon":5.63881,"type":"city"},{"id":"be-2802510","label":"Beaumont","lat":50.23699,"lon":4.23926,"type":"city"},{"id":"be-2802501","label":"Beauraing","lat":50.11042,"lon":4.95554,"type":"city"},{"id":"be-2802483","label":"Beauvechain","lat":50.78195,"lon":4.7718,"type":"city"},{"id":"be-2802437","label":"Beernem","lat":51.13981,"lon":3.33896,"type":"city"},{"id":"be-2802435","label":"Beerse","lat":51.31927,"lon":4.85304,"type":"city"},{"id":"be-2802433","label":"Beersel","lat":50.76589,"lon":4.3002,"type":"city"},{"id":"be-2802422","label":"Beerzel","lat":51.05753,"lon":4.67127,"type":"city"},{"id":"be-2802405","label":"Begijnendijk","lat":51.01942,"lon":4.78377,"type":"city"},{"id":"be-2802374","label":"Bekkevoort","lat":50.94074,"lon":4.969,"type":"city"},{"id":"be-2802292","label":"Beloeil","lat":50.55047,"lon":3.73484,"type":"city"},{"id":"be-2802289","label":"Belsele","lat":51.14598,"lon":4.08859,"type":"city"},{"id":"be-2802249","label":"Berchem","lat":51.19021,"lon":4.43264,"type":"city"},{"id":"be-2802247","label":"Berchem-Sainte-Agathe","lat":50.86567,"lon":4.29557,"type":"city"},{"id":"be-2802170","label":"Beringen","lat":51.04954,"lon":5.22606,"type":"city"},{"id":"be-2802156","label":"Berlaar","lat":51.1176,"lon":4.65835,"type":"city"},{"id":"be-2802154","label":"Berlare","lat":51.03333,"lon":4,"type":"city"},{"id":"be-2802135","label":"Bernissart","lat":50.4746,"lon":3.64961,"type":"city"},{"id":"be-2802123","label":"Bertem","lat":50.86403,"lon":4.62918,"type":"city"},{"id":"be-2802106","label":"Bertrix","lat":49.85596,"lon":5.25539,"type":"city"},{"id":"be-2802039","label":"Bevere","lat":50.8496,"lon":3.5873,"type":"city"},{"id":"be-2802031","label":"Beveren","lat":51.21187,"lon":4.25633,"type":"city"},{"id":"be-2802034","label":"Beveren-Leie","lat":50.87538,"lon":3.34034,"type":"city"},{"id":"be-2802025","label":"Beverlo","lat":51.08646,"lon":5.21855,"type":"city"},{"id":"be-2802021","label":"Beverst","lat":50.89091,"lon":5.47548,"type":"city"},{"id":"be-2802015","label":"Beyne-Heusay","lat":50.62251,"lon":5.66508,"type":"city"},{"id":"be-2801998","label":"Bierbeek","lat":50.82876,"lon":4.75949,"type":"city"},{"id":"be-2801924","label":"Bilzen","lat":50.87325,"lon":5.5184,"type":"city"},{"id":"be-2801922","label":"Binche","lat":50.41155,"lon":4.16469,"type":"city"},{"id":"be-2801891","label":"Bissegem","lat":50.82378,"lon":3.22844,"type":"city"},{"id":"be-2801858","label":"Blankenberge","lat":51.31306,"lon":3.13227,"type":"city"},{"id":"be-2801824","label":"Blauwput","lat":50.88587,"lon":4.72415,"type":"city"},{"id":"be-2801820","label":"Blegny","lat":50.67255,"lon":5.72508,"type":"city"},{"id":"be-2801754","label":"Bocholt","lat":51.17337,"lon":5.57994,"type":"city"},{"id":"be-2801743","label":"Boechout","lat":51.15959,"lon":4.49195,"type":"city"},{"id":"be-2801550","label":"Boncelles","lat":50.57108,"lon":5.53625,"type":"city"},{"id":"be-2801500","label":"Booischot","lat":51.05219,"lon":4.7751,"type":"city"},{"id":"be-2801494","label":"Boom","lat":51.09242,"lon":4.3717,"type":"city"},{"id":"be-2801483","label":"Boortmeerbeek","lat":50.97929,"lon":4.57443,"type":"city"},{"id":"be-2801471","label":"Borgerhout","lat":51.20957,"lon":4.43539,"type":"city"},{"id":"be-2801467","label":"Borgloon","lat":50.80505,"lon":5.34366,"type":"city"},{"id":"be-2801447","label":"Bornem","lat":51.09716,"lon":4.24364,"type":"city"},{"id":"be-2801438","label":"Borsbeek","lat":51.19661,"lon":4.48543,"type":"city"},{"id":"be-2801283","label":"Bouillon","lat":49.79324,"lon":5.06703,"type":"city"},{"id":"be-2801226","label":"Boussu","lat":50.43417,"lon":3.7944,"type":"city"},{"id":"be-2801215","label":"Boutersem","lat":50.84105,"lon":4.83367,"type":"city"},{"id":"be-2801161","label":"Bracquegnies","lat":50.47094,"lon":4.1197,"type":"city"},{"id":"be-2801154","label":"Braine-l'Alleud","lat":50.68363,"lon":4.36784,"type":"city"},{"id":"be-2801152","label":"Braine-le-Chateau","lat":50.6799,"lon":4.27385,"type":"city"},{"id":"be-2801150","label":"Braine-le-Comte","lat":50.60979,"lon":4.14658,"type":"city"},{"id":"be-2801147","label":"Braives","lat":50.62848,"lon":5.14798,"type":"city"},{"id":"be-2790421","label":"Brakel","lat":50.80101,"lon":3.76264,"type":"city"},{"id":"be-2801117","label":"Brasschaat","lat":51.2912,"lon":4.49182,"type":"city"},{"id":"be-2801106","label":"Brecht","lat":51.35024,"lon":4.63829,"type":"city"},{"id":"be-2801103","label":"Bredene","lat":51.23489,"lon":2.97559,"type":"city"},{"id":"be-2801093","label":"Bree","lat":51.14152,"lon":5.5969,"type":"city"},{"id":"be-2801060","label":"Bressoux","lat":50.63988,"lon":5.60629,"type":"city"},{"id":"be-2800931","label":"Brugge","lat":51.20892,"lon":3.22424,"type":"city"},{"id":"be-2800883","label":"Brunehault","lat":50.50524,"lon":4.43209,"type":"city"},{"id":"be-2800866","label":"Brussels","lat":50.85045,"lon":4.34878,"type":"city"},{"id":"be-2800816","label":"Buggenhout","lat":51.0159,"lon":4.20173,"type":"city"},{"id":"be-2800790","label":"Buizingen","lat":50.74227,"lon":4.25278,"type":"city"},{"id":"be-2800782","label":"Bullange","lat":50.40731,"lon":6.25749,"type":"city"},{"id":"be-2800765","label":"Burcht","lat":51.20393,"lon":4.34286,"type":"city"},{"id":"be-2800711","label":"Butgenbach","lat":50.42689,"lon":6.20504,"type":"city"},{"id":"be-2800637","label":"Carnieres","lat":50.44428,"lon":4.25509,"type":"city"},{"id":"be-2800584","label":"Ceroux-Mousty","lat":50.66089,"lon":4.5207,"type":"city"},{"id":"be-2800541","label":"Champion","lat":50.4953,"lon":4.90385,"type":"city"},{"id":"be-2800500","label":"Chapelle-lez-Herlaimont","lat":50.4713,"lon":4.28227,"type":"city"},{"id":"be-2800481","label":"Charleroi","lat":50.41136,"lon":4.44448,"type":"city"},{"id":"be-2800457","label":"Chastre-Villeroux-Blanmont","lat":50.60857,"lon":4.64198,"type":"city"},{"id":"be-2800448","label":"Chatelet","lat":50.40338,"lon":4.52826,"type":"city"},{"id":"be-2800445","label":"Chatelineau","lat":50.41499,"lon":4.52016,"type":"city"},{"id":"be-2800438","label":"Chaudfontaine","lat":50.5828,"lon":5.6341,"type":"city"},{"id":"be-2800430","label":"Chaumont-Gistoux","lat":50.67753,"lon":4.7212,"type":"city"},{"id":"be-2800395","label":"Chenee","lat":50.612,"lon":5.6141,"type":"city"},{"id":"be-2800328","label":"Chievres","lat":50.58787,"lon":3.80711,"type":"city"},{"id":"be-2800325","label":"Chimay","lat":50.04856,"lon":4.31712,"type":"city"},{"id":"be-2800298","label":"Ciney","lat":50.29449,"lon":5.10015,"type":"city"},{"id":"be-2800220","label":"Colfontaine","lat":50.4141,"lon":3.85569,"type":"city"},{"id":"be-2800204","label":"Comblain-au-Pont","lat":50.47488,"lon":5.57711,"type":"city"},{"id":"be-2800195","label":"Comines","lat":50.7754,"lon":3.00119,"type":"city"},{"id":"be-2800073","label":"Couillet","lat":50.39139,"lon":4.45908,"type":"city"},{"id":"be-2800063","label":"Courcelles","lat":50.46379,"lon":4.3747,"type":"city"},{"id":"be-2800042","label":"Court-Saint-Etienne","lat":50.63378,"lon":4.56851,"type":"city"},{"id":"be-2800025","label":"Couvin","lat":50.05284,"lon":4.49495,"type":"city"},{"id":"be-2799947","label":"Cuesmes","lat":50.43624,"lon":3.92323,"type":"city"},{"id":"be-2799897","label":"Dalhem","lat":50.71315,"lon":5.72774,"type":"city"},{"id":"be-2799885","label":"Damme","lat":51.25147,"lon":3.28144,"type":"city"},{"id":"be-2799880","label":"Dampremy","lat":50.41705,"lon":4.43092,"type":"city"},{"id":"be-2799779","label":"De Haan","lat":51.27261,"lon":3.03446,"type":"city"},{"id":"be-2799577","label":"De Panne","lat":51.09793,"lon":2.59368,"type":"city"},{"id":"be-2799570","label":"De Pinte","lat":50.99339,"lon":3.64747,"type":"city"},{"id":"be-2799797","label":"Deerlijk","lat":50.85337,"lon":3.35416,"type":"city"},{"id":"be-2799746","label":"Deinze","lat":50.98175,"lon":3.53096,"type":"city"},{"id":"be-2799649","label":"Denderhoutem","lat":50.87234,"lon":4.01821,"type":"city"},{"id":"be-2799647","label":"Denderleeuw","lat":50.88506,"lon":4.07601,"type":"city"},{"id":"be-2799645","label":"Dendermonde","lat":51.02869,"lon":4.10106,"type":"city"},{"id":"be-2799509","label":"Desselgem","lat":50.88611,"lon":3.35958,"type":"city"},{"id":"be-2799496","label":"Destelbergen","lat":51.05952,"lon":3.79899,"type":"city"},{"id":"be-2799478","label":"Deurne","lat":51.22134,"lon":4.46595,"type":"city"},{"id":"be-2799416","label":"Diegem","lat":50.89727,"lon":4.43354,"type":"city"},{"id":"be-2799412","label":"Diepenbeek","lat":50.90769,"lon":5.41875,"type":"city"},{"id":"be-2799397","label":"Diest","lat":50.98923,"lon":5.05062,"type":"city"},{"id":"be-2799369","label":"Diksmuide","lat":51.03248,"lon":2.86384,"type":"city"},{"id":"be-2799365","label":"Dilbeek","lat":50.84799,"lon":4.25972,"type":"city"},{"id":"be-2799362","label":"Dilsen","lat":51.03718,"lon":5.72096,"type":"city"},{"id":"be-2799357","label":"Dinant","lat":50.25807,"lon":4.91166,"type":"city"},{"id":"be-2799347","label":"Dison","lat":50.61004,"lon":5.8534,"type":"city"},{"id":"be-2799230","label":"Dottignies","lat":50.73333,"lon":3.3,"type":"city"},{"id":"be-2799226","label":"Dour","lat":50.39583,"lon":3.77792,"type":"city"},{"id":"be-2799108","label":"Drongen","lat":51.05067,"lon":3.65649,"type":"city"},{"id":"be-2799090","label":"Duffel","lat":51.09554,"lon":4.50903,"type":"city"},{"id":"be-2799047","label":"Durbuy","lat":50.35291,"lon":5.45631,"type":"city"},{"id":"be-2799034","label":"Dworp","lat":50.72983,"lon":4.30106,"type":"city"},{"id":"be-2799024","label":"Ecaussinnes-d'Enghien","lat":50.56822,"lon":4.1658,"type":"city"},{"id":"be-2799007","label":"Edegem","lat":51.15662,"lon":4.44504,"type":"city"},{"id":"be-2798987","label":"Eeklo","lat":51.18703,"lon":3.55654,"type":"city"},{"id":"be-2798973","label":"Eernegem","lat":51.1326,"lon":3.02562,"type":"city"},{"id":"be-2798949","label":"Eghezee","lat":50.59076,"lon":4.91175,"type":"city"},{"id":"be-2798887","label":"Eisden","lat":50.98463,"lon":5.71433,"type":"city"},{"id":"be-2798882","label":"Eke","lat":50.95929,"lon":3.6396,"type":"city"},{"id":"be-2798873","label":"Ekeren","lat":51.28087,"lon":4.41813,"type":"city"},{"id":"be-2798868","label":"Eksaarde","lat":51.14876,"lon":3.96814,"type":"city"},{"id":"be-2798866","label":"Eksel","lat":51.15184,"lon":5.3906,"type":"city"},{"id":"be-2798847","label":"Elewijt","lat":50.96043,"lon":4.49684,"type":"city"},{"id":"be-2798836","label":"Ellezelles","lat":50.73512,"lon":3.67985,"type":"city"},{"id":"be-2798784","label":"Embourg","lat":50.59043,"lon":5.6068,"type":"city"},{"id":"be-2798747","label":"Enghien","lat":50.69375,"lon":4.03788,"type":"city"},{"id":"be-2798743","label":"Engis","lat":50.58156,"lon":5.39916,"type":"city"},{"id":"be-2798700","label":"Erembodegem","lat":50.91905,"lon":4.05041,"type":"city"},{"id":"be-2798678","label":"Erpe","lat":50.93565,"lon":3.97219,"type":"city"},{"id":"be-2798668","label":"Erps-Kwerps","lat":50.90119,"lon":4.55984,"type":"city"},{"id":"be-2798666","label":"Erquelinnes","lat":50.30688,"lon":4.11129,"type":"city"},{"id":"be-2798652","label":"Ertvelde","lat":51.17921,"lon":3.74722,"type":"city"},{"id":"be-2798636","label":"Esneux","lat":50.53596,"lon":5.56775,"type":"city"},{"id":"be-2798615","label":"Essen","lat":51.46791,"lon":4.46901,"type":"city"},{"id":"be-2798604","label":"Estaimpuis","lat":50.70485,"lon":3.26785,"type":"city"},{"id":"be-2798597","label":"Estinnes-au-Val","lat":50.41016,"lon":4.10477,"type":"city"},{"id":"be-2798593","label":"Etalle","lat":49.67385,"lon":5.60019,"type":"city"},{"id":"be-2798578","label":"Etterbeek","lat":50.83272,"lon":4.38835,"type":"city"},{"id":"be-2798573","label":"Eupen","lat":50.6279,"lon":6.03647,"type":"city"},{"id":"be-2798554","label":"Evere","lat":50.87441,"lon":4.39905,"type":"city"},{"id":"be-2798551","label":"Evergem","lat":51.11306,"lon":3.70976,"type":"city"},{"id":"be-2798470","label":"Farciennes","lat":50.43006,"lon":4.54152,"type":"city"},{"id":"be-2798400","label":"Fayt-lez-Manage","lat":50.48698,"lon":4.22959,"type":"city"},{"id":"be-2798309","label":"Flemalle-Grande","lat":50.60906,"lon":5.47668,"type":"city"},{"id":"be-2798307","label":"Flemalle-Haute","lat":50.59994,"lon":5.44471,"type":"city"},{"id":"be-2798305","label":"Flenu","lat":50.43673,"lon":3.88573,"type":"city"},{"id":"be-2798301","label":"Fleron","lat":50.61516,"lon":5.68062,"type":"city"},{"id":"be-2798297","label":"Fleurus","lat":50.48351,"lon":4.55006,"type":"city"},{"id":"be-2798279","label":"Floreffe","lat":50.43452,"lon":4.7596,"type":"city"},{"id":"be-2798276","label":"Florennes","lat":50.25127,"lon":4.60636,"type":"city"},{"id":"be-2798272","label":"Florenville","lat":49.69983,"lon":5.3074,"type":"city"},{"id":"be-2798184","label":"Fontaine-l'Eveque","lat":50.40907,"lon":4.32427,"type":"city"},{"id":"be-2798145","label":"Forchies-la-Marche","lat":50.4369,"lon":4.32115,"type":"city"},{"id":"be-2798139","label":"Forest","lat":50.81678,"lon":4.32775,"type":"city"},{"id":"be-2798134","label":"Foret","lat":50.58387,"lon":5.7,"type":"city"},{"id":"be-2798099","label":"Fosses-la-Ville","lat":50.39517,"lon":4.69623,"type":"city"},{"id":"be-2798023","label":"Frameries","lat":50.40578,"lon":3.89603,"type":"city"},{"id":"be-2797979","label":"Frasnes-lez-Buissenal","lat":50.66783,"lon":3.62047,"type":"city"},{"id":"be-2797851","label":"Galmaarden","lat":50.75389,"lon":3.97121,"type":"city"},{"id":"be-2797844","label":"Ganshoren","lat":50.87065,"lon":4.31531,"type":"city"},{"id":"be-2797798","label":"Gavere","lat":50.92917,"lon":3.66184,"type":"city"},{"id":"be-2797779","label":"Geel","lat":51.16557,"lon":4.98917,"type":"city"},{"id":"be-2797761","label":"Geetbets","lat":50.89431,"lon":5.11199,"type":"city"},{"id":"be-2797719","label":"Geluwe","lat":50.80978,"lon":3.07695,"type":"city"},{"id":"be-2797713","label":"Gembloux","lat":50.56149,"lon":4.69889,"type":"city"},{"id":"be-2797694","label":"Genappe","lat":50.61173,"lon":4.45152,"type":"city"},{"id":"be-2797670","label":"Genk","lat":50.965,"lon":5.50082,"type":"city"},{"id":"be-2797656","label":"Gent","lat":51.05,"lon":3.71667,"type":"city"},{"id":"be-2797652","label":"Gentbrugge","lat":51.03692,"lon":3.76509,"type":"city"},{"id":"be-2797641","label":"Genval","lat":50.72162,"lon":4.49375,"type":"city"},{"id":"be-2797638","label":"Geraardsbergen","lat":50.77343,"lon":3.88223,"type":"city"},{"id":"be-2797581","label":"Gesves","lat":50.40146,"lon":5.07457,"type":"city"},{"id":"be-2797563","label":"Ghlin","lat":50.47313,"lon":3.90289,"type":"city"},{"id":"be-2797532","label":"Gilly","lat":50.42449,"lon":4.4789,"type":"city"},{"id":"be-2797523","label":"Gingelom","lat":50.74792,"lon":5.13422,"type":"city"},{"id":"be-2797517","label":"Gistel","lat":51.15612,"lon":2.96387,"type":"city"},{"id":"be-2797500","label":"Glabbeek","lat":50.87267,"lon":4.95615,"type":"city"},{"id":"be-2797417","label":"Gooik","lat":50.79443,"lon":4.11378,"type":"city"},{"id":"be-2797376","label":"Gosselies","lat":50.46936,"lon":4.43324,"type":"city"},{"id":"be-2797336","label":"Grace-Berleur","lat":50.64032,"lon":5.50329,"type":"city"},{"id":"be-2797138","label":"Grembergen","lat":51.05406,"lon":4.10458,"type":"city"},{"id":"be-2797128","label":"Grez-Doiceau","lat":50.73901,"lon":4.69829,"type":"city"},{"id":"be-2797114","label":"Grimbergen","lat":50.93409,"lon":4.37213,"type":"city"},{"id":"be-2797096","label":"Grivegnee","lat":50.62148,"lon":5.61101,"type":"city"},{"id":"be-2797094","label":"Grobbendonk","lat":51.19043,"lon":4.73562,"type":"city"},{"id":"be-2797051","label":"Groot-Bijgaarden","lat":50.87174,"lon":4.24973,"type":"city"},{"id":"be-2796854","label":"Gullegem","lat":50.84301,"lon":3.20466,"type":"city"},{"id":"be-2796833","label":"Haaltert","lat":50.90634,"lon":4.00093,"type":"city"},{"id":"be-2796807","label":"Habay-la-Vieille","lat":49.72329,"lon":5.61999,"type":"city"},{"id":"be-2796737","label":"Haine-Saint-Paul","lat":50.45544,"lon":4.1885,"type":"city"},{"id":"be-2796735","label":"Haine-Saint-Pierre","lat":50.45747,"lon":4.20659,"type":"city"},{"id":"be-2796715","label":"Halen","lat":50.94837,"lon":5.11096,"type":"city"},{"id":"be-2796695","label":"Halle","lat":51.24075,"lon":4.64327,"type":"city"},{"id":"be-2796696","label":"Halle","lat":50.73385,"lon":4.23454,"type":"city"},{"id":"be-2796637","label":"Hamme","lat":51.09822,"lon":4.13705,"type":"city"},{"id":"be-2796627","label":"Hamois","lat":50.3402,"lon":5.15619,"type":"city"},{"id":"be-2796625","label":"Hamont","lat":51.25332,"lon":5.54732,"type":"city"},{"id":"be-2796583","label":"Hannut","lat":50.67142,"lon":5.07898,"type":"city"},{"id":"be-2796542","label":"Harelbeke","lat":50.85343,"lon":3.30935,"type":"city"},{"id":"be-2796491","label":"Hasselt","lat":50.93106,"lon":5.33781,"type":"city"},{"id":"be-2796482","label":"Hastiere-Lavaux","lat":50.21849,"lon":4.82446,"type":"city"},{"id":"be-2796353","label":"Havre","lat":50.46401,"lon":4.04675,"type":"city"},{"id":"be-2796319","label":"Hechtel","lat":51.12518,"lon":5.36768,"type":"city"},{"id":"be-2796297","label":"Heers","lat":50.75383,"lon":5.3021,"type":"city"},{"id":"be-2796174","label":"Heinsch","lat":49.69986,"lon":5.7467,"type":"city"},{"id":"be-2796157","label":"Heist","lat":51.33867,"lon":3.23882,"type":"city"},{"id":"be-2796153","label":"Heist-op-den-Berg","lat":51.07537,"lon":4.72827,"type":"city"},{"id":"be-2796144","label":"Hekelgem","lat":50.90569,"lon":4.10769,"type":"city"},{"id":"be-2796132","label":"Helchteren","lat":51.05591,"lon":5.38244,"type":"city"},{"id":"be-2796085","label":"Hemiksem","lat":51.14484,"lon":4.33874,"type":"city"},{"id":"be-2796056","label":"Hensies","lat":50.43263,"lon":3.68411,"type":"city"},{"id":"be-2796012","label":"Herent","lat":50.90861,"lon":4.67056,"type":"city"},{"id":"be-2796009","label":"Herentals","lat":51.17655,"lon":4.83248,"type":"city"},{"id":"be-2795985","label":"Herk-de-Stad","lat":50.94013,"lon":5.16636,"type":"city"},{"id":"be-2795956","label":"Herne","lat":50.72423,"lon":4.03481,"type":"city"},{"id":"be-2795936","label":"Herseaux","lat":50.71667,"lon":3.21667,"type":"city"},{"id":"be-2795933","label":"Herselt","lat":51.05159,"lon":4.88231,"type":"city"},{"id":"be-2795930","label":"Herstal","lat":50.66415,"lon":5.62346,"type":"city"},{"id":"be-2795912","label":"Herve","lat":50.64083,"lon":5.79353,"type":"city"},{"id":"be-2795908","label":"Herzele","lat":50.88681,"lon":3.89014,"type":"city"},{"id":"be-2795823","label":"Heule","lat":50.83752,"lon":3.23818,"type":"city"},{"id":"be-2795800","label":"Heusden","lat":51.03664,"lon":5.28013,"type":"city"},{"id":"be-2795801","label":"Heusden","lat":51.02815,"lon":3.80425,"type":"city"},{"id":"be-2795795","label":"Heusy","lat":50.57457,"lon":5.86618,"type":"city"},{"id":"be-2795785","label":"Hever","lat":50.99545,"lon":4.55126,"type":"city"},{"id":"be-2795783","label":"Heverlee","lat":50.86426,"lon":4.69597,"type":"city"},{"id":"be-2795740","label":"Hingene","lat":51.10345,"lon":4.26904,"type":"city"},{"id":"be-2795730","label":"Hoboken","lat":51.17611,"lon":4.34844,"type":"city"},{"id":"be-2795699","label":"Hoeilaart","lat":50.7673,"lon":4.46835,"type":"city"},{"id":"be-2795648","label":"Hoeselt","lat":50.84714,"lon":5.48767,"type":"city"},{"id":"be-2795634","label":"Hoevenen","lat":51.30604,"lon":4.40203,"type":"city"},{"id":"be-2795618","label":"Hofstade","lat":50.9613,"lon":4.02663,"type":"city"},{"id":"be-2795516","label":"Hollogne-aux-Pierres","lat":50.64059,"lon":5.47179,"type":"city"},{"id":"be-2795511","label":"Holsbeek","lat":50.92097,"lon":4.75747,"type":"city"},{"id":"be-2795423","label":"Hooglede","lat":50.98333,"lon":3.08333,"type":"city"},{"id":"be-2795398","label":"Hoogstraten","lat":51.40029,"lon":4.76034,"type":"city"},{"id":"be-2795361","label":"Hornu","lat":50.4328,"lon":3.82736,"type":"city"},{"id":"be-2795331","label":"Houdeng-Aimeries","lat":50.48132,"lon":4.14545,"type":"city"},{"id":"be-2795329","label":"Houdeng-Goegnies","lat":50.49032,"lon":4.17513,"type":"city"},{"id":"be-2795261","label":"Houthalen","lat":51.03427,"lon":5.37429,"type":"city"},{"id":"be-2795255","label":"Houthulst","lat":50.97824,"lon":2.9505,"type":"city"},{"id":"be-2795232","label":"Hove","lat":51.15446,"lon":4.4707,"type":"city"},{"id":"be-2795184","label":"Huldenberg","lat":50.78939,"lon":4.5831,"type":"city"},{"id":"be-2795113","label":"Huy","lat":50.51894,"lon":5.23284,"type":"city"},{"id":"be-2795106","label":"Ichtegem","lat":51.09572,"lon":3.01549,"type":"city"},{"id":"be-2795100","label":"Ieper","lat":50.85114,"lon":2.88569,"type":"city"},{"id":"be-2795056","label":"Ingelmunster","lat":50.92081,"lon":3.25571,"type":"city"},{"id":"be-2795024","label":"Itegem","lat":51.10328,"lon":4.72855,"type":"city"},{"id":"be-2795017","label":"Ittre","lat":50.64396,"lon":4.26476,"type":"city"},{"id":"be-2795013","label":"Ivoz-Ramet","lat":50.58798,"lon":5.4657,"type":"city"},{"id":"be-2795011","label":"Ixelles","lat":50.83333,"lon":4.36667,"type":"city"},{"id":"be-2795009","label":"Izegem","lat":50.91396,"lon":3.21378,"type":"city"},{"id":"be-2794999","label":"Jabbeke","lat":51.18185,"lon":3.08935,"type":"city"},{"id":"be-2794989","label":"Jalhay","lat":50.55876,"lon":5.96764,"type":"city"},{"id":"be-2794981","label":"Jambes","lat":50.45636,"lon":4.87166,"type":"city"},{"id":"be-2794936","label":"Jemappes","lat":50.44914,"lon":3.89096,"type":"city"},{"id":"be-2794929","label":"Jemeppe-sur-Meuse","lat":50.61701,"lon":5.49849,"type":"city"},{"id":"be-2794930","label":"Jemeppe-sur-Sambre","lat":50.46543,"lon":4.6655,"type":"city"},{"id":"be-2794914","label":"Jette","lat":50.87309,"lon":4.33419,"type":"city"},{"id":"be-2794895","label":"Jodoigne","lat":50.72357,"lon":4.86914,"type":"city"},{"id":"be-2794860","label":"Jumet","lat":50.4422,"lon":4.43745,"type":"city"},{"id":"be-2794856","label":"Jupille-sur-Meuse","lat":50.64587,"lon":5.63307,"type":"city"},{"id":"be-2794854","label":"Juprelle","lat":50.7076,"lon":5.53127,"type":"city"},{"id":"be-2794852","label":"Jurbise","lat":50.531,"lon":3.90942,"type":"city"},{"id":"be-2794818","label":"Kain","lat":50.63869,"lon":3.39688,"type":"city"},{"id":"be-2794802","label":"Kalken","lat":51.03836,"lon":3.9186,"type":"city"},{"id":"be-2794788","label":"Kalmthout","lat":51.38442,"lon":4.47556,"type":"city"},{"id":"be-2794724","label":"Kapelle-op-den-Bos","lat":51.0097,"lon":4.36303,"type":"city"},{"id":"be-2794730","label":"Kapellen","lat":51.31377,"lon":4.43539,"type":"city"},{"id":"be-2794707","label":"Kaprijke","lat":51.2172,"lon":3.61519,"type":"city"},{"id":"be-2794663","label":"Kasterlee","lat":51.24118,"lon":4.96651,"type":"city"},{"id":"be-2794510","label":"Kessel","lat":51.13892,"lon":4.62962,"type":"city"},{"id":"be-2794507","label":"Kessel-Lo","lat":50.88549,"lon":4.73717,"type":"city"},{"id":"be-2794445","label":"Kinrooi","lat":51.14543,"lon":5.74207,"type":"city"},{"id":"be-2794277","label":"Klemskerke","lat":51.24222,"lon":3.02401,"type":"city"},{"id":"be-2794223","label":"Knesselare","lat":51.13932,"lon":3.41282,"type":"city"},{"id":"be-2794212","label":"Knokke","lat":51.35113,"lon":3.28744,"type":"city"},{"id":"be-2794210","label":"Knokke-Heist","lat":51.35,"lon":3.26667,"type":"city"},{"id":"be-2794194","label":"Koekelare","lat":51.09047,"lon":2.9783,"type":"city"},{"id":"be-2794190","label":"Koekelberg","lat":50.86117,"lon":4.33136,"type":"city"},{"id":"be-2794179","label":"Koersel","lat":51.05909,"lon":5.27121,"type":"city"},{"id":"be-2794166","label":"Koksijde","lat":51.11642,"lon":2.63772,"type":"city"},{"id":"be-2794117","label":"Kontich","lat":51.13213,"lon":4.44706,"type":"city"},{"id":"be-2794074","label":"Kortemark","lat":51.02951,"lon":3.04112,"type":"city"},{"id":"be-2794072","label":"Kortenaken","lat":50.90862,"lon":5.05968,"type":"city"},{"id":"be-2794070","label":"Kortenberg","lat":50.88982,"lon":4.54353,"type":"city"},{"id":"be-2794063","label":"Kortessem","lat":50.8589,"lon":5.38974,"type":"city"},{"id":"be-2794055","label":"Kortrijk","lat":50.82803,"lon":3.26487,"type":"city"},{"id":"be-2794016","label":"Kraainem","lat":50.86155,"lon":4.46946,"type":"city"},{"id":"be-2793940","label":"Kruibeke","lat":51.17048,"lon":4.31444,"type":"city"},{"id":"be-2793907","label":"Kruishoutem","lat":50.90168,"lon":3.52588,"type":"city"},{"id":"be-2793863","label":"Kuringen","lat":50.94426,"lon":5.29902,"type":"city"},{"id":"be-2793857","label":"Kuurne","lat":50.85143,"lon":3.2824,"type":"city"},{"id":"be-2793853","label":"Kwaadmechelen","lat":51.10099,"lon":5.14478,"type":"city"},{"id":"be-2793747","label":"La Bouverie","lat":50.40524,"lon":3.8744,"type":"city"},{"id":"be-2793733","label":"La Bruyere","lat":50.39478,"lon":4.61444,"type":"city"},{"id":"be-2793722","label":"La Calamine","lat":50.71809,"lon":6.01107,"type":"city"},{"id":"be-2793548","label":"La Hulpe","lat":50.73091,"lon":4.48577,"type":"city"},{"id":"be-2793508","label":"La Louviere","lat":50.48657,"lon":4.18785,"type":"city"},{"id":"be-2793797","label":"Laarne","lat":51.03078,"lon":3.85077,"type":"city"},{"id":"be-2793446","label":"Lanaken","lat":50.89318,"lon":5.6468,"type":"city"},{"id":"be-2793429","label":"Landen","lat":50.75267,"lon":5.082,"type":"city"},{"id":"be-2793406","label":"Langdorp","lat":50.99561,"lon":4.87175,"type":"city"},{"id":"be-2793392","label":"Langemark","lat":50.9131,"lon":2.91965,"type":"city"},{"id":"be-2793202","label":"Lauwe","lat":50.79479,"lon":3.1869,"type":"city"},{"id":"be-2787878","label":"Le Roeulx","lat":50.50365,"lon":4.11163,"type":"city"},{"id":"be-2793144","label":"Lebbeke","lat":51.00464,"lon":4.13457,"type":"city"},{"id":"be-2793077","label":"Lede","lat":50.96626,"lon":3.98594,"type":"city"},{"id":"be-2793070","label":"Ledeberg","lat":51.03859,"lon":3.74458,"type":"city"},{"id":"be-2792898","label":"Lembeek","lat":50.7157,"lon":4.21832,"type":"city"},{"id":"be-2792891","label":"Lemberge","lat":50.97629,"lon":3.77054,"type":"city"},{"id":"be-2792879","label":"Lendelede","lat":50.88626,"lon":3.23747,"type":"city"},{"id":"be-2792856","label":"Leopoldsburg","lat":51.11667,"lon":5.25,"type":"city"},{"id":"be-2792567","label":"Lessines","lat":50.71104,"lon":3.83579,"type":"city"},{"id":"be-2789096","label":"Lettelingen","lat":50.68333,"lon":4.08333,"type":"city"},{"id":"be-2792482","label":"Leuven","lat":50.87959,"lon":4.70093,"type":"city"},{"id":"be-2792474","label":"Leuze","lat":50.6,"lon":3.6,"type":"city"},{"id":"be-2792466","label":"Leval-Trahegnies","lat":50.4213,"lon":4.22556,"type":"city"},{"id":"be-2792435","label":"Lichtaart","lat":51.22495,"lon":4.91681,"type":"city"},{"id":"be-2792428","label":"Lichtervelde","lat":51.03333,"lon":3.15,"type":"city"},{"id":"be-2792423","label":"Liedekerke","lat":50.86892,"lon":4.08743,"type":"city"},{"id":"be-2792413","label":"Liege","lat":50.63373,"lon":5.56749,"type":"city"},{"id":"be-2792397","label":"Lier","lat":51.13128,"lon":4.57041,"type":"city"},{"id":"be-2792360","label":"Lille","lat":51.24197,"lon":4.82313,"type":"city"},{"id":"be-2792352","label":"Limal","lat":50.69477,"lon":4.57538,"type":"city"},{"id":"be-2792348","label":"Limbourg","lat":50.61222,"lon":5.9412,"type":"city"},{"id":"be-2792345","label":"Limelette","lat":50.68428,"lon":4.57186,"type":"city"},{"id":"be-2792313","label":"Linden","lat":50.89494,"lon":4.77027,"type":"city"},{"id":"be-2792266","label":"Lissewege","lat":51.29427,"lon":3.19331,"type":"city"},{"id":"be-2792245","label":"Lobbes","lat":50.35258,"lon":4.26716,"type":"city"},{"id":"be-2792235","label":"Lochristi","lat":51.09644,"lon":3.83194,"type":"city"},{"id":"be-2792226","label":"Lodelinsart","lat":50.43138,"lon":4.44886,"type":"city"},{"id":"be-2792196","label":"Lokeren","lat":51.10364,"lon":3.99339,"type":"city"},{"id":"be-2792179","label":"Lommel","lat":51.23074,"lon":5.31349,"type":"city"},{"id":"be-2792073","label":"Louvain-la-Neuve","lat":50.66829,"lon":4.61443,"type":"city"},{"id":"be-2792057","label":"Lovendegem","lat":51.10168,"lon":3.61298,"type":"city"},{"id":"be-2792034","label":"Lubbeek","lat":50.88278,"lon":4.83896,"type":"city"},{"id":"be-2792007","label":"Lummen","lat":50.98772,"lon":5.19121,"type":"city"},{"id":"be-2791964","label":"Maaseik","lat":51.09802,"lon":5.78379,"type":"city"},{"id":"be-2791961","label":"Maasmechelen","lat":50.96545,"lon":5.69452,"type":"city"},{"id":"be-2791951","label":"Machelen","lat":50.91061,"lon":4.44174,"type":"city"},{"id":"be-2791857","label":"Maldegem","lat":51.20737,"lon":3.44511,"type":"city"},{"id":"be-2791834","label":"Malmedy","lat":50.42686,"lon":6.02794,"type":"city"},{"id":"be-2791831","label":"Malonne","lat":50.43969,"lon":4.79562,"type":"city"},{"id":"be-2791814","label":"Manage","lat":50.50312,"lon":4.23589,"type":"city"},{"id":"be-2791744","label":"Marche-en-Famenne","lat":50.22678,"lon":5.34416,"type":"city"},{"id":"be-2791735","label":"Marchienne-au-Pont","lat":50.40573,"lon":4.3953,"type":"city"},{"id":"be-2791733","label":"Marchin","lat":50.46707,"lon":5.2428,"type":"city"},{"id":"be-2791726","label":"Marcinelle","lat":50.39216,"lon":4.44388,"type":"city"},{"id":"be-2791700","label":"Mariakerke","lat":51.07476,"lon":3.68289,"type":"city"},{"id":"be-2791673","label":"Marke","lat":50.80678,"lon":3.23344,"type":"city"},{"id":"be-2791566","label":"Maurage","lat":50.45652,"lon":4.09704,"type":"city"},{"id":"be-2791537","label":"Mechelen","lat":51.02574,"lon":4.47762,"type":"city"},{"id":"be-2791534","label":"Mechelen-aan-de-Maas","lat":50.96589,"lon":5.69144,"type":"city"},{"id":"be-2791507","label":"Meerbeke","lat":50.82444,"lon":4.03674,"type":"city"},{"id":"be-2791494","label":"Meerhout","lat":51.1321,"lon":5.07842,"type":"city"},{"id":"be-2791460","label":"Meeuwen","lat":51.0991,"lon":5.52106,"type":"city"},{"id":"be-2791424","label":"Meise","lat":50.93934,"lon":4.32655,"type":"city"},{"id":"be-2791385","label":"Melle","lat":51.00232,"lon":3.80526,"type":"city"},{"id":"be-2791366","label":"Melsele","lat":51.22285,"lon":4.28201,"type":"city"},{"id":"be-2791343","label":"Menen","lat":50.79722,"lon":3.12245,"type":"city"},{"id":"be-2791323","label":"Merchtem","lat":50.95129,"lon":4.23197,"type":"city"},{"id":"be-2791317","label":"Mere","lat":50.92306,"lon":3.97134,"type":"city"},{"id":"be-2791315","label":"Merelbeke","lat":50.99447,"lon":3.74621,"type":"city"},{"id":"be-2791301","label":"Merksem","lat":51.24623,"lon":4.44903,"type":"city"},{"id":"be-2791297","label":"Merksplas","lat":51.35851,"lon":4.86513,"type":"city"},{"id":"be-2791272","label":"Messancy","lat":49.59201,"lon":5.81879,"type":"city"},{"id":"be-2791261","label":"Mettet","lat":50.32119,"lon":4.66232,"type":"city"},{"id":"be-2791255","label":"Meulebeke","lat":50.95136,"lon":3.28804,"type":"city"},{"id":"be-2791194","label":"Middelkerke","lat":51.18532,"lon":2.82077,"type":"city"},{"id":"be-2791120","label":"Moerbeke","lat":51.17409,"lon":3.93001,"type":"city"},{"id":"be-2791067","label":"Mol","lat":51.19188,"lon":5.11662,"type":"city"},{"id":"be-2791018","label":"Molenbeek-Saint-Jean","lat":50.8499,"lon":4.31248,"type":"city"},{"id":"be-2790906","label":"Momignies","lat":50.0271,"lon":4.16519,"type":"city"},{"id":"be-2790891","label":"Monceau-sur-Sambre","lat":50.41694,"lon":4.37668,"type":"city"},{"id":"be-2790869","label":"Mons","lat":50.45413,"lon":3.95229,"type":"city"},{"id":"be-2790756","label":"Mont-Saint-Guibert","lat":50.63427,"lon":4.61061,"type":"city"},{"id":"be-2790749","label":"Mont-sur-Marchienne","lat":50.38997,"lon":4.40732,"type":"city"},{"id":"be-2790824","label":"Montegnee","lat":50.64576,"lon":5.51411,"type":"city"},{"id":"be-2790796","label":"Montignies-sur-Sambre","lat":50.41081,"lon":4.49109,"type":"city"},{"id":"be-2790804","label":"Montigny-le-Tilleul","lat":50.38056,"lon":4.37582,"type":"city"},{"id":"be-2790736","label":"Moorsel","lat":50.94743,"lon":4.09825,"type":"city"},{"id":"be-2790733","label":"Moorsele","lat":50.8409,"lon":3.15971,"type":"city"},{"id":"be-2790729","label":"Moorslede","lat":50.8919,"lon":3.06117,"type":"city"},{"id":"be-2790697","label":"Morlanwelz-Mariemont","lat":50.45502,"lon":4.24519,"type":"city"},{"id":"be-2790676","label":"Mortsel","lat":51.16697,"lon":4.45127,"type":"city"},{"id":"be-2790595","label":"Mouscron","lat":50.74497,"lon":3.20639,"type":"city"},{"id":"be-2790558","label":"Muizen","lat":51.01111,"lon":4.51427,"type":"city"},{"id":"be-2790479","label":"Nalinnes","lat":50.32434,"lon":4.44572,"type":"city"},{"id":"be-2790471","label":"Namur","lat":50.4669,"lon":4.86746,"type":"city"},{"id":"be-2790451","label":"Nassogne","lat":50.12849,"lon":5.34274,"type":"city"},{"id":"be-2790433","label":"Nazareth","lat":50.95686,"lon":3.59425,"type":"city"},{"id":"be-2790361","label":"Neeroeteren","lat":51.09156,"lon":5.69933,"type":"city"},{"id":"be-2790357","label":"Neerpelt","lat":51.22807,"lon":5.4427,"type":"city"},{"id":"be-12902635","label":"Negenmanneke","lat":50.80458,"lon":4.28506,"type":"city"},{"id":"be-2790286","label":"Neufchateau","lat":49.84074,"lon":5.43535,"type":"city"},{"id":"be-2790235","label":"Nevele","lat":51.03531,"lon":3.54574,"type":"city"},{"id":"be-2790225","label":"Niel","lat":51.11096,"lon":4.33428,"type":"city"},{"id":"be-2790178","label":"Nieuwerkerken","lat":50.92386,"lon":4.00433,"type":"city"},{"id":"be-2790179","label":"Nieuwerkerken","lat":50.8638,"lon":5.19467,"type":"city"},{"id":"be-2790163","label":"Nieuwkerken-Waas","lat":51.19358,"lon":4.17776,"type":"city"},{"id":"be-2790150","label":"Nieuwpoort","lat":51.13008,"lon":2.75135,"type":"city"},{"id":"be-2790135","label":"Nijlen","lat":51.16096,"lon":4.67008,"type":"city"},{"id":"be-2790114","label":"Ninove","lat":50.82776,"lon":4.02657,"type":"city"},{"id":"be-2790101","label":"Nivelles","lat":50.59833,"lon":4.32848,"type":"city"},{"id":"be-2790043","label":"Noorderwijk","lat":51.14122,"lon":4.84061,"type":"city"},{"id":"be-2789948","label":"Oedelem","lat":51.17033,"lon":3.33762,"type":"city"},{"id":"be-2789911","label":"Ohain","lat":50.69885,"lon":4.4698,"type":"city"},{"id":"be-2789821","label":"Onze-Lieve-Vrouw-Waver","lat":51.06265,"lon":4.57941,"type":"city"},{"id":"be-2789800","label":"Oostakker","lat":51.10124,"lon":3.76945,"type":"city"},{"id":"be-2789794","label":"Oostduinkerke","lat":51.11565,"lon":2.68217,"type":"city"},{"id":"be-2789771","label":"Oosterzele","lat":50.95261,"lon":3.79826,"type":"city"},{"id":"be-2789769","label":"Oostham","lat":51.10374,"lon":5.17877,"type":"city"},{"id":"be-2789751","label":"Oostkamp","lat":51.15432,"lon":3.23128,"type":"city"},{"id":"be-2789745","label":"Oostmalle","lat":51.3,"lon":4.73333,"type":"city"},{"id":"be-2789737","label":"Oostrozebeke","lat":50.92093,"lon":3.33799,"type":"city"},{"id":"be-2789714","label":"Opglabbeek","lat":51.04258,"lon":5.58346,"type":"city"},{"id":"be-2789654","label":"Opwijk","lat":50.96724,"lon":4.18442,"type":"city"},{"id":"be-2789786","label":"Ostend","lat":51.21551,"lon":2.927,"type":"city"},{"id":"be-2789570","label":"Ottignies","lat":50.66535,"lon":4.56679,"type":"city"},{"id":"be-2789492","label":"Oud-Heverlee","lat":50.83522,"lon":4.66421,"type":"city"},{"id":"be-2789483","label":"Oud-Turnhout","lat":51.31978,"lon":4.9841,"type":"city"},{"id":"be-2789529","label":"Oudenaarde","lat":50.85168,"lon":3.60891,"type":"city"},{"id":"be-2789519","label":"Oudenburg","lat":51.18489,"lon":3.00035,"type":"city"},{"id":"be-2789475","label":"Ougree","lat":50.60149,"lon":5.5444,"type":"city"},{"id":"be-2789471","label":"Oupeye","lat":50.71184,"lon":5.6468,"type":"city"},{"id":"be-2789413","label":"Overijse","lat":50.77436,"lon":4.53461,"type":"city"},{"id":"be-2789403","label":"Overpelt","lat":51.21038,"lon":5.41557,"type":"city"},{"id":"be-2789388","label":"Paal","lat":51.03988,"lon":5.17233,"type":"city"},{"id":"be-2789354","label":"Paliseul","lat":49.90395,"lon":5.13537,"type":"city"},{"id":"be-2789346","label":"Pamel","lat":50.8453,"lon":4.07129,"type":"city"},{"id":"be-2789254","label":"Paturages","lat":50.4072,"lon":3.855,"type":"city"},{"id":"be-2789232","label":"Peer","lat":51.1303,"lon":5.45952,"type":"city"},{"id":"be-2789190","label":"Pepinster","lat":50.56568,"lon":5.80386,"type":"city"},{"id":"be-2789162","label":"Peruwelz","lat":50.50819,"lon":3.59373,"type":"city"},{"id":"be-2789145","label":"Petegem-aan-de-Leie","lat":50.96667,"lon":3.53333,"type":"city"},{"id":"be-2789016","label":"Philippeville","lat":50.19612,"lon":4.54374,"type":"city"},{"id":"be-2788925","label":"Pittem","lat":50.99279,"lon":3.26317,"type":"city"},{"id":"be-2788849","label":"Plombieres","lat":50.73656,"lon":5.95922,"type":"city"},{"id":"be-2788765","label":"Pont-a-Celles","lat":50.50518,"lon":4.36887,"type":"city"},{"id":"be-2788726","label":"Poperinge","lat":50.85386,"lon":2.72659,"type":"city"},{"id":"be-2788650","label":"Prayon","lat":50.57795,"lon":5.6753,"type":"city"},{"id":"be-2788577","label":"Profondeville","lat":50.37581,"lon":4.86506,"type":"city"},{"id":"be-2788521","label":"Putte","lat":51.05337,"lon":4.63263,"type":"city"},{"id":"be-2788506","label":"Puurs","lat":51.07409,"lon":4.28844,"type":"city"},{"id":"be-2788499","label":"Quaregnon","lat":50.44067,"lon":3.8653,"type":"city"},{"id":"be-2788446","label":"Quevy-le-Petit","lat":50.36879,"lon":3.93602,"type":"city"},{"id":"be-2788444","label":"Quievrain","lat":50.40737,"lon":3.68351,"type":"city"},{"id":"be-2788410","label":"Raeren","lat":50.6672,"lon":6.11535,"type":"city"},{"id":"be-2788381","label":"Ramillies","lat":50.63395,"lon":4.90119,"type":"city"},{"id":"be-2788353","label":"Ransart","lat":50.46166,"lon":4.47616,"type":"city"},{"id":"be-2788348","label":"Ranst","lat":51.18983,"lon":4.56533,"type":"city"},{"id":"be-2788312","label":"Ravels","lat":51.37274,"lon":4.9921,"type":"city"},{"id":"be-2788299","label":"Rebecq-Rognon","lat":50.65147,"lon":4.10683,"type":"city"},{"id":"be-2788273","label":"Reet","lat":51.10201,"lon":4.41264,"type":"city"},{"id":"be-2788211","label":"Remicourt","lat":50.68069,"lon":5.32785,"type":"city"},{"id":"be-2788138","label":"Retie","lat":51.26652,"lon":5.08242,"type":"city"},{"id":"be-2788088","label":"Riemst","lat":50.80995,"lon":5.60131,"type":"city"},{"id":"be-2788051","label":"Rijkevorsel","lat":51.34795,"lon":4.76053,"type":"city"},{"id":"be-2788046","label":"Rijmenam","lat":51.0016,"lon":4.58405,"type":"city"},{"id":"be-2788028","label":"Rillaar","lat":50.97376,"lon":4.89177,"type":"city"},{"id":"be-2787989","label":"Rixensart","lat":50.71229,"lon":4.52529,"type":"city"},{"id":"be-2787948","label":"Rochefort","lat":50.1631,"lon":5.2216,"type":"city"},{"id":"be-2787937","label":"Rocourt","lat":50.67579,"lon":5.54621,"type":"city"},{"id":"be-2787889","label":"Roeselare","lat":50.94653,"lon":3.12269,"type":"city"},{"id":"be-2787769","label":"Ronse","lat":50.74574,"lon":3.6005,"type":"city"},{"id":"be-2787662","label":"Rotselaar","lat":50.95302,"lon":4.71665,"type":"city"},{"id":"be-2787616","label":"Roux","lat":50.44111,"lon":4.3917,"type":"city"},{"id":"be-2787572","label":"Ruddervoorde","lat":51.09589,"lon":3.20743,"type":"city"},{"id":"be-2787552","label":"Ruisbroek","lat":50.79015,"lon":4.29771,"type":"city"},{"id":"be-2787547","label":"Ruiselede","lat":51.04039,"lon":3.39416,"type":"city"},{"id":"be-2787532","label":"Rumbeke","lat":50.93248,"lon":3.16716,"type":"city"},{"id":"be-2787521","label":"Rumst","lat":51.08153,"lon":4.42217,"type":"city"},{"id":"be-2787425","label":"Saint-Georges-sur-Meuse","lat":50.60007,"lon":5.3574,"type":"city"},{"id":"be-2787416","label":"Saint-Ghislain","lat":50.44816,"lon":3.81886,"type":"city"},{"id":"be-2787413","label":"Saint-Gilles","lat":50.82763,"lon":4.34389,"type":"city"},{"id":"be-2787407","label":"Saint-Hubert","lat":50.02668,"lon":5.37401,"type":"city"},{"id":"be-2787387","label":"Saint-Josse-ten-Noode","lat":50.8538,"lon":4.37282,"type":"city"},{"id":"be-2787356","label":"Saint-Nicolas","lat":50.62837,"lon":5.53243,"type":"city"},{"id":"be-2787327","label":"Saint-Servais","lat":50.4763,"lon":4.83656,"type":"city"},{"id":"be-2787319","label":"Saint-Vaast","lat":50.45426,"lon":4.16041,"type":"city"},{"id":"be-2787315","label":"Saint-Vith","lat":50.28146,"lon":6.12724,"type":"city"},{"id":"be-2787176","label":"Sauveniere","lat":50.58157,"lon":4.72466,"type":"city"},{"id":"be-2787149","label":"Schaerbeek","lat":50.86935,"lon":4.37737,"type":"city"},{"id":"be-2787080","label":"Schelle","lat":51.12615,"lon":4.34114,"type":"city"},{"id":"be-2787071","label":"Schepdaal","lat":50.83836,"lon":4.19609,"type":"city"},{"id":"be-2787060","label":"Scherpenheuvel","lat":50.98075,"lon":4.97552,"type":"city"},{"id":"be-2787048","label":"Schilde","lat":51.24107,"lon":4.58336,"type":"city"},{"id":"be-2786963","label":"Schoten","lat":51.25251,"lon":4.50268,"type":"city"},{"id":"be-2786938","label":"Schriek","lat":51.02844,"lon":4.69357,"type":"city"},{"id":"be-2786873","label":"Seilles","lat":50.50065,"lon":5.09268,"type":"city"},{"id":"be-2786852","label":"Seneffe","lat":50.53135,"lon":4.26301,"type":"city"},{"id":"be-2786824","label":"Seraing","lat":50.58362,"lon":5.50115,"type":"city"},{"id":"be-2786777","label":"Sijsele","lat":51.20846,"lon":3.31714,"type":"city"},{"id":"be-2786769","label":"Silly","lat":50.64877,"lon":3.92363,"type":"city"},{"id":"be-2786762","label":"Sinaai","lat":51.15789,"lon":4.04087,"type":"city"},{"id":"be-2786746","label":"Sint-Amands","lat":51.05645,"lon":4.20957,"type":"city"},{"id":"be-2786743","label":"Sint-Amandsberg","lat":51.05947,"lon":3.74943,"type":"city"},{"id":"be-2786739","label":"Sint-Andries","lat":51.19696,"lon":3.17891,"type":"city"},{"id":"be-2786713","label":"Sint-Denijs-Westrem","lat":51.02135,"lon":3.67202,"type":"city"},{"id":"be-2786700","label":"Sint-Genesius-Rode","lat":50.74645,"lon":4.35754,"type":"city"},{"id":"be-2786697","label":"Sint-Gillis-bij-Dendermonde","lat":51.01905,"lon":4.11146,"type":"city"},{"id":"be-2786694","label":"Sint-Gillis-Waas","lat":51.21914,"lon":4.12374,"type":"city"},{"id":"be-2786659","label":"Sint-Job-in-'t-Goor","lat":51.29907,"lon":4.57289,"type":"city"},{"id":"be-2786641","label":"Sint-Katelijne-Waver","lat":51.06691,"lon":4.53469,"type":"city"},{"id":"be-2786638","label":"Sint-Katherina-Lombeek","lat":50.87314,"lon":4.1536,"type":"city"},{"id":"be-2786634","label":"Sint-Kruis","lat":51.21399,"lon":3.24949,"type":"city"},{"id":"be-2786630","label":"Sint-Kwintens-Lennik","lat":50.80377,"lon":4.15489,"type":"city"},{"id":"be-2786626","label":"Sint-Laureins","lat":51.24202,"lon":3.52441,"type":"city"},{"id":"be-2786622","label":"Sint-Lenaarts","lat":51.34868,"lon":4.68009,"type":"city"},{"id":"be-2786616","label":"Sint-Lievens-Houtem","lat":50.9197,"lon":3.86225,"type":"city"},{"id":"be-2786603","label":"Sint-Maria-Lierde","lat":50.81867,"lon":3.84436,"type":"city"},{"id":"be-2786591","label":"Sint-Martens-Latem","lat":51.01459,"lon":3.63779,"type":"city"},{"id":"be-2786587","label":"Sint-Martens-Lennik","lat":50.81158,"lon":4.16965,"type":"city"},{"id":"be-2786581","label":"Sint-Michiels","lat":51.18806,"lon":3.21142,"type":"city"},{"id":"be-2786578","label":"Sint-Niklaas","lat":51.16509,"lon":4.1437,"type":"city"},{"id":"be-2786559","label":"Sint-Pieters-Leeuw","lat":50.77926,"lon":4.24355,"type":"city"},{"id":"be-2786548","label":"Sint-Stevens-Woluwe","lat":50.86838,"lon":4.45195,"type":"city"},{"id":"be-2786545","label":"Sint-Truiden","lat":50.81679,"lon":5.18647,"type":"city"},{"id":"be-2786516","label":"Sleidinge","lat":51.13363,"lon":3.67405,"type":"city"},{"id":"be-2786420","label":"Soignies","lat":50.57904,"lon":4.07129,"type":"city"},{"id":"be-2786390","label":"Sombreffe","lat":50.52865,"lon":4.60087,"type":"city"},{"id":"be-2786344","label":"Soumagne","lat":50.61385,"lon":5.74679,"type":"city"},{"id":"be-2786318","label":"Spa","lat":50.48375,"lon":5.86674,"type":"city"},{"id":"be-2786242","label":"Sprimont","lat":50.50922,"lon":5.6595,"type":"city"},{"id":"be-2786229","label":"Stabroek","lat":51.33189,"lon":4.37127,"type":"city"},{"id":"be-2786226","label":"Staden","lat":50.97456,"lon":3.01469,"type":"city"},{"id":"be-2786185","label":"Stavelot","lat":50.395,"lon":5.93124,"type":"city"},{"id":"be-2786124","label":"Steenokkerzeel","lat":50.91851,"lon":4.50989,"type":"city"},{"id":"be-2786087","label":"Stekene","lat":51.2099,"lon":4.03651,"type":"city"},{"id":"be-2786080","label":"Stembert","lat":50.59107,"lon":5.89404,"type":"city"},{"id":"be-2786077","label":"Stene","lat":51.20437,"lon":2.91259,"type":"city"},{"id":"be-2786055","label":"Sterrebeek","lat":50.86171,"lon":4.49375,"type":"city"},{"id":"be-2785962","label":"Strepy-Bracquegnies","lat":50.4728,"lon":4.12022,"type":"city"},{"id":"be-2785949","label":"Strombeek-Bever","lat":50.91039,"lon":4.35582,"type":"city"},{"id":"be-2785839","label":"Tamines","lat":50.43378,"lon":4.60713,"type":"city"},{"id":"be-2785778","label":"Temse","lat":51.12794,"lon":4.21372,"type":"city"},{"id":"be-2785654","label":"Ternat","lat":50.86654,"lon":4.16682,"type":"city"},{"id":"be-2785622","label":"Tervuren","lat":50.82372,"lon":4.51418,"type":"city"},{"id":"be-2785612","label":"Tessenderlo","lat":51.06513,"lon":5.08856,"type":"city"},{"id":"be-2785593","label":"Theux","lat":50.53323,"lon":5.81245,"type":"city"},{"id":"be-2785517","label":"Thuin","lat":50.33933,"lon":4.28604,"type":"city"},{"id":"be-2785476","label":"Tielt","lat":50.99931,"lon":3.32707,"type":"city"},{"id":"be-2785477","label":"Tielt","lat":50.9421,"lon":4.90505,"type":"city"},{"id":"be-7669081","label":"Tielt-Winge","lat":50.91743,"lon":4.88368,"type":"city"},{"id":"be-2785470","label":"Tienen","lat":50.80745,"lon":4.9378,"type":"city"},{"id":"be-2785449","label":"Tilff","lat":50.56432,"lon":5.57642,"type":"city"},{"id":"be-2785389","label":"Tongeren","lat":50.78054,"lon":5.46484,"type":"city"},{"id":"be-2785385","label":"Tongerlo","lat":51.10622,"lon":4.91638,"type":"city"},{"id":"be-2785364","label":"Torhout","lat":51.0656,"lon":3.10085,"type":"city"},{"id":"be-2785341","label":"Tournai","lat":50.60715,"lon":3.38932,"type":"city"},{"id":"be-2785305","label":"Trazegnies","lat":50.46379,"lon":4.3329,"type":"city"},{"id":"be-2785293","label":"Tremelo","lat":50.99231,"lon":4.70807,"type":"city"},{"id":"be-2785208","label":"Trooz","lat":50.57026,"lon":5.69521,"type":"city"},{"id":"be-2785169","label":"Tubize","lat":50.69059,"lon":4.2009,"type":"city"},{"id":"be-2785141","label":"Turnhout","lat":51.32254,"lon":4.94471,"type":"city"},{"id":"be-2785123","label":"Uccle","lat":50.80225,"lon":4.33943,"type":"city"},{"id":"be-2785103","label":"Uitkerke","lat":51.30684,"lon":3.13712,"type":"city"},{"id":"be-2785021","label":"Varsenare","lat":51.18981,"lon":3.13916,"type":"city"},{"id":"be-2784996","label":"Vaux-sous-Chevremont","lat":50.60302,"lon":5.6335,"type":"city"},{"id":"be-2784986","label":"Vedrin","lat":50.50273,"lon":4.87604,"type":"city"},{"id":"be-2784980","label":"Veerle","lat":51.06989,"lon":4.98761,"type":"city"},{"id":"be-2784957","label":"Veldegem","lat":51.1048,"lon":3.1591,"type":"city"},{"id":"be-2784821","label":"Verviers","lat":50.58907,"lon":5.86241,"type":"city"},{"id":"be-2784804","label":"Veurne","lat":51.07316,"lon":2.66803,"type":"city"},{"id":"be-2784775","label":"Vielsalm","lat":50.28407,"lon":5.91502,"type":"city"},{"id":"be-2784641","label":"Villers-la-Ville","lat":50.57953,"lon":4.53398,"type":"city"},{"id":"be-2784639","label":"Villers-le-Bouillet","lat":50.57708,"lon":5.25945,"type":"city"},{"id":"be-2784604","label":"Vilvoorde","lat":50.92814,"lon":4.42938,"type":"city"},{"id":"be-2784555","label":"Virton","lat":49.56824,"lon":5.53259,"type":"city"},{"id":"be-2784548","label":"Vise","lat":50.7376,"lon":5.69907,"type":"city"},{"id":"be-2784364","label":"Vorst","lat":51.08029,"lon":5.01998,"type":"city"},{"id":"be-2784349","label":"Vosselaar","lat":51.30856,"lon":4.8896,"type":"city"},{"id":"be-2784333","label":"Vottem","lat":50.67155,"lon":5.57693,"type":"city"},{"id":"be-2784237","label":"Waarschoot","lat":51.1525,"lon":3.605,"type":"city"},{"id":"be-2784231","label":"Waasmunster","lat":51.10572,"lon":4.08573,"type":"city"},{"id":"be-2784227","label":"Wachtebeke","lat":51.16852,"lon":3.87183,"type":"city"},{"id":"be-2784199","label":"Waimes","lat":50.41488,"lon":6.11207,"type":"city"},{"id":"be-2784189","label":"Walcourt","lat":50.25401,"lon":4.43796,"type":"city"},{"id":"be-2784168","label":"Walhain-Saint-Paul","lat":50.62627,"lon":4.69837,"type":"city"},{"id":"be-2784114","label":"Wandre","lat":50.66774,"lon":5.65959,"type":"city"},{"id":"be-2784111","label":"Wanfercee-Baulet","lat":50.47291,"lon":4.58748,"type":"city"},{"id":"be-2784092","label":"Wanze","lat":50.53907,"lon":5.20846,"type":"city"},{"id":"be-2784068","label":"Waregem","lat":50.88898,"lon":3.42756,"type":"city"},{"id":"be-2784066","label":"Waremme","lat":50.6976,"lon":5.25524,"type":"city"},{"id":"be-2784019","label":"Wasmes","lat":50.41464,"lon":3.8471,"type":"city"},{"id":"be-2783985","label":"Waterloo","lat":50.71469,"lon":4.3991,"type":"city"},{"id":"be-2783979","label":"Watermael-Boitsfort","lat":50.80154,"lon":4.41436,"type":"city"},{"id":"be-2783941","label":"Wavre","lat":50.71717,"lon":4.60138,"type":"city"},{"id":"be-2783870","label":"Welkenraedt","lat":50.6605,"lon":5.97034,"type":"city"},{"id":"be-2783864","label":"Wellen","lat":50.84096,"lon":5.33867,"type":"city"},{"id":"be-2783856","label":"Wemmel","lat":50.90812,"lon":4.30613,"type":"city"},{"id":"be-2783850","label":"Wepion","lat":50.42153,"lon":4.86403,"type":"city"},{"id":"be-2783820","label":"Wervik","lat":50.78069,"lon":3.03854,"type":"city"},{"id":"be-2783805","label":"Westende","lat":51.15961,"lon":2.7687,"type":"city"},{"id":"be-2783801","label":"Westerlo","lat":51.09049,"lon":4.91544,"type":"city"},{"id":"be-2783786","label":"Westmalle","lat":51.29767,"lon":4.69013,"type":"city"},{"id":"be-2783763","label":"Wetteren","lat":51.00526,"lon":3.88341,"type":"city"},{"id":"be-2783759","label":"Wevelgem","lat":50.8,"lon":3.16667,"type":"city"},{"id":"be-2783737","label":"Wezembeek-Oppem","lat":50.8395,"lon":4.49427,"type":"city"},{"id":"be-2783728","label":"Wichelen","lat":51.00526,"lon":3.97683,"type":"city"},{"id":"be-2783717","label":"Wielsbeke","lat":50.9,"lon":3.36667,"type":"city"},{"id":"be-2783684","label":"Wijnegem","lat":51.22787,"lon":4.51895,"type":"city"},{"id":"be-2783632","label":"Willebroek","lat":51.06041,"lon":4.36019,"type":"city"},{"id":"be-2783615","label":"Wilrijk","lat":51.16734,"lon":4.39513,"type":"city"},{"id":"be-2783612","label":"Wilsele","lat":50.89188,"lon":4.69769,"type":"city"},{"id":"be-2783586","label":"Wingene","lat":51.05782,"lon":3.27359,"type":"city"},{"id":"be-2783476","label":"Woluwe-Saint-Lambert","lat":50.84389,"lon":4.42912,"type":"city"},{"id":"be-2783464","label":"Wolvertem","lat":50.95172,"lon":4.30964,"type":"city"},{"id":"be-2783462","label":"Wommelgem","lat":51.20452,"lon":4.5225,"type":"city"},{"id":"be-2783456","label":"Wondelgem","lat":51.08705,"lon":3.70909,"type":"city"},{"id":"be-2783416","label":"Wuustwezel","lat":51.39214,"lon":4.59546,"type":"city"},{"id":"be-2783385","label":"Yvoir","lat":50.3279,"lon":4.88059,"type":"city"},{"id":"be-2783347","label":"Zandhoven","lat":51.21488,"lon":4.66164,"type":"city"},{"id":"be-2783310","label":"Zaventem","lat":50.88365,"lon":4.47298,"type":"city"},{"id":"be-2783308","label":"Zedelgem","lat":51.14236,"lon":3.1368,"type":"city"},{"id":"be-2783293","label":"Zele","lat":51.06566,"lon":4.0403,"type":"city"},{"id":"be-2783284","label":"Zellik","lat":50.88408,"lon":4.27325,"type":"city"},{"id":"be-2783278","label":"Zelzate","lat":51.18963,"lon":3.80777,"type":"city"},{"id":"be-2783274","label":"Zemst","lat":50.98318,"lon":4.46079,"type":"city"},{"id":"be-2783232","label":"Zichem","lat":51.00187,"lon":4.98316,"type":"city"},{"id":"be-2783215","label":"Zingem","lat":50.90409,"lon":3.65305,"type":"city"},{"id":"be-2783204","label":"Zoersel","lat":51.26825,"lon":4.71296,"type":"city"},{"id":"be-2783197","label":"Zolder","lat":51.02455,"lon":5.30983,"type":"city"},{"id":"be-2783195","label":"Zomergem","lat":51.11994,"lon":3.56496,"type":"city"},{"id":"be-2783188","label":"Zonhoven","lat":50.99064,"lon":5.36819,"type":"city"},{"id":"be-2783184","label":"Zonnebeke","lat":50.8726,"lon":2.98725,"type":"city"},{"id":"be-2783175","label":"Zottegem","lat":50.86955,"lon":3.81052,"type":"city"},{"id":"be-2783170","label":"Zoutleeuw","lat":50.83316,"lon":5.10376,"type":"city"},{"id":"be-2783151","label":"Zulte","lat":50.91954,"lon":3.44859,"type":"city"},{"id":"be-2783143","label":"Zutendaal","lat":50.93306,"lon":5.5753,"type":"city"},{"id":"be-2783089","label":"Zwevegem","lat":50.81268,"lon":3.33848,"type":"city"},{"id":"be-2783087","label":"Zwevezele","lat":51.03683,"lon":3.21186,"type":"city"},{"id":"be-2783084","label":"Zwijnaarde","lat":51.00077,"lon":3.70746,"type":"city"},{"id":"be-2783081","label":"Zwijndrecht","lat":51.21979,"lon":4.32664,"type":"city"}]