[{"id":"bj-2395915","label":"Abomey","lat":7.18286,"lon":1.99119,"type":"city"},{"id":"bj-2395914","label":"Abomey-Calavi","lat":6.44852,"lon":2.35566,"type":"city"},{"id":"bj-2395874","label":"Adjaouere","lat":7.00228,"lon":2.60591,"type":"city"},{"id":"bj-2395870","label":"Adjarra","lat":6.53445,"lon":2.66833,"type":"city"},{"id":"bj-2395752","label":"Agoue","lat":6.2463,"lon":1.67624,"type":"city"},{"id":"bj-2395635","label":"Allada","lat":6.66547,"lon":2.15138,"type":"city"},{"id":"bj-2395568","label":"Aplahoue","lat":6.93333,"lon":1.68333,"type":"city"},{"id":"bj-2395510","label":"Athieme","lat":6.5808,"lon":1.6696,"type":"city"},{"id":"bj-2395477","label":"Avrankou","lat":6.55591,"lon":2.65123,"type":"city"},{"id":"bj-2395325","label":"Banigbe","lat":6.64756,"lon":2.70695,"type":"city"},{"id":"bj-2395317","label":"Banikoara","lat":11.29845,"lon":2.43856,"type":"city"},{"id":"bj-2395301","label":"Bante","lat":8.41221,"lon":1.88969,"type":"city"},{"id":"bj-2395261","label":"Bassila","lat":9.00814,"lon":1.6654,"type":"city"},{"id":"bj-2395182","label":"Bembereke","lat":10.22827,"lon":2.66335,"type":"city"},{"id":"bj-2395127","label":"Beterou","lat":9.19916,"lon":2.25855,"type":"city"},{"id":"bj-2395049","label":"Bohicon","lat":7.17826,"lon":2.0667,"type":"city"},{"id":"bj-2394914","label":"Boukoumbe","lat":10.17711,"lon":1.10621,"type":"city"},{"id":"bj-10339095","label":"Cobly","lat":10.49222,"lon":0.99972,"type":"city"},{"id":"bj-2394824","label":"Come","lat":6.40764,"lon":1.88198,"type":"city"},{"id":"bj-2394819","label":"Cotonou","lat":6.36536,"lon":2.41833,"type":"city"},{"id":"bj-2394814","label":"Cove","lat":7.22097,"lon":2.34017,"type":"city"},{"id":"bj-2394711","label":"Dassa-Zoume","lat":7.75,"lon":2.18333,"type":"city"},{"id":"bj-2394597","label":"Djakotome","lat":6.8991,"lon":1.71618,"type":"city"},{"id":"bj-2394576","label":"Djidja","lat":7.34436,"lon":1.93447,"type":"city"},{"id":"bj-2394560","label":"Djougou","lat":9.70853,"lon":1.66598,"type":"city"},{"id":"bj-2394545","label":"Dogbo","lat":6.79911,"lon":1.78073,"type":"city"},{"id":"bj-2394427","label":"Ekpe","lat":6.39209,"lon":2.53725,"type":"city"},{"id":"bj-2394227","label":"Ganvie","lat":6.46441,"lon":2.39288,"type":"city"},{"id":"bj-2394111","label":"Glazoue","lat":7.97252,"lon":2.22176,"type":"city"},{"id":"bj-2394092","label":"Godome","lat":6.38948,"lon":2.34581,"type":"city"},{"id":"bj-2394087","label":"Gogounou","lat":10.8399,"lon":2.83174,"type":"city"},{"id":"bj-2393947","label":"Grand-Popo","lat":6.28036,"lon":1.82251,"type":"city"},{"id":"bj-2393917","label":"Guilmaro","lat":10.56583,"lon":1.72444,"type":"city"},{"id":"bj-2393887","label":"Hevie","lat":6.41667,"lon":2.25,"type":"city"},{"id":"bj-2393722","label":"Kalale","lat":10.29275,"lon":3.38367,"type":"city"},{"id":"bj-2393693","label":"Kandi","lat":11.13417,"lon":2.93861,"type":"city"},{"id":"bj-2393561","label":"Kerou","lat":10.82578,"lon":2.10479,"type":"city"},{"id":"bj-2393551","label":"Ketou","lat":7.36332,"lon":2.59978,"type":"city"},{"id":"bj-10339148","label":"Klouekanme","lat":6.98028,"lon":1.84222,"type":"city"},{"id":"bj-2394822","label":"Kopargo","lat":9.84108,"lon":1.54231,"type":"city"},{"id":"bj-2393287","label":"Kouande","lat":6.4,"lon":2.06667,"type":"city"},{"id":"bj-11427410","label":"Kpozoun","lat":7.22868,"lon":2.21317,"type":"city"},{"id":"bj-2392963","label":"Lalo","lat":6.92869,"lon":1.88994,"type":"city"},{"id":"bj-2392897","label":"Lokossa","lat":6.63869,"lon":1.71674,"type":"city"},{"id":"bj-2392837","label":"Malanville","lat":11.86819,"lon":3.38327,"type":"city"},{"id":"bj-2392781","label":"Materi","lat":10.69623,"lon":1.06307,"type":"city"},{"id":"bj-2392746","label":"Misserete","lat":6.55872,"lon":2.59063,"type":"city"},{"id":"bj-2392601","label":"Natitingou","lat":10.30416,"lon":1.37962,"type":"city"},{"id":"bj-2392595","label":"Ndali","lat":9.8636,"lon":2.72094,"type":"city"},{"id":"bj-2392505","label":"Nikki","lat":9.94009,"lon":3.21075,"type":"city"},{"id":"bj-2596746","label":"Ouake","lat":9.66167,"lon":1.38472,"type":"city"},{"id":"bj-2392319","label":"Ouesse","lat":8.48639,"lon":2.42872,"type":"city"},{"id":"bj-2392308","label":"Ouidah","lat":6.36307,"lon":2.08506,"type":"city"},{"id":"bj-2392303","label":"Ouinhi","lat":7.08411,"lon":2.48343,"type":"city"},{"id":"bj-2392204","label":"Parakou","lat":9.33716,"lon":2.63031,"type":"city"},{"id":"bj-2392164","label":"Pehonko","lat":10.22746,"lon":2.00192,"type":"city"},{"id":"bj-2392134","label":"Perere","lat":9.79721,"lon":2.98403,"type":"city"},{"id":"bj-2392108","label":"Pobe","lat":6.98008,"lon":2.6649,"type":"city"},{"id":"bj-2392087","label":"Porto-Novo","lat":6.49646,"lon":2.60359,"type":"city"},{"id":"bj-2392009","label":"Sakete","lat":6.73618,"lon":2.65866,"type":"city"},{"id":"bj-2391990","label":"Sam","lat":11.03287,"lon":2.73282,"type":"city"},{"id":"bj-2391895","label":"Savalou","lat":7.92807,"lon":1.97558,"type":"city"},{"id":"bj-2391893","label":"Save","lat":8.03424,"lon":2.4866,"type":"city"},{"id":"bj-2391881","label":"Se","lat":6.51115,"lon":1.82831,"type":"city"},{"id":"bj-2391871","label":"Segbana","lat":10.92821,"lon":3.69429,"type":"city"},{"id":"bj-2391833","label":"Semi","lat":6.36667,"lon":2.61667,"type":"city"},{"id":"bj-2391739","label":"Sinende","lat":10.34963,"lon":2.37906,"type":"city"},{"id":"bj-2391455","label":"Tanguieta","lat":10.62118,"lon":1.26651,"type":"city"},{"id":"bj-2391377","label":"Tchaourou","lat":8.88649,"lon":2.59753,"type":"city"},{"id":"bj-2391170","label":"Tobre","lat":10.19499,"lon":2.12999,"type":"city"},{"id":"bj-2391101","label":"Tori-Bossito","lat":6.50302,"lon":2.1441,"type":"city"},{"id":"bj-2391067","label":"Toukountouna","lat":10.50279,"lon":1.37437,"type":"city"},{"id":"bj-2391034","label":"Toviklin","lat":6.88935,"lon":1.83722,"type":"city"},{"id":"bj-2390740","label":"Ze","lat":6.78333,"lon":2.3,"type":"city"},{"id":"bj-2390731","label":"Zinvie","lat":6.61738,"lon":2.35776,"type":"city"},{"id":"bj-2390701","label":"Zounke","lat":6.61621,"lon":2.52836,"type":"city"}]