[{"id":"by-624199","label":"Aktsyabrski","lat":52.64844,"lon":28.87993,"type":"city"},{"id":"by-623941","label":"Astraviec","lat":54.61378,"lon":25.95537,"type":"city"},{"id":"by-630431","label":"Baran'","lat":54.47737,"lon":30.30936,"type":"city"},{"id":"by-630429","label":"Baranovichi","lat":53.13255,"lon":26.00775,"type":"city"},{"id":"by-630376","label":"Barysaw","lat":54.2279,"lon":28.505,"type":"city"},{"id":"by-630245","label":"Belynichi","lat":53.9952,"lon":29.7091,"type":"city"},{"id":"by-630136","label":"Beshenkovichi","lat":55.04335,"lon":29.45738,"type":"city"},{"id":"by-630197","label":"Bierazino","lat":53.8391,"lon":28.9879,"type":"city"},{"id":"by-630468","label":"Bobruysk","lat":53.14676,"lon":29.20548,"type":"city"},{"id":"by-629640","label":"Braslav","lat":55.64387,"lon":27.05715,"type":"city"},{"id":"by-629634","label":"Brest","lat":52.10894,"lon":23.71749,"type":"city"},{"id":"by-629564","label":"Buda-Kashalyova","lat":52.71725,"lon":30.5679,"type":"city"},{"id":"by-629454","label":"Byaroza","lat":52.53129,"lon":24.9782,"type":"city"},{"id":"by-630166","label":"Byarozawka","lat":53.72406,"lon":25.49709,"type":"city"},{"id":"by-630279","label":"Byelaazyorsk","lat":52.4731,"lon":25.1784,"type":"city"},{"id":"by-629447","label":"Bykhov","lat":53.52131,"lon":30.23078,"type":"city"},{"id":"by-629273","label":"Cervien","lat":53.7059,"lon":28.4313,"type":"city"},{"id":"by-629390","label":"Chachersk","lat":52.9164,"lon":30.9179,"type":"city"},{"id":"by-629400","label":"Chashniki","lat":54.85096,"lon":29.16645,"type":"city"},{"id":"by-629395","label":"Chausy","lat":53.80737,"lon":30.96584,"type":"city"},{"id":"by-629347","label":"Cherikov","lat":53.56855,"lon":31.38467,"type":"city"},{"id":"by-8247399","label":"Chyst'","lat":54.2698,"lon":27.1067,"type":"city"},{"id":"by-629159","label":"Davyd-Haradok","lat":52.0566,"lon":27.2161,"type":"city"},{"id":"by-629018","label":"Dobrush","lat":52.41471,"lon":31.31429,"type":"city"},{"id":"by-629002","label":"Dokshytsy","lat":54.89097,"lon":27.76654,"type":"city"},{"id":"by-628884","label":"Drogichin","lat":52.1874,"lon":25.1597,"type":"city"},{"id":"by-8020004","label":"Druzhny","lat":53.6238,"lon":27.8977,"type":"city"},{"id":"by-628758","label":"Dubrowna","lat":54.57187,"lon":30.69117,"type":"city"},{"id":"by-628658","label":"Dyatlovo","lat":53.46215,"lon":25.40757,"type":"city"},{"id":"by-628634","label":"Dzyarzhynsk","lat":53.68477,"lon":27.13171,"type":"city"},{"id":"by-6846555","label":"Fanipol","lat":53.74998,"lon":27.33338,"type":"city"},{"id":"by-628387","label":"Glusk","lat":52.90197,"lon":28.68308,"type":"city"},{"id":"by-628155","label":"Gorodok","lat":55.4624,"lon":29.98451,"type":"city"},{"id":"by-627909","label":"Hantsavichy","lat":52.75874,"lon":26.43096,"type":"city"},{"id":"by-628511","label":"Hatava","lat":53.7829,"lon":27.6407,"type":"city"},{"id":"by-627908","label":"Hlybokaye","lat":55.13933,"lon":27.69143,"type":"city"},{"id":"by-627907","label":"Homyel'","lat":52.4345,"lon":30.9754,"type":"city"},{"id":"by-618800","label":"Horad Zhodzina","lat":54.0985,"lon":28.3331,"type":"city"},{"id":"by-627905","label":"Horki","lat":54.28606,"lon":30.98604,"type":"city"},{"id":"by-627904","label":"Hrodna","lat":53.6758,"lon":23.82887,"type":"city"},{"id":"by-627811","label":"Ivanovo","lat":52.14724,"lon":25.53198,"type":"city"},{"id":"by-627800","label":"Ivatsevichi","lat":52.70793,"lon":25.33509,"type":"city"},{"id":"by-627793","label":"Iwye","lat":53.93173,"lon":25.7763,"type":"city"},{"id":"by-627751","label":"Kalinkovichi","lat":52.1323,"lon":29.3257,"type":"city"},{"id":"by-627083","label":"Kalodzishchy","lat":53.944,"lon":27.7823,"type":"city"},{"id":"by-627711","label":"Kamenets","lat":52.40013,"lon":23.81,"type":"city"},{"id":"by-626806","label":"Kastsyukowka","lat":52.5387,"lon":30.9173,"type":"city"},{"id":"by-627362","label":"Khoyniki","lat":51.90773,"lon":29.98258,"type":"city"},{"id":"by-627272","label":"Kirovsk","lat":53.27003,"lon":29.47064,"type":"city"},{"id":"by-627214","label":"Kletsk","lat":53.06379,"lon":26.63922,"type":"city"},{"id":"by-627205","label":"Klicau","lat":53.4923,"lon":29.3356,"type":"city"},{"id":"by-627202","label":"Klimovichi","lat":53.60492,"lon":31.95632,"type":"city"},{"id":"by-627145","label":"Kobryn","lat":52.21173,"lon":24.3563,"type":"city"},{"id":"by-626956","label":"Kopyl'","lat":53.1516,"lon":27.0913,"type":"city"},{"id":"by-626939","label":"Korelichi","lat":53.5648,"lon":26.1406,"type":"city"},{"id":"by-626808","label":"Kostyukovichi","lat":53.35488,"lon":32.05128,"type":"city"},{"id":"by-626625","label":"Krasnapollye","lat":53.33578,"lon":31.40065,"type":"city"},{"id":"by-626621","label":"Krasnosel'skiy","lat":53.26494,"lon":24.42398,"type":"city"},{"id":"by-626491","label":"Krugloye","lat":54.2531,"lon":29.79567,"type":"city"},{"id":"by-626471","label":"Krupki","lat":54.3178,"lon":29.1374,"type":"city"},{"id":"by-626450","label":"Krychaw","lat":53.71924,"lon":31.71356,"type":"city"},{"id":"by-626081","label":"Lida","lat":53.88333,"lon":25.29972,"type":"city"},{"id":"by-626064","label":"Liozno","lat":55.0199,"lon":30.7969,"type":"city"},{"id":"by-625972","label":"Logoysk","lat":54.2064,"lon":27.8512,"type":"city"},{"id":"by-625931","label":"Loshnitsa","lat":54.2796,"lon":28.7649,"type":"city"},{"id":"by-625907","label":"Loyev","lat":51.94115,"lon":30.79343,"type":"city"},{"id":"by-625818","label":"Luninyets","lat":52.24864,"lon":26.80061,"type":"city"},{"id":"by-625772","label":"Lyakhovichi","lat":53.03931,"lon":26.26311,"type":"city"},{"id":"by-8247407","label":"Lyasny","lat":54.0072,"lon":27.6963,"type":"city"},{"id":"by-625743","label":"Lyepyel'","lat":54.8814,"lon":28.699,"type":"city"},{"id":"by-625721","label":"Lyuban'","lat":52.7985,"lon":28.0048,"type":"city"},{"id":"by-625671","label":"Machulishchy","lat":53.7788,"lon":27.5948,"type":"city"},{"id":"by-625665","label":"Mahilyow","lat":53.90876,"lon":30.34044,"type":"city"},{"id":"by-625625","label":"Maladziecna","lat":54.3167,"lon":26.854,"type":"city"},{"id":"by-625539","label":"Malorita","lat":51.79467,"lon":24.07461,"type":"city"},{"id":"by-625409","label":"Mar'ina Gorka","lat":53.509,"lon":28.147,"type":"city"},{"id":"by-625324","label":"Mazyr","lat":52.04162,"lon":29.21631,"type":"city"},{"id":"by-625228","label":"Mikashevichy","lat":52.2173,"lon":27.476,"type":"city"},{"id":"by-625144","label":"Minsk","lat":53.90019,"lon":27.56653,"type":"city"},{"id":"by-625130","label":"Miory","lat":55.6222,"lon":27.6281,"type":"city"},{"id":"by-625367","label":"Mosty","lat":53.4122,"lon":24.5387,"type":"city"},{"id":"by-624889","label":"Mscislau","lat":54.0185,"lon":31.7217,"type":"city"},{"id":"by-624861","label":"Myadzyel","lat":54.87894,"lon":26.93619,"type":"city"},{"id":"by-624799","label":"Narovlya","lat":51.79724,"lon":29.49784,"type":"city"},{"id":"by-624700","label":"Nesvizh","lat":53.22186,"lon":26.67679,"type":"city"},{"id":"by-624785","label":"Novogrudok","lat":53.5942,"lon":25.8191,"type":"city"},{"id":"by-624494","label":"Novolukoml'","lat":54.66192,"lon":29.15016,"type":"city"},{"id":"by-624784","label":"Novopolotsk","lat":55.52618,"lon":28.59308,"type":"city"},{"id":"by-624079","label":"Orsha","lat":54.51362,"lon":30.40365,"type":"city"},{"id":"by-630515","label":"Oshmyany","lat":54.41815,"lon":25.93734,"type":"city"},{"id":"by-624034","label":"Osipovichi","lat":53.30588,"lon":28.62872,"type":"city"},{"id":"by-623760","label":"Pastavy","lat":55.11676,"lon":26.83263,"type":"city"},{"id":"by-623581","label":"Petrikov","lat":52.1299,"lon":28.49625,"type":"city"},{"id":"by-623549","label":"Pinsk","lat":52.12153,"lon":26.06726,"type":"city"},{"id":"by-623512","label":"Plyeshchanitsy","lat":54.4235,"lon":27.8301,"type":"city"},{"id":"by-623317","label":"Polotsk","lat":55.4879,"lon":28.7856,"type":"city"},{"id":"by-622997","label":"Pruzhany","lat":52.55464,"lon":24.45483,"type":"city"},{"id":"by-622877","label":"Radaskovicy","lat":54.1554,"lon":27.2412,"type":"city"},{"id":"by-622739","label":"Rahachow","lat":53.09255,"lon":30.04862,"type":"city"},{"id":"by-622849","label":"Rakaw","lat":53.9674,"lon":27.0562,"type":"city"},{"id":"by-622794","label":"Rechytsa","lat":52.3617,"lon":30.3916,"type":"city"},{"id":"by-622700","label":"Ross'","lat":53.28411,"lon":24.40721,"type":"city"},{"id":"by-622690","label":"Rossony","lat":55.90603,"lon":28.81332,"type":"city"},{"id":"by-622258","label":"Senno","lat":54.81175,"lon":29.70061,"type":"city"},{"id":"by-622179","label":"Sharkovshchina","lat":55.36807,"lon":27.46971,"type":"city"},{"id":"by-622113","label":"Shchuchyn","lat":53.6014,"lon":24.7465,"type":"city"},{"id":"by-622034","label":"Shklov","lat":54.21298,"lon":30.28724,"type":"city"},{"id":"by-621986","label":"Shumilino","lat":55.29841,"lon":29.61279,"type":"city"},{"id":"by-611866","label":"Skidel'","lat":53.5904,"lon":24.2478,"type":"city"},{"id":"by-621838","label":"Slawharad","lat":53.44312,"lon":31.00025,"type":"city"},{"id":"by-621754","label":"Slonim","lat":53.08751,"lon":25.31707,"type":"city"},{"id":"by-621741","label":"Slutsk","lat":53.01522,"lon":27.54159,"type":"city"},{"id":"by-621729","label":"Smaliavicy","lat":54.0249,"lon":28.0894,"type":"city"},{"id":"by-621713","label":"Smarhon","lat":54.4798,"lon":26.3957,"type":"city"},{"id":"by-621732","label":"Smilavicy","lat":53.7496,"lon":28.0115,"type":"city"},{"id":"by-622428","label":"Soligorsk","lat":52.78981,"lon":27.53583,"type":"city"},{"id":"by-621462","label":"Starobin","lat":52.7267,"lon":27.4606,"type":"city"},{"id":"by-621396","label":"Staryye Dorogi","lat":53.0402,"lon":28.267,"type":"city"},{"id":"by-621277","label":"Stolin","lat":51.89008,"lon":26.83596,"type":"city"},{"id":"by-621266","label":"Stowbtsy","lat":53.47994,"lon":26.7351,"type":"city"},{"id":"by-621074","label":"Svetlogorsk","lat":52.6329,"lon":29.7389,"type":"city"},{"id":"by-621048","label":"Svislach","lat":53.03431,"lon":24.09717,"type":"city"},{"id":"by-620833","label":"Tolochin","lat":54.40988,"lon":29.69348,"type":"city"},{"id":"by-620540","label":"Ushachi","lat":55.17611,"lon":28.61949,"type":"city"},{"id":"by-620483","label":"Uzda","lat":53.4627,"lon":27.2137,"type":"city"},{"id":"by-620391","label":"Vaukavysk","lat":53.1561,"lon":24.4513,"type":"city"},{"id":"by-620255","label":"Verkhnedvinsk","lat":55.77655,"lon":27.93657,"type":"city"},{"id":"by-620181","label":"Vileyka","lat":54.4914,"lon":26.9111,"type":"city"},{"id":"by-620146","label":"Vishnyeva","lat":54.7102,"lon":26.5228,"type":"city"},{"id":"by-620127","label":"Vitebsk","lat":55.1904,"lon":30.2049,"type":"city"},{"id":"by-620445","label":"Volozhin","lat":54.08911,"lon":26.52731,"type":"city"},{"id":"by-619979","label":"Voronovo","lat":54.15387,"lon":25.31226,"type":"city"},{"id":"by-629986","label":"Vyalikaya Byerastavitsa","lat":53.19563,"lon":24.01992,"type":"city"},{"id":"by-620214","label":"Vyetka","lat":52.55428,"lon":31.18067,"type":"city"},{"id":"by-619598","label":"Yel'sk","lat":51.81363,"lon":29.1544,"type":"city"},{"id":"by-619066","label":"Zaslawye","lat":54.0114,"lon":27.2695,"type":"city"},{"id":"by-618932","label":"Zel'va","lat":53.14931,"lon":24.81201,"type":"city"},{"id":"by-618913","label":"Zhabinka","lat":52.19857,"lon":24.01064,"type":"city"},{"id":"by-618806","label":"Zhlobin","lat":52.8926,"lon":30.024,"type":"city"},{"id":"by-618815","label":"Zytkavicy","lat":52.2168,"lon":27.8561,"type":"city"}]