[{"id":"bz-3582677","label":"Belize City","lat":17.49952,"lon":-88.19756,"type":"city"},{"id":"bz-13286766","label":"Bella Vista","lat":16.50948,"lon":-88.53169,"type":"city"},{"id":"bz-3582672","label":"Belmopan","lat":17.25376,"lon":-88.76401,"type":"city"},{"id":"bz-3582662","label":"Benque Viejo el Carmen","lat":17.075,"lon":-89.13917,"type":"city"},{"id":"bz-3582305","label":"Corozal","lat":18.39375,"lon":-88.38849,"type":"city"},{"id":"bz-3582228","label":"Dangriga","lat":16.9697,"lon":-88.23313,"type":"city"},{"id":"bz-3581851","label":"Ladyville","lat":17.55427,"lon":-88.29,"type":"city"},{"id":"bz-3581514","label":"Orange Walk","lat":18.08124,"lon":-88.56328,"type":"city"},{"id":"bz-3581398","label":"Punta Gorda","lat":16.09835,"lon":-88.8097,"type":"city"},{"id":"bz-3581194","label":"San Ignacio","lat":17.1588,"lon":-89.0696,"type":"city"},{"id":"bz-3581164","label":"San Pedro","lat":17.91598,"lon":-87.9659,"type":"city"},{"id":"bz-3581143","label":"Santa Elena","lat":17.16142,"lon":-89.05462,"type":"city"},{"id":"bz-3580895","label":"Trial Farm","lat":18.10124,"lon":-88.56584,"type":"city"}]