[{"id":"cd-220448","label":"Aketi","lat":2.73877,"lon":23.78326,"type":"city"},{"id":"cd-220223","label":"Aru","lat":2.86218,"lon":30.84138,"type":"city"},{"id":"cd-220121","label":"Babamba","lat":0.18333,"lon":27.48333,"type":"city"},{"id":"cd-220075","label":"Bakwa","lat":4.1263,"lon":27.39527,"type":"city"},{"id":"cd-2317397","label":"Bandundu Province","lat":-3.31687,"lon":17.38063,"type":"city"},{"id":"cd-2317285","label":"Basankusu","lat":1.22095,"lon":19.80205,"type":"city"},{"id":"cd-219414","label":"Basoko","lat":1.23909,"lon":23.61598,"type":"city"},{"id":"cd-209000","label":"Baudhuinville","lat":-7.08408,"lon":29.73681,"type":"city"},{"id":"cd-219057","label":"Beni","lat":0.49113,"lon":29.47306,"type":"city"},{"id":"cd-218855","label":"Binga","lat":2.37351,"lon":20.49769,"type":"city"},{"id":"cd-218680","label":"Boende","lat":-0.28163,"lon":20.88053,"type":"city"},{"id":"cd-2316770","label":"Bolenge","lat":0,"lon":18.21667,"type":"city"},{"id":"cd-2316748","label":"Bolobo","lat":-2.158,"lon":16.23249,"type":"city"},{"id":"cd-2316702","label":"Boma","lat":-5.85098,"lon":13.05364,"type":"city"},{"id":"cd-218253","label":"Bondo","lat":3.81461,"lon":23.68665,"type":"city"},{"id":"cd-2316473","label":"Bosobolo","lat":4.1898,"lon":19.8833,"type":"city"},{"id":"cd-217834","label":"Bukama","lat":-9.20443,"lon":25.85475,"type":"city"},{"id":"cd-217831","label":"Bukavu","lat":-2.49077,"lon":28.84281,"type":"city"},{"id":"cd-2316259","label":"Bulungu","lat":-4.54437,"lon":18.60364,"type":"city"},{"id":"cd-217745","label":"Bumba","lat":2.18771,"lon":22.46827,"type":"city"},{"id":"cd-217695","label":"Bunia","lat":1.55941,"lon":30.25224,"type":"city"},{"id":"cd-217637","label":"Businga","lat":3.33863,"lon":20.88577,"type":"city"},{"id":"cd-217570","label":"Buta","lat":2.78582,"lon":24.72997,"type":"city"},{"id":"cd-217562","label":"Butembo","lat":0.14164,"lon":29.29117,"type":"city"},{"id":"cd-217389","label":"Demba","lat":-5.49573,"lon":22.26962,"type":"city"},{"id":"cd-2316091","label":"Dibaya-Lubwe","lat":-4.15869,"lon":19.8619,"type":"city"},{"id":"cd-217100","label":"Djugu","lat":1.91932,"lon":30.50257,"type":"city"},{"id":"cd-2315961","label":"Dungu","lat":-3.62437,"lon":18.84943,"type":"city"},{"id":"cd-923186","label":"Fungurume","lat":-10.61771,"lon":26.32107,"type":"city"},{"id":"cd-216449","label":"Gandajika","lat":-6.74504,"lon":23.95328,"type":"city"},{"id":"cd-216404","label":"Gbadolite","lat":4.279,"lon":21.00284,"type":"city"},{"id":"cd-2315728","label":"Gemena","lat":3.25651,"lon":19.77234,"type":"city"},{"id":"cd-216281","label":"Goma","lat":-1.67409,"lon":29.22845,"type":"city"},{"id":"cd-8329635","label":"Hyosha","lat":0.69781,"lon":29.51863,"type":"city"},{"id":"cd-2315579","label":"Idiofa","lat":-4.96589,"lon":19.59151,"type":"city"},{"id":"cd-215976","label":"Ilebo","lat":-4.33111,"lon":20.58638,"type":"city"},{"id":"cd-2315419","label":"Inkisi","lat":-5.13122,"lon":15.0541,"type":"city"},{"id":"cd-2315417","label":"Inongo","lat":-1.9275,"lon":18.2881,"type":"city"},{"id":"cd-215814","label":"Isamba","lat":-4.03333,"lon":21.98333,"type":"city"},{"id":"cd-215771","label":"Isiro","lat":2.77391,"lon":27.61603,"type":"city"},{"id":"cd-215668","label":"Kabalo","lat":-6.05255,"lon":26.9143,"type":"city"},{"id":"cd-215605","label":"Kabare","lat":-2.49682,"lon":28.79081,"type":"city"},{"id":"cd-215558","label":"Kabeya-Kamwanga","lat":-5.9988,"lon":23.25386,"type":"city"},{"id":"cd-215527","label":"Kabinda","lat":-6.13791,"lon":24.48179,"type":"city"},{"id":"cd-214974","label":"Kalemie","lat":-5.94749,"lon":29.19471,"type":"city"},{"id":"cd-214925","label":"Kalima","lat":-5.4854,"lon":28.21601,"type":"city"},{"id":"cd-923058","label":"Kambove","lat":-10.87352,"lon":26.59746,"type":"city"},{"id":"cd-214614","label":"Kamina","lat":-8.73508,"lon":24.99798,"type":"city"},{"id":"cd-214575","label":"Kampene","lat":-3.59678,"lon":26.66715,"type":"city"},{"id":"cd-214481","label":"Kananga","lat":-5.89624,"lon":22.41659,"type":"city"},{"id":"cd-214390","label":"Kanyama","lat":-7.51668,"lon":24.17404,"type":"city"},{"id":"cd-214297","label":"Kanyobagonga","lat":-0.69978,"lon":29.17181,"type":"city"},{"id":"cd-2315057","label":"Kasangulu","lat":-4.5833,"lon":15.16554,"type":"city"},{"id":"cd-213940","label":"Kasongo","lat":-4.42741,"lon":26.66656,"type":"city"},{"id":"cd-2315026","label":"Kasongo-Lunda","lat":-6.47833,"lon":16.81735,"type":"city"},{"id":"cd-213851","label":"Katanda","lat":-0.82535,"lon":29.36451,"type":"city"},{"id":"cd-213666","label":"Katwa","lat":0.08928,"lon":29.30858,"type":"city"},{"id":"cd-213576","label":"Kayna","lat":-0.60927,"lon":29.17249,"type":"city"},{"id":"cd-2314935","label":"Kenge","lat":-5.76521,"lon":13.65711,"type":"city"},{"id":"cd-2314705","label":"Kikwit","lat":-5.04098,"lon":18.81619,"type":"city"},{"id":"cd-2314523","label":"Kimpese","lat":-5.5615,"lon":14.43159,"type":"city"},{"id":"cd-212902","label":"Kindu","lat":-2.94373,"lon":25.92237,"type":"city"},{"id":"cd-2314302","label":"Kinshasa","lat":-4.32758,"lon":15.31357,"type":"city"},{"id":"cd-212795","label":"Kipamba","lat":-8.20591,"lon":26.42036,"type":"city"},{"id":"cd-922806","label":"Kipushi","lat":-11.76097,"lon":27.25135,"type":"city"},{"id":"cd-212760","label":"Kirumba","lat":-1.09056,"lon":29.2925,"type":"city"},{"id":"cd-212730","label":"Kisangani","lat":0.51528,"lon":25.19099,"type":"city"},{"id":"cd-9946557","label":"Kituku","lat":-7.58157,"lon":30.20604,"type":"city"},{"id":"cd-922773","label":"Kolwezi","lat":-10.71484,"lon":25.46674,"type":"city"},{"id":"cd-212360","label":"Kongolo","lat":-5.38532,"lon":27.00029,"type":"city"},{"id":"cd-2313874","label":"Kutu","lat":-2.7249,"lon":18.14756,"type":"city"},{"id":"cd-2313762","label":"Libenge","lat":3.65332,"lon":18.63566,"type":"city"},{"id":"cd-922741","label":"Likasi","lat":-10.98303,"lon":26.7384,"type":"city"},{"id":"cd-211734","label":"Lisala","lat":2.15127,"lon":21.51672,"type":"city"},{"id":"cd-211647","label":"Lodja","lat":-3.52105,"lon":23.6005,"type":"city"},{"id":"cd-211098","label":"Lubao","lat":-5.38771,"lon":25.74885,"type":"city"},{"id":"cd-211069","label":"Lubero","lat":-0.15837,"lon":29.23859,"type":"city"},{"id":"cd-922704","label":"Lubumbashi","lat":-11.66089,"lon":27.47938,"type":"city"},{"id":"cd-210939","label":"Luebo","lat":-5.35218,"lon":21.42192,"type":"city"},{"id":"cd-2313371","label":"Lukolela","lat":-1.06046,"lon":17.1821,"type":"city"},{"id":"cd-210674","label":"Lukula","lat":-3.86881,"lon":23.88348,"type":"city"},{"id":"cd-210399","label":"Luputa","lat":-7.16177,"lon":23.70057,"type":"city"},{"id":"cd-210379","label":"Lusambo","lat":-4.97503,"lon":23.44391,"type":"city"},{"id":"cd-922597","label":"Malemba","lat":-10.37812,"lon":24.54516,"type":"city"},{"id":"cd-209856","label":"Malemba-Nkulu","lat":-8.04475,"lon":26.79625,"type":"city"},{"id":"cd-2313084","label":"Mangai","lat":-4.02328,"lon":19.53385,"type":"city"},{"id":"cd-208725","label":"Mangbwalu","lat":1.94468,"lon":30.03861,"type":"city"},{"id":"cd-11905965","label":"Mangina","lat":0.60419,"lon":29.31004,"type":"city"},{"id":"cd-209598","label":"Manono","lat":-7.29862,"lon":27.39894,"type":"city"},{"id":"cd-2313011","label":"Masi-Manimba","lat":-4.77549,"lon":17.89095,"type":"city"},{"id":"cd-2593460","label":"Masina","lat":-4.38361,"lon":15.39139,"type":"city"},{"id":"cd-2313002","label":"Matadi","lat":-5.83861,"lon":13.46306,"type":"city"},{"id":"cd-2312895","label":"Mbandaka","lat":0.04865,"lon":18.26034,"type":"city"},{"id":"cd-2312888","label":"Mbanza-Ngungu","lat":-5.25837,"lon":14.85838,"type":"city"},{"id":"cd-209228","label":"Mbuji-Mayi","lat":-6.13603,"lon":23.58979,"type":"city"},{"id":"cd-209161","label":"Miabi","lat":-6.22149,"lon":23.39254,"type":"city"},{"id":"cd-2312393","label":"Moanda","lat":-5.92753,"lon":12.37148,"type":"city"},{"id":"cd-922559","label":"Mokambo","lat":-12.42765,"lon":28.34684,"type":"city"},{"id":"cd-208182","label":"Mulongo","lat":-7.83486,"lon":26.99852,"type":"city"},{"id":"cd-2312249","label":"Mushie","lat":-3.01728,"lon":16.92238,"type":"city"},{"id":"cd-207596","label":"Mweka","lat":-4.85187,"lon":21.5595,"type":"city"},{"id":"cd-8461573","label":"Mwene","lat":-9.81697,"lon":22.87023,"type":"city"},{"id":"cd-207570","label":"Mwene-Ditu","lat":-7.00906,"lon":23.45278,"type":"city"},{"id":"cd-2311968","label":"Nioki","lat":-2.72037,"lon":17.69001,"type":"city"},{"id":"cd-206847","label":"Nyunzu","lat":-5.95609,"lon":28.01649,"type":"city"},{"id":"cd-206289","label":"Pepa","lat":-7.69811,"lon":29.7772,"type":"city"},{"id":"cd-206113","label":"Pweto","lat":-8.46604,"lon":28.90079,"type":"city"},{"id":"cd-206047","label":"Rutshuru","lat":-1.18666,"lon":29.44669,"type":"city"},{"id":"cd-205970","label":"Sake","lat":-1.57386,"lon":29.04339,"type":"city"},{"id":"cd-2311127","label":"Tshela","lat":-4.99707,"lon":12.9484,"type":"city"},{"id":"cd-204953","label":"Tshikapa","lat":-6.41621,"lon":20.79995,"type":"city"},{"id":"cd-922083","label":"Tshilenge","lat":-10.96667,"lon":22.9,"type":"city"},{"id":"cd-204405","label":"Uvira","lat":-3.39534,"lon":29.13779,"type":"city"},{"id":"cd-204318","label":"Wamba","lat":2.14838,"lon":27.99466,"type":"city"},{"id":"cd-204283","label":"Watsa","lat":3.03716,"lon":29.53551,"type":"city"},{"id":"cd-203717","label":"Yangambi","lat":0.76755,"lon":24.43973,"type":"city"},{"id":"cd-2310763","label":"Zongo","lat":4.34283,"lon":18.59447,"type":"city"}]