[{"id":"ci-2293558","label":"Abeanou","lat":6.97326,"lon":-4.2328,"type":"city"},{"id":"ci-2293549","label":"Abengourou","lat":6.72972,"lon":-3.49639,"type":"city"},{"id":"ci-2293538","label":"Abidjan","lat":5.35444,"lon":-4.00167,"type":"city"},{"id":"ci-2293535","label":"Abie","lat":5.86647,"lon":-3.92574,"type":"city"},{"id":"ci-2293521","label":"Abobo","lat":5.41613,"lon":-4.0159,"type":"city"},{"id":"ci-2293507","label":"Aboisso","lat":5.46779,"lon":-3.20711,"type":"city"},{"id":"ci-2284679","label":"Aboisso Comoe","lat":5.7351,"lon":-3.40338,"type":"city"},{"id":"ci-7849082","label":"Aboka","lat":6.53867,"lon":-6.81589,"type":"city"},{"id":"ci-2293486","label":"Abongoua","lat":6.6527,"lon":-4.10178,"type":"city"},{"id":"ci-2293550","label":"Abongoua","lat":6.24709,"lon":-3.54335,"type":"city"},{"id":"ci-2293468","label":"Aboude","lat":5.89609,"lon":-4.56253,"type":"city"},{"id":"ci-2293452","label":"Abradine","lat":6.19975,"lon":-3.61125,"type":"city"},{"id":"ci-2289415","label":"Abronambue","lat":6.75611,"lon":-3.34139,"type":"city"},{"id":"ci-12687741","label":"Adahidoukou","lat":5.31083,"lon":-5.2246,"type":"city"},{"id":"ci-2597112","label":"Adaou","lat":5.42783,"lon":-3.26443,"type":"city"},{"id":"ci-2293364","label":"Adebem","lat":5.47349,"lon":-5.83667,"type":"city"},{"id":"ci-2293428","label":"Adiake","lat":5.28634,"lon":-3.30403,"type":"city"},{"id":"ci-2293407","label":"Adiekro","lat":7.06743,"lon":-3.69271,"type":"city"},{"id":"ci-2293399","label":"Adikokoi","lat":6.63331,"lon":-3.71193,"type":"city"},{"id":"ci-12687525","label":"Adjamene","lat":4.76645,"lon":-6.84326,"type":"city"},{"id":"ci-2293342","label":"Adzope","lat":6.10694,"lon":-3.86194,"type":"city"},{"id":"ci-2293328","label":"Afere","lat":6.90283,"lon":-4.08374,"type":"city"},{"id":"ci-12687594","label":"Affalikro","lat":6.64548,"lon":-3.38381,"type":"city"},{"id":"ci-2288118","label":"Affery","lat":6.32035,"lon":-3.95235,"type":"city"},{"id":"ci-2293321","label":"Affienou","lat":5.41118,"lon":-2.92478,"type":"city"},{"id":"ci-2293287","label":"Agba-Mbayassou","lat":7.11518,"lon":-4.26818,"type":"city"},{"id":"ci-2293278","label":"Agbaou","lat":6.34136,"lon":-3.85433,"type":"city"},{"id":"ci-2293269","label":"Agbossou","lat":6.86144,"lon":-4.0816,"type":"city"},{"id":"ci-2293268","label":"Agboville","lat":5.92801,"lon":-4.21319,"type":"city"},{"id":"ci-2293260","label":"Agnibilekrou","lat":7.13113,"lon":-3.20415,"type":"city"},{"id":"ci-2596951","label":"Agou","lat":5.98289,"lon":-3.94393,"type":"city"},{"id":"ci-12687959","label":"Aheoua","lat":6.36064,"lon":-3.86087,"type":"city"},{"id":"ci-2286819","label":"Ahigbe Koffikro","lat":5.40755,"lon":-3.38023,"type":"city"},{"id":"ci-12687727","label":"Ahizabre","lat":6.04923,"lon":-6.09978,"type":"city"},{"id":"ci-2292829","label":"Ahouakro","lat":6.11987,"lon":-4.87238,"type":"city"},{"id":"ci-2596898","label":"Ahouanou","lat":5.50565,"lon":-4.8588,"type":"city"},{"id":"ci-12687588","label":"Akati","lat":6.39852,"lon":-3.21473,"type":"city"},{"id":"ci-2293124","label":"Akoudzin","lat":6.02639,"lon":-3.98333,"type":"city"},{"id":"ci-2293107","label":"Akoupe","lat":6.38423,"lon":-3.88759,"type":"city"},{"id":"ci-2293099","label":"Akpessekro","lat":6.72488,"lon":-5.30602,"type":"city"},{"id":"ci-2293096","label":"Akradio","lat":5.43719,"lon":-4.36353,"type":"city"},{"id":"ci-2293085","label":"Akridou","lat":5.62668,"lon":-5.60681,"type":"city"},{"id":"ci-2293045","label":"Alepe","lat":5.5004,"lon":-3.66308,"type":"city"},{"id":"ci-12687856","label":"Allangbakro","lat":6.75314,"lon":-4.41157,"type":"city"},{"id":"ci-8032042","label":"Alosso-II","lat":5.56437,"lon":-3.50035,"type":"city"},{"id":"ci-2292989","label":"Amangbo","lat":6.0206,"lon":-4.37141,"type":"city"},{"id":"ci-12687881","label":"Amani","lat":5.69753,"lon":-4.72254,"type":"city"},{"id":"ci-12687479","label":"Amaragui","lat":5.81337,"lon":-6.71579,"type":"city"},{"id":"ci-2292971","label":"Amelekia","lat":6.83036,"lon":-3.57522,"type":"city"},{"id":"ci-12687595","label":"Amian","lat":6.46745,"lon":-3.64043,"type":"city"},{"id":"ci-2292953","label":"Amoriakro","lat":7.09941,"lon":-3.52821,"type":"city"},{"id":"ci-2292952","label":"Amoriki","lat":7.08793,"lon":-4.16155,"type":"city"},{"id":"ci-2292937","label":"Ananguie","lat":6.22299,"lon":-3.77333,"type":"city"},{"id":"ci-12687195","label":"Ancien-Prozi","lat":7.66885,"lon":-6.96881,"type":"city"},{"id":"ci-2292932","label":"Ande","lat":6.78176,"lon":-4.08517,"type":"city"},{"id":"ci-12687486","label":"Angagui","lat":5.94737,"lon":-6.81144,"type":"city"},{"id":"ci-2292893","label":"Angovia","lat":7.03305,"lon":-5.53697,"type":"city"},{"id":"ci-2293262","label":"Aniassue","lat":6.65368,"lon":-3.68103,"type":"city"},{"id":"ci-2292936","label":"Annepe","lat":5.90612,"lon":-3.76986,"type":"city"},{"id":"ci-2292877","label":"Anno","lat":5.85952,"lon":-4.37902,"type":"city"},{"id":"ci-13100441","label":"Anonkoua","lat":5.4273,"lon":-4.04872,"type":"city"},{"id":"ci-2292866","label":"Anoumaba","lat":6.33735,"lon":-4.51626,"type":"city"},{"id":"ci-2292852","label":"Anyama","lat":5.49462,"lon":-4.05183,"type":"city"},{"id":"ci-2292832","label":"Aouabo","lat":6.23958,"lon":-3.79218,"type":"city"},{"id":"ci-2596986","label":"Appouasso","lat":5.96305,"lon":-3.17605,"type":"city"},{"id":"ci-2292767","label":"Appouessou","lat":6.54846,"lon":-3.42755,"type":"city"},{"id":"ci-2292765","label":"Apprompron","lat":6.29219,"lon":-3.31526,"type":"city"},{"id":"ci-2292763","label":"Apron-Pronou","lat":7.00129,"lon":-3.36017,"type":"city"},{"id":"ci-2292755","label":"Arrah","lat":6.67342,"lon":-3.96938,"type":"city"},{"id":"ci-2285992","label":"Assaie-kouassikro","lat":6.96509,"lon":-3.90343,"type":"city"},{"id":"ci-12687964","label":"Assangbadji","lat":6.40782,"lon":-3.87669,"type":"city"},{"id":"ci-2292718","label":"Assaoufoue","lat":6.57675,"lon":-4.22405,"type":"city"},{"id":"ci-2292681","label":"Assie Akpesse","lat":6.46539,"lon":-4.33607,"type":"city"},{"id":"ci-2292678","label":"Assie koumassi","lat":6.76966,"lon":-4.28954,"type":"city"},{"id":"ci-2292667","label":"Assikoun","lat":6.4175,"lon":-3.88306,"type":"city"},{"id":"ci-2292663","label":"Assinie-Mafia","lat":5.13384,"lon":-3.29096,"type":"city"},{"id":"ci-2597109","label":"Assouba","lat":5.45956,"lon":-3.25653,"type":"city"},{"id":"ci-2292635","label":"Assoumoukro","lat":6.46403,"lon":-4.3728,"type":"city"},{"id":"ci-2292626","label":"Assuefri","lat":7.69973,"lon":-2.97847,"type":"city"},{"id":"ci-2292571","label":"Atrobou","lat":6.09021,"lon":-4.0589,"type":"city"},{"id":"ci-2292562","label":"Attinguie","lat":5.46739,"lon":-4.18549,"type":"city"},{"id":"ci-2292603","label":"Attinguie","lat":6.06445,"lon":-4.5485,"type":"city"},{"id":"ci-2292542","label":"Ayame","lat":5.6052,"lon":-3.15709,"type":"city"},{"id":"ci-12688536","label":"Ayaou-Sokpa","lat":7.42057,"lon":-5.61407,"type":"city"},{"id":"ci-2292535","label":"Ayenoua","lat":5.36681,"lon":-3.31774,"type":"city"},{"id":"ci-2292531","label":"Azaguie","lat":5.62984,"lon":-4.08204,"type":"city"},{"id":"ci-2292483","label":"Babien","lat":7.95339,"lon":-6.87053,"type":"city"},{"id":"ci-2292479","label":"Bably","lat":7.02553,"lon":-7.87339,"type":"city"},{"id":"ci-2292366","label":"Bacanda","lat":5.63331,"lon":-4.87758,"type":"city"},{"id":"ci-2292347","label":"Bacon","lat":6.35602,"lon":-3.91017,"type":"city"},{"id":"ci-2292445","label":"Badikaha","lat":9.19166,"lon":-5.16499,"type":"city"},{"id":"ci-2292415","label":"Bagassehoa","lat":6.19053,"lon":-6.36254,"type":"city"},{"id":"ci-12687490","label":"Baglo","lat":6.37166,"lon":-7.1439,"type":"city"},{"id":"ci-2292403","label":"Bagohouo","lat":6.89011,"lon":-7.19282,"type":"city"},{"id":"ci-2292402","label":"Bagolieoua","lat":6.16794,"lon":-6.53318,"type":"city"},{"id":"ci-2292399","label":"Bagouri","lat":7.12992,"lon":-6.81457,"type":"city"},{"id":"ci-2292391","label":"Bahe-Blaon","lat":6.67073,"lon":-7.34265,"type":"city"},{"id":"ci-2292380","label":"Baibli","lat":7.17618,"lon":-7.29729,"type":"city"},{"id":"ci-2596907","label":"Bakanou A","lat":5.59411,"lon":-4.63455,"type":"city"},{"id":"ci-2292363","label":"Bakayo","lat":5.53272,"lon":-6.04418,"type":"city"},{"id":"ci-8032092","label":"Bakro","lat":5.50681,"lon":-3.2455,"type":"city"},{"id":"ci-2292318","label":"Balahio","lat":6.31448,"lon":-6.42587,"type":"city"},{"id":"ci-2292324","label":"Balakouya","lat":5.20771,"lon":-6.35163,"type":"city"},{"id":"ci-2292317","label":"Balayo","lat":6.44012,"lon":-6.01255,"type":"city"},{"id":"ci-2292311","label":"Baleko","lat":5.4339,"lon":-6.02594,"type":"city"},{"id":"ci-12687742","label":"Bamo","lat":5.80501,"lon":-5.96597,"type":"city"},{"id":"ci-2292211","label":"Bandiay","lat":7.2,"lon":-6.18333,"type":"city"},{"id":"ci-2292206","label":"Bandoli","lat":8.59226,"lon":-2.70806,"type":"city"},{"id":"ci-2292179","label":"Bangolo","lat":7.01232,"lon":-7.48639,"type":"city"},{"id":"ci-2292180","label":"Bangolo Tahouake","lat":7.04119,"lon":-7.168,"type":"city"},{"id":"ci-2292173","label":"Bangoua","lat":7.33542,"lon":-3.47303,"type":"city"},{"id":"ci-8032016","label":"Banguie I","lat":5.90159,"lon":-4.20054,"type":"city"},{"id":"ci-2292134","label":"Banneu","lat":7.07343,"lon":-8.25311,"type":"city"},{"id":"ci-2292125","label":"Banoufla","lat":7.11998,"lon":-6.31833,"type":"city"},{"id":"ci-2292108","label":"Baonfla","lat":6.83328,"lon":-5.49849,"type":"city"},{"id":"ci-2292102","label":"Baoubli","lat":6.80566,"lon":-7.39931,"type":"city"},{"id":"ci-2292090","label":"Baoutifla","lat":7.23425,"lon":-6.47485,"type":"city"},{"id":"ci-2292037","label":"Bassadzin","lat":5.93741,"lon":-3.73819,"type":"city"},{"id":"ci-2291997","label":"Bawakaha","lat":9.49932,"lon":-5.41023,"type":"city"},{"id":"ci-2291962","label":"Bayota","lat":6.46477,"lon":-5.95427,"type":"city"},{"id":"ci-2291949","label":"Bazre","lat":6.72443,"lon":-5.48283,"type":"city"},{"id":"ci-7848498","label":"Beablo","lat":6.37887,"lon":-7.33397,"type":"city"},{"id":"ci-2291932","label":"Bebou","lat":6.3617,"lon":-3.41275,"type":"city"},{"id":"ci-2291931","label":"Bebouo-sibouo","lat":6.81967,"lon":-6.23775,"type":"city"},{"id":"ci-2291930","label":"Becedi","lat":5.64167,"lon":-4.58216,"type":"city"},{"id":"ci-2291929","label":"Becedi-Brignan","lat":5.90909,"lon":-4.01281,"type":"city"},{"id":"ci-2291874","label":"Becouefin","lat":6.48086,"lon":-3.84625,"type":"city"},{"id":"ci-2291924","label":"Bediala","lat":7.16008,"lon":-6.30642,"type":"city"},{"id":"ci-2291920","label":"Bedigoazon","lat":6.56363,"lon":-7.77749,"type":"city"},{"id":"ci-2291915","label":"Befla","lat":7.21185,"lon":-6.13989,"type":"city"},{"id":"ci-2291913","label":"Begbessou","lat":7.06697,"lon":-5.59738,"type":"city"},{"id":"ci-2291798","label":"Beinleu","lat":7.22838,"lon":-7.88256,"type":"city"},{"id":"ci-7849877","label":"Belleville","lat":6.18021,"lon":-6.90529,"type":"city"},{"id":"ci-12688221","label":"Belleville","lat":6.87341,"lon":-6.84829,"type":"city"},{"id":"ci-12688209","label":"Benhuafla","lat":6.59526,"lon":-5.87943,"type":"city"},{"id":"ci-2291791","label":"Benzra","lat":7.32774,"lon":-6.00849,"type":"city"},{"id":"ci-2291786","label":"Beoua","lat":6.5399,"lon":-7.64601,"type":"city"},{"id":"ci-2291779","label":"Beoumi","lat":7.67395,"lon":-5.58085,"type":"city"},{"id":"ci-2291766","label":"Bereblo","lat":5.27505,"lon":-7.46269,"type":"city"},{"id":"ci-12688625","label":"Bereni-Dialla","lat":8.00364,"lon":-6.86094,"type":"city"},{"id":"ci-2597174","label":"Bessedi Anon","lat":5.92585,"lon":-3.99411,"type":"city"},{"id":"ci-2291708","label":"Bettie","lat":6.07568,"lon":-3.40846,"type":"city"},{"id":"ci-2291666","label":"Biankouma","lat":7.73909,"lon":-7.61377,"type":"city"},{"id":"ci-2291663","label":"Bianouan","lat":6.01203,"lon":-3.19024,"type":"city"},{"id":"ci-2291660","label":"Biantouo","lat":6.96438,"lon":-8.24995,"type":"city"},{"id":"ci-2291658","label":"Biasso","lat":6.11151,"lon":-3.78657,"type":"city"},{"id":"ci-2291639","label":"Bidiouan","lat":6.61531,"lon":-6.23701,"type":"city"},{"id":"ci-2291636","label":"Bieby","lat":6.07873,"lon":-3.63548,"type":"city"},{"id":"ci-2597401","label":"Bielou-carrefour","lat":8.54139,"lon":-6.20056,"type":"city"},{"id":"ci-2291172","label":"Billahio","lat":6.21378,"lon":-6.14614,"type":"city"},{"id":"ci-2291571","label":"Bin-Houye","lat":6.78241,"lon":-8.31311,"type":"city"},{"id":"ci-2291580","label":"Bingerville","lat":5.35581,"lon":-3.88537,"type":"city"},{"id":"ci-12688151","label":"Blablata","lat":7.28616,"lon":-6.2456,"type":"city"},{"id":"ci-2570409","label":"Blaguiehi","lat":6.95799,"lon":-7.66503,"type":"city"},{"id":"ci-12687514","label":"Blahou","lat":4.93107,"lon":-6.55781,"type":"city"},{"id":"ci-2291504","label":"Blapleu","lat":7.63918,"lon":-7.73705,"type":"city"},{"id":"ci-2291491","label":"Bleanianda","lat":6.3072,"lon":-5.70499,"type":"city"},{"id":"ci-2291488","label":"Bledi Dieya","lat":6.58627,"lon":-8.06722,"type":"city"},{"id":"ci-12687196","label":"Blenimeouin","lat":7.13333,"lon":-7.18333,"type":"city"},{"id":"ci-2291469","label":"Blessegue","lat":10.19833,"lon":-6.40778,"type":"city"},{"id":"ci-2291453","label":"Blodi","lat":6.79396,"lon":-7.2972,"type":"city"},{"id":"ci-2291451","label":"Blolequin","lat":6.56913,"lon":-8.00253,"type":"city"},{"id":"ci-2291446","label":"Blotile","lat":7.04902,"lon":-7.69201,"type":"city"},{"id":"ci-12718622","label":"Boahia","lat":7.5717,"lon":-3.51489,"type":"city"},{"id":"ci-2291409","label":"Bobi","lat":8.16144,"lon":-6.55006,"type":"city"},{"id":"ci-2291391","label":"Boboniessoko","lat":6.96589,"lon":-6.65652,"type":"city"},{"id":"ci-12688627","label":"Bobosso-Tienigbe","lat":8.45183,"lon":-5.78737,"type":"city"},{"id":"ci-2291387","label":"Boboua","lat":7.01945,"lon":-6.47003,"type":"city"},{"id":"ci-2291383","label":"Bocanda","lat":7.06264,"lon":-4.49948,"type":"city"},{"id":"ci-2291364","label":"Bodo","lat":5.90955,"lon":-4.68498,"type":"city"},{"id":"ci-2292438","label":"Bodokro","lat":7.86144,"lon":-5.47745,"type":"city"},{"id":"ci-12688219","label":"Bogbam","lat":6.38085,"lon":-6.19258,"type":"city"},{"id":"ci-12688220","label":"Bognonzra","lat":6.94321,"lon":-5.96734,"type":"city"},{"id":"ci-2291284","label":"Boguedia","lat":6.63434,"lon":-6.51915,"type":"city"},{"id":"ci-2291257","label":"Bohinou","lat":7.17337,"lon":-6.83116,"type":"city"},{"id":"ci-8032524","label":"Boka","lat":5.94293,"lon":-4.39767,"type":"city"},{"id":"ci-2291230","label":"Bokeda","lat":6.3615,"lon":-5.71192,"type":"city"},{"id":"ci-2291198","label":"Boli","lat":7.22648,"lon":-4.80666,"type":"city"},{"id":"ci-2291177","label":"Bolona","lat":10.29666,"lon":-6.43756,"type":"city"},{"id":"ci-2291153","label":"Bonaouin","lat":6.56474,"lon":-3.76066,"type":"city"},{"id":"ci-2291142","label":"Bondo-Dioula","lat":8.21942,"lon":-3.2004,"type":"city"},{"id":"ci-2291136","label":"Bondoukou","lat":8.0402,"lon":-2.80003,"type":"city"},{"id":"ci-2291113","label":"Bongouanou","lat":6.65175,"lon":-4.20406,"type":"city"},{"id":"ci-7849539","label":"Bonon","lat":6.9268,"lon":-6.0489,"type":"city"},{"id":"ci-2291087","label":"Bonoua","lat":5.27247,"lon":-3.59625,"type":"city"},{"id":"ci-2291086","label":"Bonoufla","lat":7.12906,"lon":-6.47424,"type":"city"},{"id":"ci-2290761","label":"Bonzi","lat":6.91666,"lon":-5.53405,"type":"city"},{"id":"ci-2291148","label":"Booda","lat":6.36075,"lon":-5.68817,"type":"city"},{"id":"ci-2291027","label":"Boron","lat":8.69445,"lon":-5.96906,"type":"city"},{"id":"ci-2597400","label":"Borotou-Koro","lat":8.49111,"lon":-7.17861,"type":"city"},{"id":"ci-2290985","label":"Botro","lat":7.85249,"lon":-5.31063,"type":"city"},{"id":"ci-2290975","label":"Boua","lat":5.01997,"lon":-7.05443,"type":"city"},{"id":"ci-2290966","label":"Bouafla","lat":7.25219,"lon":-5.84987,"type":"city"},{"id":"ci-2290964","label":"Bouafle","lat":6.99041,"lon":-5.7442,"type":"city"},{"id":"ci-2290956","label":"Bouake","lat":7.69385,"lon":-5.03031,"type":"city"},{"id":"ci-2290642","label":"Bouandougou","lat":8.21598,"lon":-5.66962,"type":"city"},{"id":"ci-2290917","label":"Boudepe","lat":5.98392,"lon":-3.98698,"type":"city"},{"id":"ci-2290849","label":"Bouna","lat":9.26927,"lon":-2.9951,"type":"city"},{"id":"ci-2290844","label":"Bounafla","lat":6.72204,"lon":-5.51812,"type":"city"},{"id":"ci-2290841","label":"Bounantinfla","lat":6.75449,"lon":-5.91559,"type":"city"},{"id":"ci-2290836","label":"Boundiali","lat":9.52167,"lon":-6.48694,"type":"city"},{"id":"ci-2290821","label":"Bounta","lat":7.64675,"lon":-7.95915,"type":"city"},{"id":"ci-2290819","label":"Bouoissue","lat":6.96348,"lon":-3.2324,"type":"city"},{"id":"ci-2290736","label":"Breguiagui","lat":5.24854,"lon":-6.37914,"type":"city"},{"id":"ci-12687492","label":"Bricolo","lat":5.78502,"lon":-6.45205,"type":"city"},{"id":"ci-12687737","label":"Brihi","lat":6.45027,"lon":-5.91893,"type":"city"},{"id":"ci-2290710","label":"Brizeboua","lat":7.00954,"lon":-6.46905,"type":"city"},{"id":"ci-2288310","label":"Brobo","lat":7.64026,"lon":-4.82541,"type":"city"},{"id":"ci-2290680","label":"Brou akpaousso","lat":6.90916,"lon":-4.05582,"type":"city"},{"id":"ci-2290681","label":"Brouafla-nattis","lat":7.59623,"lon":-6.51838,"type":"city"},{"id":"ci-12687482","label":"Brouagui","lat":5.65075,"lon":-6.82418,"type":"city"},{"id":"ci-2290675","label":"Broubrou","lat":5.72477,"lon":-4.8237,"type":"city"},{"id":"ci-12687740","label":"Broudoukou-Kpenda","lat":5.52314,"lon":-5.51411,"type":"city"},{"id":"ci-2290665","label":"Broukro","lat":6.6464,"lon":-4.22305,"type":"city"},{"id":"ci-2290658","label":"Brouta","lat":7.24953,"lon":-6.18451,"type":"city"},{"id":"ci-2290654","label":"Brozan","lat":6.39873,"lon":-5.50306,"type":"city"},{"id":"ci-2290650","label":"Butubre I","lat":5.51071,"lon":-6.44838,"type":"city"},{"id":"ci-2290648","label":"Buyo","lat":6.27534,"lon":-6.99704,"type":"city"},{"id":"ci-12687730","label":"Cfi-Baroko","lat":5.72051,"lon":-5.17192,"type":"city"},{"id":"ci-2290626","label":"Chiepo","lat":5.69519,"lon":-5.06251,"type":"city"},{"id":"ci-12688214","label":"Complexe","lat":7.60288,"lon":-6.14386,"type":"city"},{"id":"ci-2290620","label":"Cosrou","lat":5.31906,"lon":-4.65889,"type":"city"},{"id":"ci-2290609","label":"Dabakala","lat":8.36321,"lon":-4.42863,"type":"city"},{"id":"ci-2290582","label":"Dabou","lat":5.32556,"lon":-4.37685,"type":"city"},{"id":"ci-2290561","label":"Dafrahinou Darinsala","lat":6.43243,"lon":-7.08849,"type":"city"},{"id":"ci-12687206","label":"Dagadji","lat":5.12569,"lon":-6.81483,"type":"city"},{"id":"ci-2290555","label":"Dagbao I","lat":5.56025,"lon":-6.02111,"type":"city"},{"id":"ci-12687489","label":"Dahili","lat":5.50267,"lon":-6.78421,"type":"city"},{"id":"ci-7849319","label":"Dahira","lat":6.54137,"lon":-6.32131,"type":"city"},{"id":"ci-2290529","label":"Dahiri","lat":5.26206,"lon":-5.52897,"type":"city"},{"id":"ci-7850567","label":"Daine II","lat":7.42997,"lon":-7.60525,"type":"city"},{"id":"ci-2290528","label":"Dairo","lat":5.66059,"lon":-5.47393,"type":"city"},{"id":"ci-2290511","label":"Dakpadou","lat":5.25664,"lon":-6.06774,"type":"city"},{"id":"ci-2290486","label":"Daloa","lat":6.87735,"lon":-6.45022,"type":"city"},{"id":"ci-2290474","label":"Dame","lat":7.07085,"lon":-3.14883,"type":"city"},{"id":"ci-2290462","label":"Danane","lat":7.25957,"lon":-8.15498,"type":"city"},{"id":"ci-2290458","label":"Dananon","lat":7.61072,"lon":-6.36333,"type":"city"},{"id":"ci-2290292","label":"Danguira","lat":5.67033,"lon":-3.76763,"type":"city"},{"id":"ci-2290438","label":"Dania","lat":7.15082,"lon":-6.84125,"type":"city"},{"id":"ci-2290412","label":"Daoukro","lat":7.0591,"lon":-3.9631,"type":"city"},{"id":"ci-2290405","label":"Daouo","lat":7.40348,"lon":-6.61788,"type":"city"},{"id":"ci-2290403","label":"Dapeoua","lat":6.13774,"lon":-6.87847,"type":"city"},{"id":"ci-2290396","label":"Darakokaha","lat":8.28921,"lon":-5.15868,"type":"city"},{"id":"ci-12687739","label":"Datta","lat":5.9363,"lon":-5.32465,"type":"city"},{"id":"ci-2290335","label":"Dedifla","lat":7.2851,"lon":-6.58711,"type":"city"},{"id":"ci-2290310","label":"Dema","lat":7.30833,"lon":-6.48194,"type":"city"},{"id":"ci-2290256","label":"Diabo","lat":7.78959,"lon":-5.17102,"type":"city"},{"id":"ci-12688208","label":"Diacohou-Sud","lat":6.78794,"lon":-5.87103,"type":"city"},{"id":"ci-2289526","label":"Diafla","lat":7.42124,"lon":-6.86751,"type":"city"},{"id":"ci-2289503","label":"Dialakoro","lat":8.1921,"lon":-5.8429,"type":"city"},{"id":"ci-2290475","label":"Diamarakro","lat":6.23681,"lon":-3.32006,"type":"city"},{"id":"ci-2290205","label":"Dianambroufla","lat":6.65823,"lon":-5.62325,"type":"city"},{"id":"ci-2290197","label":"Diangbanasso","lat":9.08161,"lon":-4.6415,"type":"city"},{"id":"ci-2290192","label":"Diangobo","lat":6.56564,"lon":-3.33675,"type":"city"},{"id":"ci-2290194","label":"Diangobo","lat":6.14632,"lon":-3.64219,"type":"city"},{"id":"ci-2290178","label":"Dianoufla","lat":6.79928,"lon":-6.01422,"type":"city"},{"id":"ci-2289515","label":"Dianra","lat":8.94333,"lon":-6.2549,"type":"city"},{"id":"ci-2290177","label":"Dianra-Village","lat":8.76437,"lon":-6.24411,"type":"city"},{"id":"ci-2290169","label":"Diape","lat":6.0142,"lon":-3.92726,"type":"city"},{"id":"ci-2289505","label":"Diarabana","lat":8.18668,"lon":-6.60866,"type":"city"},{"id":"ci-7849856","label":"Diassa","lat":6.41587,"lon":-6.69652,"type":"city"},{"id":"ci-2290153","label":"Diasson","lat":5.97152,"lon":-3.72759,"type":"city"},{"id":"ci-2290173","label":"Diawala","lat":10.10701,"lon":-5.47295,"type":"city"},{"id":"ci-7848488","label":"Dibobli","lat":6.73952,"lon":-7.02156,"type":"city"},{"id":"ci-2290135","label":"Diboke","lat":6.44434,"lon":-8.11234,"type":"city"},{"id":"ci-2290144","label":"Diby","lat":5.65774,"lon":-2.97845,"type":"city"},{"id":"ci-2290117","label":"Didievi","lat":7.12866,"lon":-4.89804,"type":"city"},{"id":"ci-2290115","label":"Didizo","lat":5.65104,"lon":-5.45993,"type":"city"},{"id":"ci-2290114","label":"Didoko","lat":6.02111,"lon":-5.31207,"type":"city"},{"id":"ci-2290101","label":"Diedrou","lat":6.99139,"lon":-7.77825,"type":"city"},{"id":"ci-2290099","label":"Diegonefla","lat":6.28919,"lon":-5.57413,"type":"city"},{"id":"ci-7848483","label":"Diehiba","lat":6.90152,"lon":-7.41376,"type":"city"},{"id":"ci-2289473","label":"Dieouzon","lat":7.15575,"lon":-7.32219,"type":"city"},{"id":"ci-2289950","label":"Dignago","lat":6.29164,"lon":-6.27945,"type":"city"},{"id":"ci-2290000","label":"Dikodougou","lat":9.06757,"lon":-5.77222,"type":"city"},{"id":"ci-2289983","label":"Dimbokro","lat":6.64678,"lon":-4.70519,"type":"city"},{"id":"ci-12687722","label":"Dioulabougou-Boleko","lat":5.35444,"lon":-5.16966,"type":"city"},{"id":"ci-2289902","label":"Diourouzon","lat":6.88922,"lon":-7.51952,"type":"city"},{"id":"ci-2289887","label":"Divo","lat":5.83739,"lon":-5.35723,"type":"city"},{"id":"ci-12687197","label":"Djapadji","lat":5.29114,"lon":-6.82023,"type":"city"},{"id":"ci-2290096","label":"Djekanou","lat":6.48389,"lon":-5.11553,"type":"city"},{"id":"ci-12688408","label":"Djelisso","lat":10.19489,"lon":-5.39097,"type":"city"},{"id":"ci-2288539","label":"Djibrosso","lat":8.76968,"lon":-6.99918,"type":"city"},{"id":"ci-12687721","label":"Djidji","lat":6.15401,"lon":-5.69333,"type":"city"},{"id":"ci-12687960","label":"Djidjikro","lat":5.30993,"lon":-4.87689,"type":"city"},{"id":"ci-2289865","label":"Djidoubaye","lat":6.08567,"lon":-7.48642,"type":"city"},{"id":"ci-12687513","label":"Djigbagui","lat":5.61444,"lon":-6.87374,"type":"city"},{"id":"ci-2289777","label":"Doke","lat":6.59281,"lon":-8.11205,"type":"city"},{"id":"ci-12687965","label":"Dokpodon","lat":5.18955,"lon":-5.45087,"type":"city"},{"id":"ci-2289754","label":"Domobly","lat":6.5321,"lon":-7.57411,"type":"city"},{"id":"ci-2289715","label":"Donsohouo","lat":6.44981,"lon":-5.6963,"type":"city"},{"id":"ci-2289724","label":"Doropo","lat":9.80955,"lon":-3.34577,"type":"city"},{"id":"ci-2289700","label":"Douague","lat":7.47944,"lon":-7.13336,"type":"city"},{"id":"ci-12688095","label":"Douekpe","lat":7.1362,"lon":-7.32839,"type":"city"},{"id":"ci-12687732","label":"Dougodou","lat":5.30101,"lon":-5.35141,"type":"city"},{"id":"ci-2289633","label":"Doukouya","lat":6.42623,"lon":-5.55925,"type":"city"},{"id":"ci-12688102","label":"Doumbiadougou","lat":6.60253,"lon":-7.31889,"type":"city"},{"id":"ci-2289580","label":"Drayo","lat":6.25898,"lon":-6.04026,"type":"city"},{"id":"ci-2289549","label":"Duekoue","lat":6.74202,"lon":-7.34918,"type":"city"},{"id":"ci-2289543","label":"Duferebo","lat":7.08976,"lon":-3.44624,"type":"city"},{"id":"ci-2289537","label":"Duonfla","lat":6.843,"lon":-5.49915,"type":"city"},{"id":"ci-2289448","label":"Dyougouble","lat":9.52789,"lon":-5.935,"type":"city"},{"id":"ci-2289434","label":"Ebikro-Ndakro","lat":5.725,"lon":-3.11099,"type":"city"},{"id":"ci-2289433","label":"Ebilassokro","lat":6.37917,"lon":-3.34722,"type":"city"},{"id":"ci-2289431","label":"Ebimpe","lat":5.49901,"lon":-4.08207,"type":"city"},{"id":"ci-2289417","label":"Eboue","lat":5.34407,"lon":-3.1255,"type":"city"},{"id":"ci-12687590","label":"Ehuasso","lat":6.32597,"lon":-3.44403,"type":"city"},{"id":"ci-2289388","label":"Elenzue","lat":6.80811,"lon":-4.09735,"type":"city"},{"id":"ci-12687963","label":"Ellibou","lat":5.6882,"lon":-4.51,"type":"city"},{"id":"ci-2596874","label":"Eremankono","lat":5.92829,"lon":-5.02252,"type":"city"},{"id":"ci-2289291","label":"Facobly","lat":7.3883,"lon":-7.37644,"type":"city"},{"id":"ci-2289321","label":"Fadiadougou","lat":8.7,"lon":-6.62139,"type":"city"},{"id":"ci-2289222","label":"Faraba","lat":8.65459,"lon":-6.252,"type":"city"},{"id":"ci-2289071","label":"Fengolo","lat":6.78634,"lon":-7.39338,"type":"city"},{"id":"ci-2289049","label":"Ferkessedougou","lat":9.5928,"lon":-5.19449,"type":"city"},{"id":"ci-2289033","label":"Fiasse","lat":6.16357,"lon":-3.63625,"type":"city"},{"id":"ci-2289031","label":"Fiekon","lat":7.09963,"lon":-6.84547,"type":"city"},{"id":"ci-2289017","label":"Findimanou","lat":6.83153,"lon":-4.08298,"type":"city"},{"id":"ci-12689422","label":"Flakiedougou","lat":8.48273,"lon":-3.1273,"type":"city"},{"id":"ci-2288982","label":"Floleu","lat":6.84397,"lon":-8.12554,"type":"city"},{"id":"ci-12687198","label":"Fronan","lat":8.21494,"lon":-5.12549,"type":"city"},{"id":"ci-12687199","label":"Gabiadji","lat":5.0234,"lon":-6.56157,"type":"city"},{"id":"ci-2288750","label":"Gaboua","lat":7.0625,"lon":-6.46806,"type":"city"},{"id":"ci-2288439","label":"Gadouan","lat":6.65623,"lon":-6.16609,"type":"city"},{"id":"ci-2288829","label":"Gagnoa","lat":6.13193,"lon":-5.9506,"type":"city"},{"id":"ci-12687528","label":"Gagny","lat":5.0491,"lon":-6.74477,"type":"city"},{"id":"ci-12687200","label":"Galebre","lat":6.0059,"lon":-6.29403,"type":"city"},{"id":"ci-2288800","label":"Gan","lat":7.06596,"lon":-7.89385,"type":"city"},{"id":"ci-2288791","label":"Gangbapleu","lat":7.74878,"lon":-7.89301,"type":"city"},{"id":"ci-2288759","label":"Gaoulou","lat":5.03347,"lon":-6.15137,"type":"city"},{"id":"ci-2288755","label":"Gaouroubre","lat":5.28057,"lon":-6.24612,"type":"city"},{"id":"ci-8032138","label":"Gaoussoukro","lat":5.2484,"lon":-2.97116,"type":"city"},{"id":"ci-12688213","label":"Garango","lat":6.96301,"lon":-5.80875,"type":"city"},{"id":"ci-2288726","label":"Gazahio","lat":6.24409,"lon":-6.35457,"type":"city"},{"id":"ci-2288718","label":"Gbabam","lat":5.46651,"lon":-5.58678,"type":"city"},{"id":"ci-12688216","label":"Gbabo","lat":7.12097,"lon":-6.76377,"type":"city"},{"id":"ci-12687497","label":"Gbalebouo","lat":5.73699,"lon":-6.34582,"type":"city"},{"id":"ci-2292085","label":"Gbapleu","lat":6.47983,"lon":-7.16528,"type":"city"},{"id":"ci-12688210","label":"Gbehigbly","lat":7.25591,"lon":-7.05965,"type":"city"},{"id":"ci-2288627","label":"Gbetogo","lat":8.12639,"lon":-6.94361,"type":"city"},{"id":"ci-12687724","label":"Gbeugrehoa","lat":6.20546,"lon":-6.33818,"type":"city"},{"id":"ci-2288207","label":"Gbeya","lat":10.31053,"lon":-6.93507,"type":"city"},{"id":"ci-2291216","label":"Gbily","lat":6.22964,"lon":-6.96934,"type":"city"},{"id":"ci-12688626","label":"Gbimanan","lat":8.23371,"lon":-6.79954,"type":"city"},{"id":"ci-12687517","label":"Gbletia","lat":5.6337,"lon":-6.62994,"type":"city"},{"id":"ci-12687523","label":"Gbliglo","lat":6.13533,"lon":-7.02576,"type":"city"},{"id":"ci-12687966","label":"Gbolouville","lat":5.79408,"lon":-4.66127,"type":"city"},{"id":"ci-2288604","label":"Gbon","lat":9.83238,"lon":-6.44716,"type":"city"},{"id":"ci-2288597","label":"Gbonkaha","lat":9.11687,"lon":-6.89666,"type":"city"},{"id":"ci-2288518","label":"Glanie","lat":7.75948,"lon":-8.0813,"type":"city"},{"id":"ci-12687201","label":"Gligbeuadji","lat":5.2,"lon":-6.7,"type":"city"},{"id":"ci-7850683","label":"Gloleu","lat":7.12901,"lon":-7.76901,"type":"city"},{"id":"ci-2288497","label":"Gloplou","lat":7.11261,"lon":-7.35152,"type":"city"},{"id":"ci-2288495","label":"Gloubli","lat":6.89842,"lon":-7.77758,"type":"city"},{"id":"ci-12687511","label":"Gnagboya","lat":6.07877,"lon":-6.93104,"type":"city"},{"id":"ci-12687508","label":"Gnago","lat":5.24032,"lon":-5.79516,"type":"city"},{"id":"ci-12687485","label":"Gnanke","lat":5.29851,"lon":-6.5289,"type":"city"},{"id":"ci-2288485","label":"Gnato","lat":4.43338,"lon":-7.54031,"type":"city"},{"id":"ci-12687207","label":"Gnatroa","lat":5.92273,"lon":-6.15013,"type":"city"},{"id":"ci-12687527","label":"Gnepasso","lat":4.98218,"lon":-7.06024,"type":"city"},{"id":"ci-12687498","label":"Gnipi","lat":5.66876,"lon":-6.64374,"type":"city"},{"id":"ci-12687465","label":"Gnititoigui","lat":5.34392,"lon":-6.48204,"type":"city"},{"id":"ci-2288476","label":"Gnouboyo","lat":5.878,"lon":-6.40086,"type":"city"},{"id":"ci-2288465","label":"Goazra","lat":6.94429,"lon":-5.96878,"type":"city"},{"id":"ci-12687484","label":"Gobroko","lat":5.40626,"lon":-5.90484,"type":"city"},{"id":"ci-2288447","label":"Godelilie","lat":6.0456,"lon":-5.84345,"type":"city"},{"id":"ci-2288440","label":"Godoua","lat":6.51865,"lon":-6.30316,"type":"city"},{"id":"ci-2288421","label":"Gogobro","lat":6.15532,"lon":-5.32088,"type":"city"},{"id":"ci-12687522","label":"Goh","lat":5.2323,"lon":-6.63627,"type":"city"},{"id":"ci-2288411","label":"Gohitafla","lat":7.49076,"lon":-5.87952,"type":"city"},{"id":"ci-2288404","label":"Gohouo","lat":7.05402,"lon":-7.44035,"type":"city"},{"id":"ci-12688096","label":"Gohouo-Zarabaon","lat":7.00374,"lon":-7.7499,"type":"city"},{"id":"ci-2288363","label":"Gomeneberi","lat":5.37889,"lon":-5.51833,"type":"city"},{"id":"ci-2288362","label":"Gomon","lat":5.72358,"lon":-4.44129,"type":"city"},{"id":"ci-2288357","label":"Gonate","lat":6.90418,"lon":-6.24347,"type":"city"},{"id":"ci-12688101","label":"Gonie-Tahouake","lat":7.13159,"lon":-7.29997,"type":"city"},{"id":"ci-2288293","label":"Gotongouine","lat":7.17363,"lon":-7.74959,"type":"city"},{"id":"ci-2288290","label":"Gouabafla","lat":7.32113,"lon":-6.56099,"type":"city"},{"id":"ci-2288251","label":"Goudi","lat":6.12401,"lon":-5.10372,"type":"city"},{"id":"ci-12687731","label":"Goudouko","lat":5.73666,"lon":-5.61581,"type":"city"},{"id":"ci-2288244","label":"Goueda","lat":6.21439,"lon":-5.69125,"type":"city"},{"id":"ci-2288179","label":"Goulikao","lat":6.50706,"lon":-5.52408,"type":"city"},{"id":"ci-2288175","label":"Goumere","lat":7.8963,"lon":-2.98013,"type":"city"},{"id":"ci-12688103","label":"Gourane","lat":7.61198,"lon":-7.2986,"type":"city"},{"id":"ci-2288158","label":"Gouriela","lat":7.53053,"lon":-6.5145,"type":"city"},{"id":"ci-12688207","label":"Gouriniani","lat":7.20357,"lon":-6.18393,"type":"city"},{"id":"ci-2288139","label":"Goya","lat":6.56487,"lon":-7.42735,"type":"city"},{"id":"ci-2288125","label":"Grabo","lat":4.92035,"lon":-7.49562,"type":"city"},{"id":"ci-2288117","label":"Grand Alepe","lat":5.47503,"lon":-3.76424,"type":"city"},{"id":"ci-2292052","label":"Grand Berebi","lat":4.65098,"lon":-6.9237,"type":"city"},{"id":"ci-2288102","label":"Grand Morie","lat":5.98312,"lon":-4.13537,"type":"city"},{"id":"ci-2288101","label":"Grand Yapo","lat":5.82634,"lon":-4.15452,"type":"city"},{"id":"ci-2288115","label":"Grand-Bassam","lat":5.2118,"lon":-3.73884,"type":"city"},{"id":"ci-2288105","label":"Grand-Lahou","lat":5.13825,"lon":-5.02123,"type":"city"},{"id":"ci-7849902","label":"Grand-Zattry","lat":6.1162,"lon":-6.53603,"type":"city"},{"id":"ci-2288093","label":"Grebouo","lat":5.66667,"lon":-6.33333,"type":"city"},{"id":"ci-2288091","label":"Gregbeu","lat":6.80685,"lon":-6.71716,"type":"city"},{"id":"ci-12688091","label":"Greikro","lat":6.81693,"lon":-7.05859,"type":"city"},{"id":"ci-2288081","label":"Gribouo","lat":6.19511,"lon":-6.9132,"type":"city"},{"id":"ci-2288063","label":"Groguida","lat":5.1325,"lon":-5.08555,"type":"city"},{"id":"ci-2288027","label":"Guehiebli","lat":6.89479,"lon":-7.43139,"type":"city"},{"id":"ci-2288555","label":"Gueoule","lat":7.59893,"lon":-7.90071,"type":"city"},{"id":"ci-2288010","label":"Guepaouo","lat":6.47268,"lon":-5.70615,"type":"city"},{"id":"ci-2288002","label":"Guessabo","lat":6.73668,"lon":-6.95487,"type":"city"},{"id":"ci-2287999","label":"Guessiguie Un","lat":5.73853,"lon":-4.2355,"type":"city"},{"id":"ci-2287987","label":"Gueyo","lat":5.6882,"lon":-6.0712,"type":"city"},{"id":"ci-2287980","label":"Guezon","lat":6.74177,"lon":-7.11742,"type":"city"},{"id":"ci-2287981","label":"Guezon","lat":6.56696,"lon":-7.70203,"type":"city"},{"id":"ci-12688105","label":"Guezon-Tahouake","lat":7.0761,"lon":-7.18719,"type":"city"},{"id":"ci-2287970","label":"Guiberoua","lat":6.23869,"lon":-6.17147,"type":"city"},{"id":"ci-2280177","label":"Guiembe","lat":9.23298,"lon":-5.71277,"type":"city"},{"id":"ci-2287958","label":"Guiglo","lat":6.54368,"lon":-7.4935,"type":"city"},{"id":"ci-2287940","label":"Guinkin","lat":6.5667,"lon":-7.72277,"type":"city"},{"id":"ci-2288559","label":"Guinteguela","lat":8.29044,"lon":-7.30927,"type":"city"},{"id":"ci-2287925","label":"Guitrozon","lat":6.75012,"lon":-7.3714,"type":"city"},{"id":"ci-2287927","label":"Guitry","lat":5.51952,"lon":-5.24038,"type":"city"},{"id":"ci-2287945","label":"Gunglo Zia","lat":6.82062,"lon":-7.24392,"type":"city"},{"id":"ci-12688205","label":"Hallanikro","lat":6.85323,"lon":-5.63957,"type":"city"},{"id":"ci-12687394","label":"Hannie","lat":5.19401,"lon":-7.35304,"type":"city"},{"id":"ci-2287884","label":"Hire","lat":6.18878,"lon":-5.29463,"type":"city"},{"id":"ci-2287868","label":"Huafla","lat":6.56368,"lon":-5.79967,"type":"city"},{"id":"ci-2287859","label":"Iboguhe","lat":6.5481,"lon":-6.84419,"type":"city"},{"id":"ci-2287836","label":"Inahiri","lat":5.14007,"lon":-6.21354,"type":"city"},{"id":"ci-12687515","label":"Ipouagui","lat":5.51902,"lon":-6.83564,"type":"city"},{"id":"ci-12687958","label":"Ira","lat":5.35403,"lon":-4.65894,"type":"city"},{"id":"ci-12687961","label":"Irobo","lat":5.29358,"lon":-4.79603,"type":"city"},{"id":"ci-2287790","label":"Issia","lat":6.49224,"lon":-6.58558,"type":"city"},{"id":"ci-2287778","label":"Jacqueville","lat":5.20515,"lon":-4.4146,"type":"city"},{"id":"ci-12687518","label":"Johin","lat":5.80465,"lon":-6.78437,"type":"city"},{"id":"ci-2287766","label":"Kaade","lat":6.56928,"lon":-7.71427,"type":"city"},{"id":"ci-8032190","label":"Kacoukro","lat":5.29605,"lon":-3.37752,"type":"city"},{"id":"ci-12687733","label":"Kadeko","lat":6.09846,"lon":-5.58439,"type":"city"},{"id":"ci-2287711","label":"Kadioha","lat":8.96821,"lon":-5.88332,"type":"city"},{"id":"ci-2287663","label":"Kagbe","lat":6.16599,"lon":-5.34964,"type":"city"},{"id":"ci-12687495","label":"Kagnenako","lat":5.81191,"lon":-6.349,"type":"city"},{"id":"ci-2287653","label":"Kahin","lat":6.91413,"lon":-7.63121,"type":"city"},{"id":"ci-2287634","label":"Kako","lat":4.77572,"lon":-7.01707,"type":"city"},{"id":"ci-2287587","label":"Kamala","lat":8.43434,"lon":-2.72108,"type":"city"},{"id":"ci-2287564","label":"Kami","lat":6.88289,"lon":-5.27871,"type":"city"},{"id":"ci-2287540","label":"Kanakono","lat":10.35497,"lon":-6.23634,"type":"city"},{"id":"ci-2287533","label":"Kanangonon","lat":8.29825,"lon":-5.05627,"type":"city"},{"id":"ci-2287532","label":"Kananwolo","lat":8.78256,"lon":-5.3108,"type":"city"},{"id":"ci-2287510","label":"Kanebly","lat":7.48122,"lon":-7.03262,"type":"city"},{"id":"ci-12687487","label":"Kangagui","lat":5.71755,"lon":-6.80999,"type":"city"},{"id":"ci-2287480","label":"Kani","lat":8.47807,"lon":-6.60509,"type":"city"},{"id":"ci-2287451","label":"Kanoroba","lat":9.11088,"lon":-6.12238,"type":"city"},{"id":"ci-2287446","label":"Kanouan","lat":7.41694,"lon":-5.45222,"type":"city"},{"id":"ci-2287428","label":"Kanzra","lat":7.32282,"lon":-6.22237,"type":"city"},{"id":"ci-2286023","label":"Kaouara","lat":10.09085,"lon":-5.19482,"type":"city"},{"id":"ci-2287374","label":"Karamokola","lat":8.09985,"lon":-6.18261,"type":"city"},{"id":"ci-2287360","label":"Karie","lat":5.437,"lon":-7.33944,"type":"city"},{"id":"ci-2287346","label":"Kassere","lat":9.82723,"lon":-6.2167,"type":"city"},{"id":"ci-2287281","label":"Katiali","lat":9.82268,"lon":-5.93381,"type":"city"},{"id":"ci-2287298","label":"Katiola","lat":8.13728,"lon":-5.10095,"type":"city"},{"id":"ci-2287289","label":"Katoro","lat":10.14962,"lon":-6.12869,"type":"city"},{"id":"ci-2287261","label":"Kayo","lat":5.80977,"lon":-6.47534,"type":"city"},{"id":"ci-12687729","label":"Kazeriberi","lat":5.63899,"lon":-5.61016,"type":"city"},{"id":"ci-12688099","label":"Keibly","lat":5.99636,"lon":-7.4726,"type":"city"},{"id":"ci-12688094","label":"Keitenably","lat":7.26047,"lon":-7.33748,"type":"city"},{"id":"ci-12688406","label":"Kelegbala","lat":10.03229,"lon":-6.75961,"type":"city"},{"id":"ci-2287162","label":"Ketasso","lat":5.75869,"lon":-5.03378,"type":"city"},{"id":"ci-2287158","label":"Ketesso","lat":5.87796,"lon":-3.17407,"type":"city"},{"id":"ci-2287150","label":"Ketro","lat":7.18256,"lon":-6.643,"type":"city"},{"id":"ci-2280137","label":"Kiemou","lat":9.0605,"lon":-5.54983,"type":"city"},{"id":"ci-2287171","label":"Kiramisse","lat":8.22181,"lon":-3.44671,"type":"city"},{"id":"ci-12687505","label":"Kodaya","lat":5.99517,"lon":-6.97259,"type":"city"},{"id":"ci-2286487","label":"Kodiebouman","lat":6.22107,"lon":-4.54056,"type":"city"},{"id":"ci-2286892","label":"Kodioussou","lat":5.77116,"lon":-3.75595,"type":"city"},{"id":"ci-2286888","label":"Kodjina","lat":6.73543,"lon":-3.59696,"type":"city"},{"id":"ci-8032096","label":"Kohourou","lat":5.47964,"lon":-3.32856,"type":"city"},{"id":"ci-2286705","label":"Kokolopozo","lat":5.13662,"lon":-6.08244,"type":"city"},{"id":"ci-2286675","label":"Kokoumbo","lat":6.54246,"lon":-5.25925,"type":"city"},{"id":"ci-2286632","label":"Kolia","lat":9.7651,"lon":-6.46372,"type":"city"},{"id":"ci-2286492","label":"Komborodougou","lat":9.32634,"lon":-5.42922,"type":"city"},{"id":"ci-7849903","label":"Konedougou","lat":6.03991,"lon":-6.66579,"type":"city"},{"id":"ci-2286469","label":"Konefla","lat":6.65166,"lon":-5.60501,"type":"city"},{"id":"ci-2286458","label":"Kong","lat":9.14943,"lon":-4.60982,"type":"city"},{"id":"ci-2286459","label":"Kong","lat":6.11391,"lon":-3.64849,"type":"city"},{"id":"ci-2286455","label":"Kongaso","lat":7.81533,"lon":-6.07747,"type":"city"},{"id":"ci-2286313","label":"Koreagui","lat":5.54303,"lon":-6.60172,"type":"city"},{"id":"ci-2286307","label":"Koreguhe","lat":6.18859,"lon":-6.65891,"type":"city"},{"id":"ci-2286304","label":"Korhogo","lat":9.45803,"lon":-5.62961,"type":"city"},{"id":"ci-2286294","label":"Koro","lat":8.55505,"lon":-7.46348,"type":"city"},{"id":"ci-2286279","label":"Korokaha","lat":9.90059,"lon":-5.62764,"type":"city"},{"id":"ci-2286243","label":"Kossandji","lat":5.82463,"lon":-3.61566,"type":"city"},{"id":"ci-2286237","label":"Kosso","lat":5.04973,"lon":-5.77883,"type":"city"},{"id":"ci-12687592","label":"Kossonoukro","lat":6.0107,"lon":-3.38927,"type":"city"},{"id":"ci-2286221","label":"Kotobi","lat":6.69569,"lon":-4.12892,"type":"city"},{"id":"ci-12687589","label":"Kotouagnoa","lat":5.21608,"lon":-2.89049,"type":"city"},{"id":"ci-2286069","label":"Kouamefra","lat":6.59205,"lon":-5.42399,"type":"city"},{"id":"ci-2286038","label":"Kouan Houle","lat":7.39279,"lon":-8.26093,"type":"city"},{"id":"ci-2286007","label":"Kouassi-Datekro","lat":7.8175,"lon":-3.52556,"type":"city"},{"id":"ci-2286734","label":"Kouassi-Kouassikro","lat":7.34141,"lon":-4.67709,"type":"city"},{"id":"ci-2285942","label":"Koudougou","lat":6.93528,"lon":-5.6663,"type":"city"},{"id":"ci-2285924","label":"Kouenoufla Don","lat":7.35452,"lon":-6.75151,"type":"city"},{"id":"ci-2285919","label":"Kouetinfla","lat":6.61223,"lon":-6.06037,"type":"city"},{"id":"ci-2285905","label":"Kouibly","lat":7.25597,"lon":-7.23508,"type":"city"},{"id":"ci-2285896","label":"Koukoguhe","lat":6.91063,"lon":-6.56571,"type":"city"},{"id":"ci-2285889","label":"Koulaeoue","lat":7.04434,"lon":-7.88591,"type":"city"},{"id":"ci-2570408","label":"Koulouan","lat":6.95309,"lon":-7.69888,"type":"city"},{"id":"ci-2285853","label":"Koumassi","lat":5.29716,"lon":-3.96753,"type":"city"},{"id":"ci-2285834","label":"Koumoudji","lat":6.64449,"lon":-5.63742,"type":"city"},{"id":"ci-2285831","label":"Koun-Fao","lat":7.48764,"lon":-3.25249,"type":"city"},{"id":"ci-2285826","label":"Kounahiri","lat":7.79089,"lon":-5.83477,"type":"city"},{"id":"ci-2285711","label":"Kouta","lat":5.48849,"lon":-5.23249,"type":"city"},{"id":"ci-2285707","label":"Kouto","lat":9.89029,"lon":-6.40921,"type":"city"},{"id":"ci-2285677","label":"Koyekro","lat":6.15253,"lon":-4.74567,"type":"city"},{"id":"ci-2285671","label":"Koziayo II","lat":5.92426,"lon":-6.34379,"type":"city"},{"id":"ci-12687507","label":"Kpada","lat":5.77996,"lon":-6.48509,"type":"city"},{"id":"ci-12687481","label":"Kpangban","lat":5.58177,"lon":-6.75359,"type":"city"},{"id":"ci-12687509","label":"Kpote","lat":4.87116,"lon":-6.53403,"type":"city"},{"id":"ci-2285639","label":"Kpouebo","lat":6.33441,"lon":-4.85618,"type":"city"},{"id":"ci-7848493","label":"Kranzadougou","lat":6.48496,"lon":-7.20101,"type":"city"},{"id":"ci-2285614","label":"Kregbe","lat":6.97249,"lon":-3.98416,"type":"city"},{"id":"ci-7850553","label":"Kreuzokoue","lat":6.07216,"lon":-5.44359,"type":"city"},{"id":"ci-2285596","label":"Krinjabo","lat":5.39733,"lon":-3.21357,"type":"city"},{"id":"ci-2285581","label":"Krokroum","lat":5.2111,"lon":-5.40944,"type":"city"},{"id":"ci-2285508","label":"Labodougou","lat":5.71433,"lon":-5.41263,"type":"city"},{"id":"ci-2285449","label":"Lakota","lat":5.84752,"lon":-5.682,"type":"city"},{"id":"ci-2285438","label":"Lalogo","lat":8.83327,"lon":-6.3566,"type":"city"},{"id":"ci-2285381","label":"Laouda","lat":6.20829,"lon":-5.70204,"type":"city"},{"id":"ci-2285368","label":"Lasologo","lat":9.58605,"lon":-5.10091,"type":"city"},{"id":"ci-2285362","label":"Lataha","lat":9.56724,"lon":-5.59098,"type":"city"},{"id":"ci-2285350","label":"Latokaha","lat":8.62257,"lon":-5.38733,"type":"city"},{"id":"ci-7848486","label":"Ledjean","lat":6.92867,"lon":-7.10539,"type":"city"},{"id":"ci-2285287","label":"Leleble","lat":6.23311,"lon":-5.22341,"type":"city"},{"id":"ci-12689419","label":"Leomidouo","lat":9.03536,"lon":-2.90439,"type":"city"},{"id":"ci-12687521","label":"Lessiri","lat":5.90971,"lon":-6.48897,"type":"city"},{"id":"ci-12687502","label":"Liliyo","lat":5.99473,"lon":-6.3573,"type":"city"},{"id":"ci-2285161","label":"Lobakuya","lat":5.09053,"lon":-6.34438,"type":"city"},{"id":"ci-12687524","label":"Lobogba","lat":5.98014,"lon":-6.73576,"type":"city"},{"id":"ci-7849905","label":"Loboville","lat":6.13656,"lon":-6.84096,"type":"city"},{"id":"ci-7849875","label":"Lobozoa","lat":6.21819,"lon":-6.95554,"type":"city"},{"id":"ci-2285092","label":"Logouale","lat":7.10769,"lon":-7.55207,"type":"city"},{"id":"ci-2285043","label":"Lokbonoun","lat":8.06667,"lon":-5.26667,"type":"city"},{"id":"ci-7848495","label":"Lokossou","lat":6.60116,"lon":-7.37859,"type":"city"},{"id":"ci-2284978","label":"Lolobo","lat":6.95892,"lon":-5.26581,"type":"city"},{"id":"ci-2284820","label":"Lomara","lat":10.35174,"lon":-6.33887,"type":"city"},{"id":"ci-2284910","label":"Lopou","lat":5.42176,"lon":-4.46967,"type":"city"},{"id":"ci-2284843","label":"Loua","lat":6.43822,"lon":-5.60554,"type":"city"},{"id":"ci-2284803","label":"Loviguie I","lat":5.80761,"lon":-4.33836,"type":"city"},{"id":"ci-2284784","label":"Luehouan","lat":6.29916,"lon":-6.77104,"type":"city"},{"id":"ci-2284787","label":"Luenoufla","lat":7.07236,"lon":-6.24125,"type":"city"},{"id":"ci-2284489","label":"M'Bahiakro","lat":7.45728,"lon":-4.33993,"type":"city"},{"id":"ci-2284477","label":"M'Batto","lat":6.47197,"lon":-4.35781,"type":"city"},{"id":"ci-2284460","label":"M'Bengue","lat":10.00244,"lon":-5.90037,"type":"city"},{"id":"ci-2284777","label":"Mabehiri","lat":5.66667,"lon":-6.41667,"type":"city"},{"id":"ci-12687725","label":"Mabouo","lat":5.93446,"lon":-6.02418,"type":"city"},{"id":"ci-2284761","label":"Madinani","lat":9.61083,"lon":-6.94215,"type":"city"},{"id":"ci-2284758","label":"Madoge","lat":7.02886,"lon":-6.47253,"type":"city"},{"id":"ci-2284744","label":"Mafere","lat":5.4151,"lon":-3.03006,"type":"city"},{"id":"ci-12687500","label":"Magnery","lat":4.94007,"lon":-6.92193,"type":"city"},{"id":"ci-2284724","label":"Mahale","lat":10.12893,"lon":-6.57778,"type":"city"},{"id":"ci-2284719","label":"Mahapleu","lat":7.22474,"lon":-7.93118,"type":"city"},{"id":"ci-2284710","label":"Mahino","lat":5.11262,"lon":-7.4149,"type":"city"},{"id":"ci-2284706","label":"Mahra","lat":8.67927,"lon":-5.97627,"type":"city"},{"id":"ci-2284658","label":"Maminigui","lat":7.40183,"lon":-5.84077,"type":"city"},{"id":"ci-2284647","label":"Man","lat":7.41251,"lon":-7.55383,"type":"city"},{"id":"ci-12688217","label":"Manfla","lat":7.41135,"lon":-5.91127,"type":"city"},{"id":"ci-2284589","label":"Mankono","lat":8.05861,"lon":-6.18972,"type":"city"},{"id":"ci-2284583","label":"Manoufla","lat":6.6195,"lon":-5.62714,"type":"city"},{"id":"ci-2596933","label":"Mantongouine","lat":7.28782,"lon":-8.03824,"type":"city"},{"id":"ci-2284576","label":"Manzanoua","lat":6.84346,"lon":-3.28625,"type":"city"},{"id":"ci-12689421","label":"Marahui","lat":8.61522,"lon":-2.75076,"type":"city"},{"id":"ci-2595323","label":"Marcory","lat":5.31198,"lon":-3.99363,"type":"city"},{"id":"ci-12687499","label":"Mayakoffikro","lat":6.27502,"lon":-6.99623,"type":"city"},{"id":"ci-2284481","label":"Mbaoussiessou","lat":6.58073,"lon":-4.2711,"type":"city"},{"id":"ci-2284449","label":"Mborla-Dioulasso","lat":8.46882,"lon":-4.481,"type":"city"},{"id":"ci-2596997","label":"Mborou","lat":5.59474,"lon":-4.36334,"type":"city"},{"id":"ci-10629379","label":"Meagui","lat":5.4119,"lon":-6.5603,"type":"city"},{"id":"ci-2284404","label":"Memni","lat":5.51121,"lon":-3.73995,"type":"city"},{"id":"ci-2291589","label":"Mibrigue","lat":10.28504,"lon":-5.795,"type":"city"},{"id":"ci-2284314","label":"Mignoure","lat":7.4875,"lon":-6.78821,"type":"city"},{"id":"ci-12688206","label":"Minfla","lat":7.52299,"lon":-6.04404,"type":"city"},{"id":"ci-2284590","label":"Minignan","lat":9.99744,"lon":-7.83593,"type":"city"},{"id":"ci-2284288","label":"Moape","lat":6.18888,"lon":-3.80369,"type":"city"},{"id":"ci-2284260","label":"Momiraso","lat":9.70654,"lon":-5.16887,"type":"city"},{"id":"ci-2284250","label":"Monga","lat":5.47623,"lon":-3.6607,"type":"city"},{"id":"ci-2284243","label":"Monoko Zohi Deux","lat":7.06992,"lon":-6.84476,"type":"city"},{"id":"ci-2284193","label":"Montezo","lat":5.48556,"lon":-3.74027,"type":"city"},{"id":"ci-2284203","label":"Morokro","lat":6.0776,"lon":-4.70306,"type":"city"},{"id":"ci-2284197","label":"Moronou","lat":6.32043,"lon":-4.97121,"type":"city"},{"id":"ci-12688407","label":"Mougnini","lat":10.01405,"lon":-6.67064,"type":"city"},{"id":"ci-2284159","label":"Moussadougou","lat":6.154,"lon":-5.69334,"type":"city"},{"id":"ci-12687506","label":"Moussayo","lat":5.98952,"lon":-6.43714,"type":"city"},{"id":"ci-2283847","label":"N'deou","lat":9.97,"lon":-6.61823,"type":"city"},{"id":"ci-12688211","label":"N'Douffoukankro","lat":6.8616,"lon":-5.82098,"type":"city"},{"id":"ci-2597371","label":"Nafoungolo","lat":10.31364,"lon":-5.44754,"type":"city"},{"id":"ci-12687736","label":"Nagadoukou","lat":6.42583,"lon":-5.78126,"type":"city"},{"id":"ci-2284063","label":"Nakara","lat":8.25783,"lon":-5.63704,"type":"city"},{"id":"ci-7849854","label":"Namane","lat":6.42177,"lon":-6.68203,"type":"city"},{"id":"ci-2284032","label":"Nambezaria","lat":5.65,"lon":-5.75,"type":"city"},{"id":"ci-2284030","label":"Nambingue","lat":10.05,"lon":-5.33778,"type":"city"},{"id":"ci-2284013","label":"Nanandy","lat":6.7425,"lon":-7.1698,"type":"city"},{"id":"ci-2283999","label":"Nanbonkaha","lat":9.74069,"lon":-5.15874,"type":"city"},{"id":"ci-2283993","label":"Nandibo Un","lat":5.28381,"lon":-4.92117,"type":"city"},{"id":"ci-12688092","label":"Nane","lat":7.68757,"lon":-7.18685,"type":"city"},{"id":"ci-2283930","label":"Napie","lat":9.28868,"lon":-5.58324,"type":"city"},{"id":"ci-2283916","label":"Nassian","lat":8.45275,"lon":-3.47152,"type":"city"},{"id":"ci-2283802","label":"Ndjemin","lat":5.27031,"lon":-4.23875,"type":"city"},{"id":"ci-2283823","label":"Ndouci","lat":5.86383,"lon":-4.7609,"type":"city"},{"id":"ci-12687501","label":"Negbatchi","lat":4.89972,"lon":-7.46838,"type":"city"},{"id":"ci-2283783","label":"Neguepie","lat":10.34762,"lon":-6.51708,"type":"city"},{"id":"ci-2284061","label":"Nekede","lat":6.46392,"lon":-5.99848,"type":"city"},{"id":"ci-12687392","label":"Nero","lat":4.50817,"lon":-7.5212,"type":"city"},{"id":"ci-2283664","label":"Nguessankro","lat":6.63468,"lon":-4.30349,"type":"city"},{"id":"ci-2283657","label":"Nguinou","lat":6.75052,"lon":-4.16133,"type":"city"},{"id":"ci-2283646","label":"Niable","lat":6.66129,"lon":-3.26984,"type":"city"},{"id":"ci-2283616","label":"Niakaramandougou","lat":8.65759,"lon":-5.29109,"type":"city"},{"id":"ci-2283611","label":"Niakoblonyoa","lat":5.71802,"lon":-5.96702,"type":"city"},{"id":"ci-2283504","label":"Niapidou","lat":5.34849,"lon":-6.05601,"type":"city"},{"id":"ci-2283475","label":"Nidrou","lat":6.90202,"lon":-7.18141,"type":"city"},{"id":"ci-2283456","label":"Nielle","lat":10.19814,"lon":-5.62337,"type":"city"},{"id":"ci-12687493","label":"Niorouhio","lat":5.76837,"lon":-6.12006,"type":"city"},{"id":"ci-7848497","label":"Nizahon II","lat":6.37222,"lon":-7.39891,"type":"city"},{"id":"ci-2283307","label":"Noe","lat":5.29388,"lon":-2.78478,"type":"city"},{"id":"ci-12687491","label":"Nonouan","lat":5.023,"lon":-6.37198,"type":"city"},{"id":"ci-2283232","label":"Nougoua","lat":5.34177,"lon":-2.77659,"type":"city"},{"id":"ci-2283222","label":"Noumousseria I","lat":6.70982,"lon":-6.66308,"type":"city"},{"id":"ci-12687962","label":"Nouvel-Ousrou","lat":5.41101,"lon":-4.51335,"type":"city"},{"id":"ci-7850551","label":"Nzianouan","lat":6.01161,"lon":-4.82133,"type":"city"},{"id":"ci-2597029","label":"Nzodji","lat":5.59375,"lon":-3.85083,"type":"city"},{"id":"ci-2283019","label":"Odia","lat":9.37361,"lon":-6.16889,"type":"city"},{"id":"ci-2283016","label":"Odienne","lat":9.50511,"lon":-7.56433,"type":"city"},{"id":"ci-2283009","label":"Offa","lat":5.92241,"lon":-4.34689,"type":"city"},{"id":"ci-2283006","label":"Offumpo","lat":5.95186,"lon":-4.45667,"type":"city"},{"id":"ci-12687203","label":"Ogoudou","lat":5.89674,"lon":-5.15792,"type":"city"},{"id":"ci-2282985","label":"Okromodou","lat":5.35123,"lon":-5.67593,"type":"city"},{"id":"ci-2282983","label":"Okrouyo","lat":5.76443,"lon":-6.40785,"type":"city"},{"id":"ci-2282975","label":"Olodio","lat":4.71589,"lon":-7.46696,"type":"city"},{"id":"ci-12689420","label":"Ondefidouo","lat":9.04384,"lon":-3.08297,"type":"city"},{"id":"ci-8051543","label":"Ono Salci","lat":5.38138,"lon":-3.5655,"type":"city"},{"id":"ci-2282955","label":"Oress-Krobou","lat":5.7324,"lon":-4.3947,"type":"city"},{"id":"ci-12687516","label":"Ottawa","lat":5.71842,"lon":-6.27466,"type":"city"},{"id":"ci-2279904","label":"Ouamelhoro","lat":10.33226,"lon":-5.62113,"type":"city"},{"id":"ci-2279967","label":"Ouanderama-Dioulasso","lat":8.65,"lon":-4.4,"type":"city"},{"id":"ci-2282907","label":"Ouangolodougou","lat":9.96837,"lon":-5.14882,"type":"city"},{"id":"ci-2279959","label":"Ouaninou","lat":8.2379,"lon":-7.86638,"type":"city"},{"id":"ci-7848492","label":"Ouattaradougou","lat":6.59172,"lon":-7.19591,"type":"city"},{"id":"ci-2279910","label":"Ouelle","lat":10.35602,"lon":-6.80896,"type":"city"},{"id":"ci-2282866","label":"Ouelle","lat":7.29611,"lon":-4.01364,"type":"city"},{"id":"ci-2282827","label":"Oume","lat":6.38309,"lon":-5.41759,"type":"city"},{"id":"ci-12688405","label":"Ouolo","lat":9.54831,"lon":-5.4246,"type":"city"},{"id":"ci-2282800","label":"Oupoyo","lat":5.56054,"lon":-6.58997,"type":"city"},{"id":"ci-2282854","label":"Ouragahio","lat":6.31058,"lon":-5.93473,"type":"city"},{"id":"ci-2282782","label":"Oureyo","lat":6.01972,"lon":-6.59778,"type":"city"},{"id":"ci-2282759","label":"Ourouta","lat":7.14219,"lon":-6.3143,"type":"city"},{"id":"ci-2282745","label":"Ouyabli","lat":7.32723,"lon":-7.20838,"type":"city"},{"id":"ci-12688093","label":"Pagnebly","lat":7.24845,"lon":-7.13249,"type":"city"},{"id":"ci-2282706","label":"Pakouabo","lat":7.15724,"lon":-5.7925,"type":"city"},{"id":"ci-12687914","label":"Palmindustrie Tamabo","lat":5.44147,"lon":-4.79541,"type":"city"},{"id":"ci-2282650","label":"Para","lat":5.51956,"lon":-7.32755,"type":"city"},{"id":"ci-2282609","label":"Pauli-Brousse","lat":4.96289,"lon":-6.18983,"type":"city"},{"id":"ci-2282566","label":"Pelezi","lat":7.28174,"lon":-6.81449,"type":"city"},{"id":"ci-2282518","label":"Petit Badien","lat":5.2567,"lon":-4.63988,"type":"city"},{"id":"ci-2282506","label":"Petit Grabo","lat":5.26902,"lon":-7.31421,"type":"city"},{"id":"ci-2282521","label":"Petitgoa I","lat":6.12024,"lon":-6.71253,"type":"city"},{"id":"ci-2282494","label":"Petyonara","lat":8.43064,"lon":-5.11429,"type":"city"},{"id":"ci-2282253","label":"Piebly Un","lat":7.25125,"lon":-7.08299,"type":"city"},{"id":"ci-2570410","label":"Pinhou","lat":6.92125,"lon":-7.75791,"type":"city"},{"id":"ci-12687726","label":"Pissekou","lat":6.28651,"lon":-5.82015,"type":"city"},{"id":"ci-2282414","label":"Pogo","lat":10.43669,"lon":-5.63062,"type":"city"},{"id":"ci-12688097","label":"Pona-Vahi","lat":6.94692,"lon":-7.16088,"type":"city"},{"id":"ci-2282372","label":"Ponan","lat":5.90336,"lon":-7.47722,"type":"city"},{"id":"ci-2282310","label":"Poumbly","lat":7.359,"lon":-7.20527,"type":"city"},{"id":"ci-2282276","label":"Prikro","lat":7.64705,"lon":-3.99626,"type":"city"},{"id":"ci-2282250","label":"Raviart","lat":7.40422,"lon":-4.88668,"type":"city"},{"id":"ci-2282240","label":"Rubino","lat":6.07,"lon":-4.31056,"type":"city"},{"id":"ci-12687510","label":"Sagboya","lat":5.96571,"lon":-6.91331,"type":"city"},{"id":"ci-2282203","label":"Sago","lat":5.267,"lon":-5.91611,"type":"city"},{"id":"ci-2282189","label":"Sahoua","lat":5.06191,"lon":-6.25997,"type":"city"},{"id":"ci-2596901","label":"Sahuye","lat":5.73253,"lon":-4.52683,"type":"city"},{"id":"ci-2281979","label":"Saioua","lat":6.48535,"lon":-6.278,"type":"city"},{"id":"ci-2282179","label":"Sakaouo","lat":6.46381,"lon":-5.69083,"type":"city"},{"id":"ci-2282178","label":"Sakassou","lat":7.45462,"lon":-5.29263,"type":"city"},{"id":"ci-2282127","label":"Samapleu","lat":7.76161,"lon":-7.93784,"type":"city"},{"id":"ci-2282124","label":"Samatiguila","lat":9.81952,"lon":-7.56085,"type":"city"},{"id":"ci-8031882","label":"Samo","lat":5.284,"lon":-3.51785,"type":"city"},{"id":"ci-2282099","label":"San","lat":10.3905,"lon":-6.43582,"type":"city"},{"id":"ci-2282006","label":"San-Pedro","lat":4.74851,"lon":-6.6363,"type":"city"},{"id":"ci-12687723","label":"Sane-Gaze","lat":6.4586,"lon":-5.80163,"type":"city"},{"id":"ci-2282054","label":"Sanegourifla","lat":6.65521,"lon":-5.80021,"type":"city"},{"id":"ci-2282033","label":"Sangouine","lat":7.27472,"lon":-7.77944,"type":"city"},{"id":"ci-2596993","label":"Sanhoukro","lat":5.78499,"lon":-3.12968,"type":"city"},{"id":"ci-2282012","label":"Sankadiokro","lat":6.86165,"lon":-3.48564,"type":"city"},{"id":"ci-2281999","label":"Santa","lat":7.66389,"lon":-7.84778,"type":"city"},{"id":"ci-12687406","label":"Saph","lat":5.13289,"lon":-6.72693,"type":"city"},{"id":"ci-2281973","label":"Sapli","lat":8.14477,"lon":-2.98627,"type":"city"},{"id":"ci-12687519","label":"Sarakagui","lat":5.81904,"lon":-6.80444,"type":"city"},{"id":"ci-2281957","label":"Sarhala","lat":8.41789,"lon":-6.17147,"type":"city"},{"id":"ci-2281951","label":"Sassandra","lat":4.95384,"lon":-6.08531,"type":"city"},{"id":"ci-2281938","label":"Satikran","lat":6.82699,"lon":-3.74318,"type":"city"},{"id":"ci-12687591","label":"Saykro","lat":5.2736,"lon":-2.78369,"type":"city"},{"id":"ci-12687743","label":"Scierie","lat":6.32778,"lon":-5.52229,"type":"city"},{"id":"ci-2281904","label":"Sechi","lat":6.25143,"lon":-4.42194,"type":"city"},{"id":"ci-2596934","label":"Seguela","lat":7.96111,"lon":-6.67306,"type":"city"},{"id":"ci-2281862","label":"Seguie","lat":6.05573,"lon":-4.09421,"type":"city"},{"id":"ci-12688215","label":"Seitifla","lat":7.43926,"lon":-6.71813,"type":"city"},{"id":"ci-2281807","label":"Selieguhe","lat":6.62265,"lon":-6.86803,"type":"city"},{"id":"ci-12689277","label":"Seman","lat":6.89358,"lon":-5.29709,"type":"city"},{"id":"ci-2281794","label":"Semien","lat":7.61419,"lon":-7.12955,"type":"city"},{"id":"ci-2281763","label":"Sepenedyokaha","lat":9.84286,"lon":-5.15788,"type":"city"},{"id":"ci-12687483","label":"Serigbangan","lat":5.52778,"lon":-6.71258,"type":"city"},{"id":"ci-2281734","label":"Serihio","lat":5.90051,"lon":-6.11755,"type":"city"},{"id":"ci-12687593","label":"Siakakro","lat":6.91244,"lon":-3.24469,"type":"city"},{"id":"ci-2281653","label":"Sietinfla","lat":6.82764,"lon":-5.73008,"type":"city"},{"id":"ci-2281641","label":"Sikensi","lat":5.66829,"lon":-4.57371,"type":"city"},{"id":"ci-2281609","label":"Sinematiali","lat":9.5841,"lon":-5.38476,"type":"city"},{"id":"ci-2281606","label":"Sinfra","lat":6.62103,"lon":-5.91144,"type":"city"},{"id":"ci-2281571","label":"Sipilou","lat":7.8645,"lon":-8.10143,"type":"city"},{"id":"ci-2281562","label":"Sirasso","lat":9.27425,"lon":-6.09897,"type":"city"},{"id":"ci-12688409","label":"Sodesucre Village","lat":9.50652,"lon":-5.27788,"type":"city"},{"id":"ci-2281475","label":"Soko","lat":7.99173,"lon":-2.74435,"type":"city"},{"id":"ci-2281374","label":"Songan","lat":6.10929,"lon":-3.20843,"type":"city"},{"id":"ci-8536562","label":"Songon","lat":5.3196,"lon":-4.25415,"type":"city"},{"id":"ci-2281349","label":"Sononzo","lat":8.62639,"lon":-6.13,"type":"city"},{"id":"ci-2596935","label":"Soubre","lat":5.78377,"lon":-6.59388,"type":"city"},{"id":"ci-2281236","label":"Soukourougban","lat":7.84873,"lon":-5.93504,"type":"city"},{"id":"ci-12688535","label":"Sran-Belakro","lat":7.35138,"lon":-5.59067,"type":"city"},{"id":"ci-12688513","label":"Sucaf Ci Village","lat":9.29837,"lon":-5.29325,"type":"city"},{"id":"ci-2281166","label":"Suefla","lat":6.8521,"lon":-5.71466,"type":"city"},{"id":"ci-2281137","label":"Tabagne","lat":7.99104,"lon":-3.06871,"type":"city"},{"id":"ci-2281142","label":"Tabo","lat":6.2361,"lon":-5.13745,"type":"city"},{"id":"ci-2281120","label":"Tabou","lat":4.42295,"lon":-7.3528,"type":"city"},{"id":"ci-12688104","label":"Tacourably","lat":7.2551,"lon":-7.17898,"type":"city"},{"id":"ci-2281103","label":"Tafire","lat":9.06883,"lon":-5.16404,"type":"city"},{"id":"ci-2281097","label":"Tagadi","lat":8.63154,"lon":-2.62515,"type":"city"},{"id":"ci-7848062","label":"Tahably Glode","lat":6.74399,"lon":-7.24159,"type":"city"},{"id":"ci-2281075","label":"Tai","lat":5.87366,"lon":-7.45519,"type":"city"},{"id":"ci-12687512","label":"Takoreagui","lat":5.75692,"lon":-6.79092,"type":"city"},{"id":"ci-2280988","label":"Tallere","lat":9.20084,"lon":-6.14807,"type":"city"},{"id":"ci-2280997","label":"Tanbi","lat":8.23343,"lon":-2.57362,"type":"city"},{"id":"ci-2280995","label":"Tanda","lat":7.80335,"lon":-3.16832,"type":"city"},{"id":"ci-2280973","label":"Tankessi","lat":7.34908,"lon":-3.20347,"type":"city"},{"id":"ci-2280951","label":"Taobly","lat":7.41388,"lon":-7.18576,"type":"city"},{"id":"ci-2281077","label":"Taoudi","lat":8.13701,"lon":-3.43473,"type":"city"},{"id":"ci-2280906","label":"Tawara","lat":9.65719,"lon":-5.65254,"type":"city"},{"id":"ci-2280901","label":"Tayo","lat":5.66667,"lon":-6.35,"type":"city"},{"id":"ci-12687520","label":"Tchetaly","lat":6.17923,"lon":-7.07116,"type":"city"},{"id":"ci-2280863","label":"Teiri","lat":6.3981,"lon":-5.9846,"type":"city"},{"id":"ci-2280589","label":"Tengrela","lat":10.48115,"lon":-6.40694,"type":"city"},{"id":"ci-2596814","label":"Tezie","lat":6.3875,"lon":-6.3025,"type":"city"},{"id":"ci-2597172","label":"Tiapoum","lat":5.13622,"lon":-3.02308,"type":"city"},{"id":"ci-2280761","label":"Tiassale","lat":5.89839,"lon":-4.82293,"type":"city"},{"id":"ci-12688100","label":"Tie-Ine","lat":6.90141,"lon":-7.59785,"type":"city"},{"id":"ci-2280794","label":"Tiebiessou","lat":5.3525,"lon":-4.89056,"type":"city"},{"id":"ci-2280743","label":"Tiebissou","lat":7.15772,"lon":-5.2248,"type":"city"},{"id":"ci-2280733","label":"Tiegba","lat":6.2328,"lon":-5.65306,"type":"city"},{"id":"ci-12687857","label":"Tiekou-Carrefour","lat":6.35872,"lon":-4.28598,"type":"city"},{"id":"ci-2280143","label":"Tieme","lat":9.54452,"lon":-7.31778,"type":"city"},{"id":"ci-2280708","label":"Tiemelekro","lat":6.49214,"lon":-4.61985,"type":"city"},{"id":"ci-2280688","label":"Tieningboue","lat":8.17838,"lon":-5.72147,"type":"city"},{"id":"ci-2280665","label":"Tieupleu","lat":7.04069,"lon":-8.15318,"type":"city"},{"id":"ci-2280582","label":"Tinhou","lat":6.43832,"lon":-8.1561,"type":"city"},{"id":"ci-2280521","label":"Toazeo","lat":6.79943,"lon":-7.32988,"type":"city"},{"id":"ci-7848491","label":"Tobly Bangolo","lat":6.74276,"lon":-7.18864,"type":"city"},{"id":"ci-2280322","label":"Tombokro","lat":6.92669,"lon":-5.49965,"type":"city"},{"id":"ci-2280311","label":"Tomono","lat":8.32598,"lon":-6.10395,"type":"city"},{"id":"ci-2280449","label":"Tongouolan","lat":7.16499,"lon":-3.30552,"type":"city"},{"id":"ci-2280448","label":"Tonho","lat":9.90236,"lon":-5.72848,"type":"city"},{"id":"ci-2280435","label":"Tonla","lat":6.35395,"lon":-5.644,"type":"city"},{"id":"ci-2280405","label":"Tortiya","lat":8.76821,"lon":-5.6865,"type":"city"},{"id":"ci-12687494","label":"Touagui","lat":5.43102,"lon":-6.55946,"type":"city"},{"id":"ci-2280376","label":"Touba","lat":8.28333,"lon":-7.68333,"type":"city"},{"id":"ci-12687204","label":"Touih","lat":5.25604,"lon":-6.53249,"type":"city"},{"id":"ci-2280335","label":"Toulepleu","lat":6.57974,"lon":-8.41091,"type":"city"},{"id":"ci-2280333","label":"Toulepleu Guere","lat":6.57395,"lon":-8.42592,"type":"city"},{"id":"ci-8356569","label":"Toumanguie","lat":5.32703,"lon":-3.32374,"type":"city"},{"id":"ci-2280316","label":"Toumodi","lat":6.55799,"lon":-5.01769,"type":"city"},{"id":"ci-2283184","label":"Toumoukro","lat":10.3855,"lon":-5.75062,"type":"city"},{"id":"ci-2280289","label":"Toupah","lat":5.31891,"lon":-4.56552,"type":"city"},{"id":"ci-2280265","label":"Tourvre","lat":9.9033,"lon":-6.50237,"type":"city"},{"id":"ci-2280258","label":"Trahe","lat":4.71577,"lon":-7.17566,"type":"city"},{"id":"ci-2280254","label":"Transua","lat":7.55004,"lon":-3.01431,"type":"city"},{"id":"ci-12687504","label":"Trawaininkro","lat":6.06286,"lon":-6.88054,"type":"city"},{"id":"ci-2280217","label":"Troya","lat":6.25218,"lon":-7.49524,"type":"city"},{"id":"ci-2280083","label":"Tyonle","lat":7.0564,"lon":-7.66649,"type":"city"},{"id":"ci-2280069","label":"Vaafla","lat":7.41806,"lon":-6.64861,"type":"city"},{"id":"ci-2280059","label":"Valoua","lat":5.93088,"lon":-6.10075,"type":"city"},{"id":"ci-2280053","label":"Vaou","lat":7.44358,"lon":-6.99199,"type":"city"},{"id":"ci-2280045","label":"Vavoua","lat":7.38194,"lon":-6.47778,"type":"city"},{"id":"ci-12688212","label":"Vrouo","lat":7.69644,"lon":-6.55352,"type":"city"},{"id":"ci-12687738","label":"Wagana","lat":5.58147,"lon":-5.36776,"type":"city"},{"id":"ci-12687526","label":"Walebo","lat":5.58377,"lon":-6.83339,"type":"city"},{"id":"ci-12687728","label":"Wanewa","lat":5.82369,"lon":-6.11183,"type":"city"},{"id":"ci-2279951","label":"Waranyene","lat":9.41999,"lon":-5.66747,"type":"city"},{"id":"ci-2279937","label":"Wataradougou","lat":8.67176,"lon":-5.81538,"type":"city"},{"id":"ci-12687208","label":"Watte","lat":4.9353,"lon":-6.77828,"type":"city"},{"id":"ci-2279867","label":"Wonge","lat":8.32675,"lon":-6.57449,"type":"city"},{"id":"ci-12687503","label":"Wonsealy","lat":6.17149,"lon":-7.03729,"type":"city"},{"id":"ci-2279861","label":"Wora","lat":10.08407,"lon":-6.32683,"type":"city"},{"id":"ci-2279841","label":"Yabayo","lat":5.93876,"lon":-6.59826,"type":"city"},{"id":"ci-2279822","label":"Yacoeoua","lat":5.97747,"lon":-6.48762,"type":"city"},{"id":"ci-2279795","label":"Yakasse-Attobrou","lat":6.18174,"lon":-3.65111,"type":"city"},{"id":"ci-2279794","label":"Yakasse-Feyasse","lat":6.9557,"lon":-3.4126,"type":"city"},{"id":"ci-2279791","label":"Yakasseme","lat":5.81052,"lon":-3.9511,"type":"city"},{"id":"ci-2279775","label":"Yala","lat":7.37778,"lon":-6.82639,"type":"city"},{"id":"ci-2279755","label":"Yamoussoukro","lat":6.82055,"lon":-5.27674,"type":"city"},{"id":"ci-2279731","label":"Yaobou","lat":5.7115,"lon":-4.41274,"type":"city"},{"id":"ci-2279710","label":"Yaou","lat":5.79773,"lon":-3.13823,"type":"city"},{"id":"ci-2279709","label":"Yaoude","lat":6.5588,"lon":-7.44612,"type":"city"},{"id":"ci-2279695","label":"Yapleu","lat":7.09056,"lon":-7.71028,"type":"city"},{"id":"ci-2279594","label":"Yokoboue","lat":5.26933,"lon":-5.10658,"type":"city"},{"id":"ci-2279579","label":"Yopohua","lat":6.39596,"lon":-5.82952,"type":"city"},{"id":"ci-2279626","label":"Yorobodi","lat":8.11913,"lon":-3.68191,"type":"city"},{"id":"ci-2289927","label":"Yorodougou","lat":7.78356,"lon":-7.88024,"type":"city"},{"id":"ci-2287795","label":"Yrozon","lat":6.84043,"lon":-7.21862,"type":"city"},{"id":"ci-2279546","label":"Zaadi","lat":6.33317,"lon":-5.73659,"type":"city"},{"id":"ci-2279539","label":"Zabre","lat":5.31012,"lon":-6.27536,"type":"city"},{"id":"ci-2279533","label":"Zadioa","lat":6.43153,"lon":-6.39783,"type":"city"},{"id":"ci-2279526","label":"Zagne","lat":6.21016,"lon":-7.48284,"type":"city"},{"id":"ci-2279525","label":"Zagoreta","lat":6.6756,"lon":-6.15347,"type":"city"},{"id":"ci-12688218","label":"Zaguieta","lat":6.78815,"lon":-6.06288,"type":"city"},{"id":"ci-2279315","label":"Zaguinasso","lat":10.04886,"lon":-6.35999,"type":"city"},{"id":"ci-2279422","label":"Zahia","lat":6.91672,"lon":-6.57811,"type":"city"},{"id":"ci-2279510","label":"Zahirogbeu","lat":6.76219,"lon":-6.88421,"type":"city"},{"id":"ci-2279513","label":"Zaibo","lat":6.9893,"lon":-6.66673,"type":"city"},{"id":"ci-2279509","label":"Zakarekro","lat":5.10965,"lon":-5.60241,"type":"city"},{"id":"ci-2279506","label":"Zakueoua","lat":6.24931,"lon":-6.50741,"type":"city"},{"id":"ci-2279495","label":"Zaliohouan","lat":6.79519,"lon":-6.2355,"type":"city"},{"id":"ci-2279491","label":"Zambakro","lat":6.73322,"lon":-5.41117,"type":"city"},{"id":"ci-2279474","label":"Zanfouenou","lat":6.70516,"lon":-4.10607,"type":"city"},{"id":"ci-2279459","label":"Zangue","lat":6.43055,"lon":-5.35551,"type":"city"},{"id":"ci-12688098","label":"Zaodrou","lat":7.15835,"lon":-7.1848,"type":"city"},{"id":"ci-2279427","label":"Zaranou","lat":6.4265,"lon":-3.36171,"type":"city"},{"id":"ci-2279424","label":"Zata","lat":6.87914,"lon":-5.40398,"type":"city"},{"id":"ci-7849068","label":"Zeaglo","lat":6.56297,"lon":-7.8172,"type":"city"},{"id":"ci-2279418","label":"Zeale","lat":6.98846,"lon":-8.16097,"type":"city"},{"id":"ci-2279407","label":"Zega","lat":6.50061,"lon":-6.42126,"type":"city"},{"id":"ci-2279403","label":"Zegban","lat":5.16369,"lon":-5.58882,"type":"city"},{"id":"ci-2279393","label":"Zekrezinssou","lat":7.07158,"lon":-4.28036,"type":"city"},{"id":"ci-2279375","label":"Zepreguhe","lat":6.90617,"lon":-6.3704,"type":"city"},{"id":"ci-2279370","label":"Zeregbo","lat":7.07081,"lon":-7.91012,"type":"city"},{"id":"ci-2279364","label":"Zeriberi","lat":5.38418,"lon":-5.44369,"type":"city"},{"id":"ci-12687496","label":"Zieagui","lat":5.56399,"lon":-6.90694,"type":"city"},{"id":"ci-2279327","label":"Zikisso","lat":6.06396,"lon":-5.70245,"type":"city"},{"id":"ci-12687735","label":"Ziplignan","lat":6.44853,"lon":-5.84019,"type":"city"},{"id":"ci-12687480","label":"Zogbodoua","lat":5.73339,"lon":-6.31338,"type":"city"},{"id":"ci-12687734","label":"Zohoa","lat":6.32387,"lon":-6.15829,"type":"city"},{"id":"ci-12688204","label":"Zokoguhe-Dideguhe","lat":7.06759,"lon":-6.45901,"type":"city"},{"id":"ci-2279247","label":"Zonle I","lat":7.36466,"lon":-7.7695,"type":"city"},{"id":"ci-2279242","label":"Zoroyo","lat":5.89548,"lon":-6.65079,"type":"city"},{"id":"ci-2279240","label":"Zou","lat":6.97647,"lon":-7.79834,"type":"city"},{"id":"ci-2279236","label":"Zouan","lat":6.54502,"lon":-7.59902,"type":"city"},{"id":"ci-2279235","label":"Zouan-Hounien","lat":6.91937,"lon":-8.2065,"type":"city"},{"id":"ci-12687488","label":"Zougouzoa","lat":6.2121,"lon":-6.59185,"type":"city"},{"id":"ci-2279222","label":"Zouhounou","lat":6.61217,"lon":-3.29229,"type":"city"},{"id":"ci-2279215","label":"Zoukouboue","lat":7.1112,"lon":-6.78102,"type":"city"},{"id":"ci-2279214","label":"Zoukougbeu","lat":6.76229,"lon":-6.8638,"type":"city"},{"id":"ci-2279194","label":"Zraluo","lat":7.57237,"lon":-5.88859,"type":"city"},{"id":"ci-2279172","label":"Zuenoula","lat":7.43027,"lon":-6.05054,"type":"city"}]