[{"id":"co-3690592","label":"Abejorral","lat":5.78928,"lon":-75.42725,"type":"city"},{"id":"co-3690584","label":"Abrego","lat":8.08202,"lon":-73.22135,"type":"city"},{"id":"co-3690577","label":"Acacias","lat":3.98695,"lon":-73.75797,"type":"city"},{"id":"co-3690549","label":"Achi","lat":8.5695,"lon":-74.55715,"type":"city"},{"id":"co-3690429","label":"Agua de Dios","lat":4.37648,"lon":-74.66995,"type":"city"},{"id":"co-3690465","label":"Aguachica","lat":8.30844,"lon":-73.6166,"type":"city"},{"id":"co-3690431","label":"Aguadas","lat":5.61161,"lon":-75.45624,"type":"city"},{"id":"co-3690316","label":"Aguazul","lat":5.17282,"lon":-72.54706,"type":"city"},{"id":"co-3792383","label":"Agustin Codazzi","lat":10.03672,"lon":-73.23558,"type":"city"},{"id":"co-3690287","label":"Aipe","lat":3.22222,"lon":-75.23667,"type":"city"},{"id":"co-3690250","label":"Albania","lat":11.16099,"lon":-72.59238,"type":"city"},{"id":"co-3690237","label":"Alcala","lat":4.67472,"lon":-75.7825,"type":"city"},{"id":"co-3690226","label":"Aldana","lat":0.88283,"lon":-77.70103,"type":"city"},{"id":"co-3690172","label":"Algarrobo","lat":10.18694,"lon":-74.57528,"type":"city"},{"id":"co-3690160","label":"Algeciras","lat":2.52385,"lon":-75.31733,"type":"city"},{"id":"co-3792378","label":"Altos del Rosario","lat":8.79162,"lon":-74.16556,"type":"city"},{"id":"co-3690030","label":"Alvarado","lat":4.56826,"lon":-74.9523,"type":"city"},{"id":"co-3690019","label":"Amaga","lat":6.04001,"lon":-75.70315,"type":"city"},{"id":"co-3690010","label":"Amalfi","lat":6.91016,"lon":-75.07764,"type":"city"},{"id":"co-3689979","label":"Ambalema","lat":4.78405,"lon":-74.76268,"type":"city"},{"id":"co-3689952","label":"Anaime","lat":4.39639,"lon":-75.445,"type":"city"},{"id":"co-3689915","label":"Ancuya","lat":1.2633,"lon":-77.51376,"type":"city"},{"id":"co-3689905","label":"Andalucia","lat":4.17061,"lon":-76.16641,"type":"city"},{"id":"co-3689899","label":"Andes","lat":5.6561,"lon":-75.87877,"type":"city"},{"id":"co-3689841","label":"Anolaima","lat":4.76333,"lon":-74.46472,"type":"city"},{"id":"co-3689833","label":"Anserma","lat":5.33278,"lon":-75.79111,"type":"city"},{"id":"co-3689831","label":"Ansermanuevo","lat":4.79722,"lon":-75.995,"type":"city"},{"id":"co-3689798","label":"Apartado","lat":7.88299,"lon":-76.62587,"type":"city"},{"id":"co-3689793","label":"Apia","lat":5.10658,"lon":-75.94244,"type":"city"},{"id":"co-3689771","label":"Aquitania","lat":5.51858,"lon":-72.88387,"type":"city"},{"id":"co-3689759","label":"Aracataca","lat":10.59181,"lon":-74.18983,"type":"city"},{"id":"co-3689740","label":"Aranzazu","lat":5.27123,"lon":-75.49044,"type":"city"},{"id":"co-3689718","label":"Arauca","lat":7.08471,"lon":-70.75908,"type":"city"},{"id":"co-3689714","label":"Arauquita","lat":7.02917,"lon":-71.42806,"type":"city"},{"id":"co-3689709","label":"Arbelaez","lat":4.27254,"lon":-74.41513,"type":"city"},{"id":"co-3689693","label":"Arboletes","lat":8.85051,"lon":-76.42694,"type":"city"},{"id":"co-3689653","label":"Arenal","lat":8.4589,"lon":-73.94162,"type":"city"},{"id":"co-3689589","label":"Ariguani","lat":10.25,"lon":-74,"type":"city"},{"id":"co-3689570","label":"Arjona","lat":10.25444,"lon":-75.34389,"type":"city"},{"id":"co-3689560","label":"Armenia","lat":4.53656,"lon":-75.67263,"type":"city"},{"id":"co-9179918","label":"Armero-Guyabal","lat":4.96701,"lon":-74.90294,"type":"city"},{"id":"co-3689458","label":"Astrea","lat":9.49828,"lon":-73.97591,"type":"city"},{"id":"co-3689450","label":"Ataco","lat":3.59147,"lon":-75.38178,"type":"city"},{"id":"co-3689381","label":"Ayapel","lat":8.31372,"lon":-75.13982,"type":"city"},{"id":"co-3689325","label":"Bahia Solano","lat":6.22622,"lon":-77.40439,"type":"city"},{"id":"co-3689292","label":"Balboa","lat":2.04183,"lon":-77.21646,"type":"city"},{"id":"co-3689235","label":"Baranoa","lat":10.79408,"lon":-74.9164,"type":"city"},{"id":"co-3689228","label":"Barbacoas","lat":1.67154,"lon":-78.13978,"type":"city"},{"id":"co-3689205","label":"Barbosa","lat":6.43809,"lon":-75.33136,"type":"city"},{"id":"co-3689206","label":"Barbosa","lat":5.93168,"lon":-73.61507,"type":"city"},{"id":"co-3689169","label":"Barrancabermeja","lat":7.06528,"lon":-73.85472,"type":"city"},{"id":"co-3689162","label":"Barrancas","lat":10.95672,"lon":-72.79456,"type":"city"},{"id":"co-3689157","label":"Barranco de Loba","lat":8.94597,"lon":-74.10647,"type":"city"},{"id":"co-3689147","label":"Barranquilla","lat":10.96854,"lon":-74.78132,"type":"city"},{"id":"co-3689026","label":"Becerril","lat":9.70413,"lon":-73.2793,"type":"city"},{"id":"co-3673398","label":"Belalcazar","lat":2.64644,"lon":-75.97269,"type":"city"},{"id":"co-3689012","label":"Belalcazar","lat":4.99528,"lon":-75.81278,"type":"city"},{"id":"co-3689003","label":"Belen","lat":5.98892,"lon":-72.91254,"type":"city"},{"id":"co-3688989","label":"Belen de Umbria","lat":5.20087,"lon":-75.86865,"type":"city"},{"id":"co-3688928","label":"Bello","lat":6.33732,"lon":-75.55795,"type":"city"},{"id":"co-3688840","label":"Betulia","lat":6.11284,"lon":-75.98378,"type":"city"},{"id":"co-3688689","label":"Bogota","lat":4.60971,"lon":-74.08175,"type":"city"},{"id":"co-3688656","label":"Bolivar","lat":5.9893,"lon":-73.77058,"type":"city"},{"id":"co-3688566","label":"Bosconia","lat":9.97106,"lon":-73.88817,"type":"city"},{"id":"co-3781636","label":"Bosconia","lat":4.85583,"lon":-73.98167,"type":"city"},{"id":"co-3688465","label":"Bucaramanga","lat":7.125,"lon":-73.11895,"type":"city"},{"id":"co-3688451","label":"Buenaventura","lat":3.8801,"lon":-77.03116,"type":"city"},{"id":"co-3688452","label":"Buenaventura","lat":3.58333,"lon":-77,"type":"city"},{"id":"co-3688397","label":"Buenavista","lat":9.04963,"lon":-76.0028,"type":"city"},{"id":"co-3688266","label":"Buesaco","lat":1.38364,"lon":-77.15622,"type":"city"},{"id":"co-3688254","label":"Bugalagrande","lat":4.21207,"lon":-76.15564,"type":"city"},{"id":"co-3688071","label":"Caicedonia","lat":4.3324,"lon":-75.82665,"type":"city"},{"id":"co-3688021","label":"Cajamarca","lat":4.44234,"lon":-75.42874,"type":"city"},{"id":"co-3688006","label":"Cajica","lat":4.91857,"lon":-74.02799,"type":"city"},{"id":"co-3687972","label":"Calamar","lat":10.25271,"lon":-74.91574,"type":"city"},{"id":"co-3687964","label":"Calarca","lat":4.52949,"lon":-75.64091,"type":"city"},{"id":"co-3687952","label":"Caldas","lat":6.09106,"lon":-75.63569,"type":"city"},{"id":"co-3687925","label":"Cali","lat":3.43054,"lon":-76.5199,"type":"city"},{"id":"co-3687880","label":"Caloto","lat":3.03586,"lon":-76.40788,"type":"city"},{"id":"co-3687758","label":"Campo de la Cruz","lat":10.37808,"lon":-74.88356,"type":"city"},{"id":"co-3687806","label":"Campoalegre","lat":2.68489,"lon":-75.32311,"type":"city"},{"id":"co-3779399","label":"Canalete","lat":8.67611,"lon":-76.20417,"type":"city"},{"id":"co-3687677","label":"Canasgordas","lat":6.74989,"lon":-76.02539,"type":"city"},{"id":"co-3687634","label":"Candelaria","lat":10.45912,"lon":-74.8797,"type":"city"},{"id":"co-3687644","label":"Candelaria","lat":3.40671,"lon":-76.34819,"type":"city"},{"id":"co-3687541","label":"Cantagallo","lat":7.37926,"lon":-73.9155,"type":"city"},{"id":"co-3687505","label":"Caparrapi","lat":5.34644,"lon":-74.49147,"type":"city"},{"id":"co-3687476","label":"Caqueza","lat":4.40569,"lon":-73.94683,"type":"city"},{"id":"co-3792375","label":"Carepa","lat":7.75849,"lon":-76.65255,"type":"city"},{"id":"co-3687324","label":"Carmen de Apicala","lat":4.14725,"lon":-74.72014,"type":"city"},{"id":"co-3687318","label":"Carmen de Viboral","lat":6.08236,"lon":-75.33509,"type":"city"},{"id":"co-3687238","label":"Cartagena","lat":10.39817,"lon":-75.49328,"type":"city"},{"id":"co-3792382","label":"Cartagena del Chaira","lat":1.33488,"lon":-74.84289,"type":"city"},{"id":"co-3687230","label":"Cartago","lat":4.74639,"lon":-75.91167,"type":"city"},{"id":"co-3687213","label":"Casabianca","lat":5.07959,"lon":-75.12059,"type":"city"},{"id":"co-3687025","label":"Caucasia","lat":7.98654,"lon":-75.19349,"type":"city"},{"id":"co-3686922","label":"Cerete","lat":8.88479,"lon":-75.79052,"type":"city"},{"id":"co-3686894","label":"Cerro de San Antonio","lat":10.32585,"lon":-74.86933,"type":"city"},{"id":"co-3686793","label":"Chaparral","lat":3.72315,"lon":-75.48316,"type":"city"},{"id":"co-3686675","label":"Chia","lat":4.85876,"lon":-74.05866,"type":"city"},{"id":"co-3686644","label":"Chicoral","lat":4.21536,"lon":-74.98189,"type":"city"},{"id":"co-3686636","label":"Chigorodo","lat":7.66638,"lon":-76.68106,"type":"city"},{"id":"co-3686605","label":"Chima","lat":9.14893,"lon":-75.62841,"type":"city"},{"id":"co-3686585","label":"Chimichagua","lat":9.25778,"lon":-73.81228,"type":"city"},{"id":"co-3686574","label":"Chinacota","lat":7.60731,"lon":-72.60108,"type":"city"},{"id":"co-3686561","label":"Chinchina","lat":4.9825,"lon":-75.60361,"type":"city"},{"id":"co-3686540","label":"Chinu","lat":9.10569,"lon":-75.39812,"type":"city"},{"id":"co-3686513","label":"Chiquinquira","lat":5.61637,"lon":-73.81748,"type":"city"},{"id":"co-3686479","label":"Chiriguana","lat":9.36238,"lon":-73.60313,"type":"city"},{"id":"co-3686445","label":"Chivolo","lat":10.02502,"lon":-74.62279,"type":"city"},{"id":"co-3686422","label":"Choconta","lat":5.14468,"lon":-73.68578,"type":"city"},{"id":"co-3686288","label":"Cicuco","lat":9.27756,"lon":-74.64312,"type":"city"},{"id":"co-3686279","label":"Cienaga","lat":11.00703,"lon":-74.24765,"type":"city"},{"id":"co-3686272","label":"Cienaga de Oro","lat":8.87443,"lon":-75.62028,"type":"city"},{"id":"co-3686255","label":"Cimitarra","lat":6.31419,"lon":-73.94968,"type":"city"},{"id":"co-3686233","label":"Circasia","lat":4.61889,"lon":-75.63583,"type":"city"},{"id":"co-3686227","label":"Cisneros","lat":6.53833,"lon":-75.08861,"type":"city"},{"id":"co-3792376","label":"Ciudad Bolivar","lat":5.85389,"lon":-76.02528,"type":"city"},{"id":"co-3686196","label":"Clemencia","lat":10.56645,"lon":-75.32499,"type":"city"},{"id":"co-3686158","label":"Cocorna","lat":6.0573,"lon":-75.18524,"type":"city"},{"id":"co-3686141","label":"Coello","lat":4.40306,"lon":-75.29417,"type":"city"},{"id":"co-3686120","label":"Colombia","lat":3.37606,"lon":-74.8015,"type":"city"},{"id":"co-3686011","label":"Concordia","lat":9.83545,"lon":-74.45548,"type":"city"},{"id":"co-3686013","label":"Concordia","lat":6.04639,"lon":-75.90705,"type":"city"},{"id":"co-3686002","label":"Condoto","lat":5.09351,"lon":-76.64973,"type":"city"},{"id":"co-3685949","label":"Copacabana","lat":6.34633,"lon":-75.50888,"type":"city"},{"id":"co-3685893","label":"Cordoba","lat":9.58612,"lon":-74.82705,"type":"city"},{"id":"co-3685871","label":"Corinto","lat":3.17301,"lon":-76.26275,"type":"city"},{"id":"co-3685823","label":"Corozal","lat":9.31847,"lon":-75.2933,"type":"city"},{"id":"co-3685733","label":"Cota","lat":4.80938,"lon":-74.098,"type":"city"},{"id":"co-3685724","label":"Cotorra","lat":9.03886,"lon":-75.78969,"type":"city"},{"id":"co-3685533","label":"Cucuta","lat":7.90745,"lon":-72.5049,"type":"city"},{"id":"co-3685442","label":"Cumaral","lat":4.2708,"lon":-73.48669,"type":"city"},{"id":"co-3685435","label":"Cumaribo","lat":4.44552,"lon":-69.79897,"type":"city"},{"id":"co-3685432","label":"Cumbal","lat":0.90875,"lon":-77.79145,"type":"city"},{"id":"co-3685428","label":"Cumbitara","lat":1.64786,"lon":-77.57819,"type":"city"},{"id":"co-3685418","label":"Cunday","lat":4.06004,"lon":-74.69212,"type":"city"},{"id":"co-3733861","label":"Curillo","lat":1.03327,"lon":-75.91907,"type":"city"},{"id":"co-3685345","label":"Curiti","lat":6.60519,"lon":-73.06809,"type":"city"},{"id":"co-3685335","label":"Curumani","lat":9.19992,"lon":-73.54274,"type":"city"},{"id":"co-3685295","label":"Dabeiba","lat":7.00017,"lon":-76.26915,"type":"city"},{"id":"co-3685292","label":"Dagua","lat":3.65685,"lon":-76.68859,"type":"city"},{"id":"co-3685273","label":"Darien","lat":3.93135,"lon":-76.48481,"type":"city"},{"id":"co-3685200","label":"Distraccion","lat":10.89784,"lon":-72.88666,"type":"city"},{"id":"co-3685126","label":"Donmatias","lat":6.48569,"lon":-75.39496,"type":"city"},{"id":"co-3685095","label":"Dosquebradas","lat":4.83916,"lon":-75.66727,"type":"city"},{"id":"co-3685084","label":"Duitama","lat":5.8245,"lon":-73.03408,"type":"city"},{"id":"co-3685058","label":"Ebejico","lat":6.32598,"lon":-75.76835,"type":"city"},{"id":"co-3685027","label":"El Aguila","lat":4.91345,"lon":-76.04004,"type":"city"},{"id":"co-3684945","label":"El Bagre","lat":7.60347,"lon":-74.80951,"type":"city"},{"id":"co-3684917","label":"El Banco","lat":9.00114,"lon":-73.97581,"type":"city"},{"id":"co-3684860","label":"El Bordo","lat":2.11696,"lon":-76.98214,"type":"city"},{"id":"co-3684683","label":"El Carmen","lat":8.51116,"lon":-73.44761,"type":"city"},{"id":"co-3684666","label":"El Carmen de Bolivar","lat":9.7174,"lon":-75.12023,"type":"city"},{"id":"co-3684689","label":"El Carmen de Chucuri","lat":6.69736,"lon":-73.51117,"type":"city"},{"id":"co-3684615","label":"El Cerrito","lat":3.68549,"lon":-76.31372,"type":"city"},{"id":"co-3684579","label":"El Charco","lat":2.48075,"lon":-78.10972,"type":"city"},{"id":"co-3684452","label":"El Copey","lat":10.15031,"lon":-73.9614,"type":"city"},{"id":"co-3684276","label":"El Doncello","lat":1.67817,"lon":-75.28466,"type":"city"},{"id":"co-3684266","label":"El Dovio","lat":4.5079,"lon":-76.23619,"type":"city"},{"id":"co-3683778","label":"El Molino","lat":10.65296,"lon":-72.92461,"type":"city"},{"id":"co-3683538","label":"El Paso","lat":9.65724,"lon":-73.74685,"type":"city"},{"id":"co-3683528","label":"El Paujil","lat":1.57006,"lon":-75.32863,"type":"city"},{"id":"co-3683497","label":"El Penon","lat":8.98885,"lon":-73.94898,"type":"city"},{"id":"co-3683463","label":"El Pinon","lat":10.40283,"lon":-74.82415,"type":"city"},{"id":"co-3792399","label":"El Playon","lat":7.47131,"lon":-73.2031,"type":"city"},{"id":"co-3683233","label":"El Reten","lat":10.61135,"lon":-74.26824,"type":"city"},{"id":"co-3792387","label":"El Retorno","lat":2.33022,"lon":-72.62765,"type":"city"},{"id":"co-3683155","label":"El Rosal","lat":4.85314,"lon":-74.25996,"type":"city"},{"id":"co-3683149","label":"El Rosario","lat":1.74404,"lon":-77.33481,"type":"city"},{"id":"co-3682963","label":"El Tambo","lat":2.45199,"lon":-76.81029,"type":"city"},{"id":"co-3682965","label":"El Tambo","lat":1.40785,"lon":-77.39218,"type":"city"},{"id":"co-3682682","label":"El Zulia","lat":7.93248,"lon":-72.60125,"type":"city"},{"id":"co-3682633","label":"Entrerrios","lat":6.5654,"lon":-75.5169,"type":"city"},{"id":"co-3682631","label":"Envigado","lat":6.17591,"lon":-75.59174,"type":"city"},{"id":"co-3682573","label":"Espinal","lat":4.14924,"lon":-74.88429,"type":"city"},{"id":"co-3682516","label":"Facatativa","lat":4.81367,"lon":-74.35453,"type":"city"},{"id":"co-3682510","label":"Falan","lat":5.12383,"lon":-74.95181,"type":"city"},{"id":"co-3682481","label":"Filadelfia","lat":5.29606,"lon":-75.5612,"type":"city"},{"id":"co-3682473","label":"Filandia","lat":4.67472,"lon":-75.65833,"type":"city"},{"id":"co-3682458","label":"Flandes","lat":4.29005,"lon":-74.81612,"type":"city"},{"id":"co-3682426","label":"Florencia","lat":1.61549,"lon":-75.60412,"type":"city"},{"id":"co-3682393","label":"Florida","lat":3.3223,"lon":-76.2348,"type":"city"},{"id":"co-3682385","label":"Floridablanca","lat":7.06222,"lon":-73.08644,"type":"city"},{"id":"co-3682380","label":"Fomeque","lat":4.48797,"lon":-73.89749,"type":"city"},{"id":"co-3682374","label":"Fonseca","lat":10.88606,"lon":-72.8487,"type":"city"},{"id":"co-3780602","label":"Fredonia","lat":5.92583,"lon":-75.67056,"type":"city"},{"id":"co-3682330","label":"Fresno","lat":5.15264,"lon":-75.03624,"type":"city"},{"id":"co-3682313","label":"Frontino","lat":6.77133,"lon":-76.13324,"type":"city"},{"id":"co-3682292","label":"Fundacion","lat":10.52066,"lon":-74.18504,"type":"city"},{"id":"co-3682281","label":"Funza","lat":4.71638,"lon":-74.21195,"type":"city"},{"id":"co-3682274","label":"Fusagasuga","lat":4.33646,"lon":-74.36378,"type":"city"},{"id":"co-3682262","label":"Gachancipa","lat":4.99111,"lon":-73.87154,"type":"city"},{"id":"co-3682245","label":"Gaitania","lat":3.15,"lon":-75.81667,"type":"city"},{"id":"co-3682238","label":"Galapa","lat":10.89686,"lon":-74.886,"type":"city"},{"id":"co-3682232","label":"Galeras","lat":9.16095,"lon":-75.04811,"type":"city"},{"id":"co-3682182","label":"Gamarra","lat":8.32292,"lon":-73.74233,"type":"city"},{"id":"co-3682160","label":"Garagoa","lat":5.08236,"lon":-73.36334,"type":"city"},{"id":"co-3682108","label":"Garzon","lat":2.19593,"lon":-75.62777,"type":"city"},{"id":"co-3682068","label":"Genova","lat":4.31667,"lon":-75.76667,"type":"city"},{"id":"co-3682047","label":"Gigante","lat":2.38678,"lon":-75.54736,"type":"city"},{"id":"co-3682039","label":"Ginebra","lat":3.72461,"lon":-76.26675,"type":"city"},{"id":"co-3682028","label":"Girardot City","lat":4.30079,"lon":-74.80754,"type":"city"},{"id":"co-3682018","label":"Giron","lat":7.0682,"lon":-73.16981,"type":"city"},{"id":"co-3681997","label":"Gomez Plata","lat":6.68178,"lon":-75.21907,"type":"city"},{"id":"co-3681990","label":"Gonzalez","lat":8.39016,"lon":-73.38048,"type":"city"},{"id":"co-3681952","label":"Granada","lat":6.14353,"lon":-75.18532,"type":"city"},{"id":"co-3681957","label":"Granada","lat":3.54625,"lon":-73.70687,"type":"city"},{"id":"co-3681797","label":"Guacari","lat":3.76383,"lon":-76.33292,"type":"city"},{"id":"co-3688256","label":"Guadalajara de Buga","lat":3.90089,"lon":-76.29783,"type":"city"},{"id":"co-3681733","label":"Guadalupe","lat":2.0248,"lon":-75.75589,"type":"city"},{"id":"co-3681702","label":"Guaduas","lat":5.06692,"lon":-74.59499,"type":"city"},{"id":"co-3681644","label":"Guaitarilla","lat":1.13103,"lon":-77.54815,"type":"city"},{"id":"co-3681596","label":"Guamal","lat":9.14334,"lon":-74.22384,"type":"city"},{"id":"co-3681605","label":"Guamal","lat":3.88043,"lon":-73.76566,"type":"city"},{"id":"co-3681563","label":"Guamo","lat":4.03078,"lon":-74.9701,"type":"city"},{"id":"co-3681505","label":"Guapi","lat":2.57082,"lon":-77.88542,"type":"city"},{"id":"co-3681429","label":"Guarne","lat":6.28046,"lon":-75.44354,"type":"city"},{"id":"co-3681368","label":"Guatape","lat":6.23429,"lon":-75.16335,"type":"city"},{"id":"co-3681356","label":"Guateque","lat":5.00619,"lon":-73.47274,"type":"city"},{"id":"co-3689551","label":"Guayabal","lat":5.03103,"lon":-74.88683,"type":"city"},{"id":"co-3681168","label":"Hacari","lat":8.32097,"lon":-73.14576,"type":"city"},{"id":"co-3680944","label":"Hatonuevo","lat":11.06944,"lon":-72.76694,"type":"city"},{"id":"co-3680880","label":"Herveo","lat":5.08004,"lon":-75.17556,"type":"city"},{"id":"co-3680840","label":"Honda","lat":5.20856,"lon":-74.73584,"type":"city"},{"id":"co-3680656","label":"Ibague","lat":4.43573,"lon":-75.20289,"type":"city"},{"id":"co-3680641","label":"Icononzo","lat":4.17698,"lon":-74.53254,"type":"city"},{"id":"co-3671450","label":"Inirida","lat":3.86528,"lon":-67.92389,"type":"city"},{"id":"co-3680539","label":"Ipiales","lat":0.82501,"lon":-77.63966,"type":"city"},{"id":"co-3680531","label":"Iquira","lat":2.64867,"lon":-75.63457,"type":"city"},{"id":"co-3792389","label":"Isnos","lat":1.93556,"lon":-76.24056,"type":"city"},{"id":"co-3680453","label":"Istmina","lat":5.16054,"lon":-76.68397,"type":"city"},{"id":"co-3680450","label":"Itaguei","lat":6.18461,"lon":-75.59913,"type":"city"},{"id":"co-3680434","label":"Ituango","lat":7.17117,"lon":-75.76404,"type":"city"},{"id":"co-3680387","label":"Jamundi","lat":3.26074,"lon":-76.53499,"type":"city"},{"id":"co-3680366","label":"Jardin","lat":5.59902,"lon":-75.81976,"type":"city"},{"id":"co-3680317","label":"Jerico","lat":5.79211,"lon":-75.78601,"type":"city"},{"id":"co-3680176","label":"Juan de Acosta","lat":10.8293,"lon":-75.03346,"type":"city"},{"id":"co-3680112","label":"Junin","lat":4.78333,"lon":-75.01667,"type":"city"},{"id":"co-7033318","label":"Kennedy","lat":4.6165,"lon":-74.14597,"type":"city"},{"id":"co-3679660","label":"La Calera","lat":4.72069,"lon":-73.96926,"type":"city"},{"id":"co-3679554","label":"La Ceja","lat":6.03131,"lon":-75.43333,"type":"city"},{"id":"co-3679536","label":"La Chamba","lat":4.02649,"lon":-74.86844,"type":"city"},{"id":"co-3679379","label":"La Cruz","lat":1.60221,"lon":-76.9713,"type":"city"},{"id":"co-3669293","label":"La Dorada","lat":0.34314,"lon":-76.91124,"type":"city"},{"id":"co-3679277","label":"La Dorada","lat":5.44783,"lon":-74.66311,"type":"city"},{"id":"co-3679065","label":"La Estrella","lat":6.15769,"lon":-75.64317,"type":"city"},{"id":"co-3678907","label":"La Gloria","lat":8.61954,"lon":-73.80212,"type":"city"},{"id":"co-3678674","label":"La Jagua de Ibirico","lat":9.56228,"lon":-73.33405,"type":"city"},{"id":"co-3678405","label":"La Mesa","lat":5.26667,"lon":-73.91667,"type":"city"},{"id":"co-3678186","label":"La Paz","lat":10.38439,"lon":-73.17332,"type":"city"},{"id":"co-3678118","label":"La Pintada","lat":5.74867,"lon":-75.60626,"type":"city"},{"id":"co-3678097","label":"La Plata","lat":2.39341,"lon":-75.89232,"type":"city"},{"id":"co-3678000","label":"La Primavera","lat":5.49056,"lon":-70.40917,"type":"city"},{"id":"co-3677457","label":"La Sierra","lat":2.17835,"lon":-76.76265,"type":"city"},{"id":"co-3677010","label":"La Tebaida","lat":4.45265,"lon":-75.78746,"type":"city"},{"id":"co-3792396","label":"La Tola","lat":2.39949,"lon":-78.18923,"type":"city"},{"id":"co-3676923","label":"La Union","lat":5.97431,"lon":-75.36195,"type":"city"},{"id":"co-3676928","label":"La Union","lat":4.53282,"lon":-76.10318,"type":"city"},{"id":"co-3676934","label":"La Union","lat":1.6045,"lon":-77.13152,"type":"city"},{"id":"co-3676864","label":"La Vega","lat":5.00177,"lon":-74.34174,"type":"city"},{"id":"co-3676791","label":"La Victoria","lat":4.52483,"lon":-76.03921,"type":"city"},{"id":"co-3676720","label":"La Virginia","lat":4.89972,"lon":-75.8825,"type":"city"},{"id":"co-3678328","label":"Landazuri","lat":6.21826,"lon":-73.81121,"type":"city"},{"id":"co-3676674","label":"Lebrija","lat":7.11317,"lon":-73.2178,"type":"city"},{"id":"co-3676661","label":"Leiva","lat":1.93497,"lon":-77.30634,"type":"city"},{"id":"co-3732964","label":"Lejanias","lat":3.52762,"lon":-74.02335,"type":"city"},{"id":"co-3676626","label":"Lerida","lat":4.86242,"lon":-74.90977,"type":"city"},{"id":"co-3676623","label":"Leticia","lat":-4.21079,"lon":-69.93944,"type":"city"},{"id":"co-3676604","label":"Libano","lat":4.9218,"lon":-75.06232,"type":"city"},{"id":"co-3676591","label":"Liborina","lat":6.6779,"lon":-75.81218,"type":"city"},{"id":"co-3676540","label":"Linares","lat":1.35078,"lon":-77.52339,"type":"city"},{"id":"co-3676397","label":"Lorica","lat":9.23648,"lon":-75.8135,"type":"city"},{"id":"co-3675987","label":"Los Palmitos","lat":9.37899,"lon":-75.26769,"type":"city"},{"id":"co-3675975","label":"Los Patios","lat":7.83793,"lon":-72.5037,"type":"city"},{"id":"co-3675826","label":"Luruaco","lat":10.61712,"lon":-75.15146,"type":"city"},{"id":"co-3675707","label":"Madrid","lat":4.73245,"lon":-74.26419,"type":"city"},{"id":"co-3675692","label":"Magangue","lat":9.24202,"lon":-74.75467,"type":"city"},{"id":"co-3675668","label":"Mahates","lat":10.23293,"lon":-75.18985,"type":"city"},{"id":"co-3675657","label":"Maicao","lat":11.37837,"lon":-72.2395,"type":"city"},{"id":"co-3675637","label":"Majagual","lat":8.54119,"lon":-74.62942,"type":"city"},{"id":"co-3675605","label":"Malaga","lat":6.69903,"lon":-72.73233,"type":"city"},{"id":"co-3675595","label":"Malambo","lat":10.85953,"lon":-74.77386,"type":"city"},{"id":"co-3675512","label":"Manati","lat":10.44589,"lon":-74.95869,"type":"city"},{"id":"co-3675504","label":"Manaure","lat":11.77505,"lon":-72.44447,"type":"city"},{"id":"co-3792384","label":"Manaure Balcon del Cesar","lat":10.39278,"lon":-73.0325,"type":"city"},{"id":"co-3675452","label":"Mani","lat":4.81638,"lon":-72.27946,"type":"city"},{"id":"co-3675443","label":"Manizales","lat":5.0668,"lon":-75.50684,"type":"city"},{"id":"co-3675409","label":"Manzanares","lat":5.25397,"lon":-75.15403,"type":"city"},{"id":"co-3792394","label":"Mapiripan","lat":2.89115,"lon":-72.13328,"type":"city"},{"id":"co-3675305","label":"Margarita","lat":9.15596,"lon":-74.26618,"type":"city"},{"id":"co-3675287","label":"Maria la Baja","lat":9.9832,"lon":-75.30155,"type":"city"},{"id":"co-3675263","label":"Marinilla","lat":6.17358,"lon":-75.33621,"type":"city"},{"id":"co-3675234","label":"Marquetalia","lat":5.29659,"lon":-75.05496,"type":"city"},{"id":"co-3675212","label":"Marsella","lat":4.93722,"lon":-75.73778,"type":"city"},{"id":"co-3674962","label":"Medellin","lat":6.245,"lon":-75.57151,"type":"city"},{"id":"co-3674931","label":"Medina","lat":4.51005,"lon":-73.34982,"type":"city"},{"id":"co-3674885","label":"Melgar","lat":4.20475,"lon":-74.64075,"type":"city"},{"id":"co-3674851","label":"Mercaderes","lat":1.80175,"lon":-77.17032,"type":"city"},{"id":"co-3763578","label":"Mesetas","lat":3.38463,"lon":-74.04424,"type":"city"},{"id":"co-3674784","label":"Milan","lat":1.29034,"lon":-75.50757,"type":"city"},{"id":"co-3674735","label":"Miraflores","lat":5.19608,"lon":-73.14504,"type":"city"},{"id":"co-3674740","label":"Miraflores","lat":1.33667,"lon":-71.95111,"type":"city"},{"id":"co-3674702","label":"Miranda","lat":3.25283,"lon":-76.22924,"type":"city"},{"id":"co-3674678","label":"Mistrato","lat":5.29622,"lon":-75.8839,"type":"city"},{"id":"co-3674676","label":"Mitu","lat":1.25744,"lon":-70.23551,"type":"city"},{"id":"co-3674654","label":"Mocoa","lat":1.15284,"lon":-76.65208,"type":"city"},{"id":"co-3674640","label":"Mogotes","lat":6.47559,"lon":-72.97046,"type":"city"},{"id":"co-3674603","label":"Momil","lat":9.23767,"lon":-75.67489,"type":"city"},{"id":"co-3674597","label":"Mompos","lat":9.24194,"lon":-74.42667,"type":"city"},{"id":"co-3674572","label":"Moniquira","lat":5.87638,"lon":-73.57284,"type":"city"},{"id":"co-3674569","label":"Monitos","lat":8.25,"lon":-76.05,"type":"city"},{"id":"co-3674499","label":"Montecristo","lat":8.2971,"lon":-74.4733,"type":"city"},{"id":"co-3674470","label":"Montelibano","lat":7.97917,"lon":-75.4202,"type":"city"},{"id":"co-3674463","label":"Montenegro","lat":4.56639,"lon":-75.75111,"type":"city"},{"id":"co-3674453","label":"Monteria","lat":8.75081,"lon":-75.87823,"type":"city"},{"id":"co-3769932","label":"Monterrey","lat":4.87802,"lon":-72.89575,"type":"city"},{"id":"co-3674412","label":"Morales","lat":8.27621,"lon":-73.86803,"type":"city"},{"id":"co-3770718","label":"Morales","lat":2.75446,"lon":-76.62791,"type":"city"},{"id":"co-3674292","label":"Mosquera","lat":4.70592,"lon":-74.23021,"type":"city"},{"id":"co-3674293","label":"Mosquera","lat":2.50861,"lon":-78.4511,"type":"city"},{"id":"co-3681008","label":"Municipio Hato Corozal","lat":6.15676,"lon":-71.76372,"type":"city"},{"id":"co-3674130","label":"Mutata","lat":7.24407,"lon":-76.43564,"type":"city"},{"id":"co-3674121","label":"Muzo","lat":5.53528,"lon":-74.10778,"type":"city"},{"id":"co-3674010","label":"Natagaima","lat":3.62057,"lon":-75.09415,"type":"city"},{"id":"co-3673976","label":"Nechi","lat":8.09419,"lon":-74.77573,"type":"city"},{"id":"co-3673974","label":"Necocli","lat":8.42627,"lon":-76.78926,"type":"city"},{"id":"co-3673902","label":"Neira","lat":5.1665,"lon":-75.52001,"type":"city"},{"id":"co-3673899","label":"Neiva","lat":2.93001,"lon":-75.27973,"type":"city"},{"id":"co-3673887","label":"Nemocon","lat":5.06767,"lon":-73.87769,"type":"city"},{"id":"co-3673849","label":"Nilo","lat":4.30604,"lon":-74.62083,"type":"city"},{"id":"co-3673811","label":"Norcasia","lat":5.57535,"lon":-74.88831,"type":"city"},{"id":"co-3673756","label":"Nueva Granada","lat":9.80168,"lon":-74.39304,"type":"city"},{"id":"co-3673676","label":"Obando","lat":4.57583,"lon":-75.97389,"type":"city"},{"id":"co-3673662","label":"Ocana","lat":8.23773,"lon":-73.35604,"type":"city"},{"id":"co-3673609","label":"Olaya Herrera","lat":1.24803,"lon":-77.49085,"type":"city"},{"id":"co-3673578","label":"Oporapa","lat":2.02378,"lon":-75.99588,"type":"city"},{"id":"co-3829343","label":"Orito","lat":0.66749,"lon":-76.87297,"type":"city"},{"id":"co-3673511","label":"Ortega","lat":3.9361,"lon":-75.22169,"type":"city"},{"id":"co-3673475","label":"Otanche","lat":5.65672,"lon":-74.18249,"type":"city"},{"id":"co-3673455","label":"Ovejas","lat":9.52716,"lon":-75.22873,"type":"city"},{"id":"co-3673424","label":"Pacho","lat":5.13278,"lon":-74.15977,"type":"city"},{"id":"co-3673413","label":"Pacora","lat":5.52708,"lon":-75.4593,"type":"city"},{"id":"co-3673404","label":"Padua","lat":5.13429,"lon":-75.14001,"type":"city"},{"id":"co-3673379","label":"Pailitas","lat":8.95671,"lon":-73.62378,"type":"city"},{"id":"co-3673369","label":"Paipa","lat":5.78013,"lon":-73.11708,"type":"city"},{"id":"co-3673286","label":"Palermo","lat":2.89167,"lon":-75.4375,"type":"city"},{"id":"co-3673269","label":"Palestina","lat":5.0161,"lon":-75.62854,"type":"city"},{"id":"co-3673275","label":"Palestina","lat":1.72362,"lon":-76.13403,"type":"city"},{"id":"co-3673220","label":"Palmar de Varela","lat":10.74055,"lon":-74.75443,"type":"city"},{"id":"co-3673164","label":"Palmira","lat":3.53944,"lon":-76.30361,"type":"city"},{"id":"co-3673142","label":"Palmito","lat":9.33189,"lon":-75.5417,"type":"city"},{"id":"co-3673126","label":"Palocabildo","lat":5.11705,"lon":-75.01732,"type":"city"},{"id":"co-3673045","label":"Pamplona","lat":7.37565,"lon":-72.64795,"type":"city"},{"id":"co-3672778","label":"Pasto","lat":1.21456,"lon":-77.27846,"type":"city"},{"id":"co-3672761","label":"Patia","lat":2.06895,"lon":-77.05273,"type":"city"},{"id":"co-3672698","label":"Pauna","lat":5.65861,"lon":-73.9825,"type":"city"},{"id":"co-3672664","label":"Payande","lat":4.2975,"lon":-75.09667,"type":"city"},{"id":"co-3672653","label":"Paz de Ariporo","lat":5.88148,"lon":-71.89167,"type":"city"},{"id":"co-3672599","label":"Pelaya","lat":8.68819,"lon":-73.66451,"type":"city"},{"id":"co-3672521","label":"Pensilvania","lat":5.38346,"lon":-75.16122,"type":"city"},{"id":"co-3672512","label":"Peque","lat":7.02123,"lon":-75.90926,"type":"city"},{"id":"co-3672486","label":"Pereira","lat":4.81428,"lon":-75.69488,"type":"city"},{"id":"co-3672428","label":"Pesca","lat":5.55,"lon":-73.05,"type":"city"},{"id":"co-3672328","label":"Piedecuesta","lat":6.98789,"lon":-73.04953,"type":"city"},{"id":"co-3672290","label":"Piedras","lat":4.54261,"lon":-74.87823,"type":"city"},{"id":"co-8633918","label":"Piendamo","lat":2.63918,"lon":-76.53055,"type":"city"},{"id":"co-3672255","label":"Pijao","lat":4.3335,"lon":-75.70463,"type":"city"},{"id":"co-3672249","label":"Pijino del Carmen","lat":9.32908,"lon":-74.45302,"type":"city"},{"id":"co-3672197","label":"Pinillos","lat":8.91925,"lon":-74.46771,"type":"city"},{"id":"co-3672123","label":"Pital","lat":2.2665,"lon":-75.80442,"type":"city"},{"id":"co-3672110","label":"Pitalito","lat":1.85371,"lon":-76.05071,"type":"city"},{"id":"co-3672093","label":"Pivijay","lat":10.46167,"lon":-74.61621,"type":"city"},{"id":"co-3672086","label":"Pizarro","lat":4.95334,"lon":-77.36598,"type":"city"},{"id":"co-3672077","label":"Planadas","lat":3.19698,"lon":-75.64506,"type":"city"},{"id":"co-3672068","label":"Planeta Rica","lat":8.4115,"lon":-75.58508,"type":"city"},{"id":"co-3792392","label":"Plato","lat":9.79029,"lon":-74.78244,"type":"city"},{"id":"co-3672012","label":"Playarrica","lat":4.05694,"lon":-75.41028,"type":"city"},{"id":"co-3671961","label":"Policarpa","lat":1.62843,"lon":-77.45956,"type":"city"},{"id":"co-3671950","label":"Polonuevo","lat":10.77697,"lon":-74.85344,"type":"city"},{"id":"co-3671936","label":"Ponedera","lat":10.64297,"lon":-74.75393,"type":"city"},{"id":"co-3671916","label":"Popayan","lat":2.43823,"lon":-76.61316,"type":"city"},{"id":"co-3671848","label":"Potosi","lat":0.80739,"lon":-77.57216,"type":"city"},{"id":"co-3671772","label":"Pradera","lat":3.42111,"lon":-76.24472,"type":"city"},{"id":"co-3671765","label":"Prado","lat":3.75118,"lon":-74.93004,"type":"city"},{"id":"co-3671655","label":"Pueblo Nuevo","lat":8.2411,"lon":-74.95815,"type":"city"},{"id":"co-3671633","label":"Pueblo Rico","lat":5.22263,"lon":-76.03026,"type":"city"},{"id":"co-3671630","label":"Pueblorrico","lat":5.79176,"lon":-75.84101,"type":"city"},{"id":"co-3671615","label":"Puebloviejo","lat":10.99376,"lon":-74.28439,"type":"city"},{"id":"co-3671591","label":"Puente Nacional","lat":5.87739,"lon":-73.6781,"type":"city"},{"id":"co-3671549","label":"Puerto Asis","lat":0.50514,"lon":-76.49571,"type":"city"},{"id":"co-3671540","label":"Puerto Berrio","lat":6.49156,"lon":-74.40326,"type":"city"},{"id":"co-3671531","label":"Puerto Boyaca","lat":5.976,"lon":-74.58516,"type":"city"},{"id":"co-3671519","label":"Puerto Carreno","lat":6.19041,"lon":-67.48391,"type":"city"},{"id":"co-3671497","label":"Puerto Colombia","lat":10.98778,"lon":-74.95472,"type":"city"},{"id":"co-3792395","label":"Puerto Concordia","lat":2.62206,"lon":-72.75724,"type":"city"},{"id":"co-3769976","label":"Puerto Gaitan","lat":4.31328,"lon":-72.08157,"type":"city"},{"id":"co-3671437","label":"Puerto Leguizamo","lat":-0.19337,"lon":-74.78189,"type":"city"},{"id":"co-3671424","label":"Puerto Lleras","lat":3.02225,"lon":-73.4044,"type":"city"},{"id":"co-3671418","label":"Puerto Lopez","lat":4.09912,"lon":-72.95647,"type":"city"},{"id":"co-3671348","label":"Puerto Rico","lat":1.90999,"lon":-75.15931,"type":"city"},{"id":"co-3671330","label":"Puerto Salgar","lat":5.46304,"lon":-74.65436,"type":"city"},{"id":"co-3671325","label":"Puerto Santander","lat":8.36361,"lon":-72.4063,"type":"city"},{"id":"co-3671315","label":"Puerto Tejada","lat":3.23114,"lon":-76.41668,"type":"city"},{"id":"co-3671308","label":"Puerto Triunfo","lat":5.87259,"lon":-74.6405,"type":"city"},{"id":"co-3671287","label":"Puerto Wilches","lat":7.34828,"lon":-73.89601,"type":"city"},{"id":"co-3671346","label":"Puerto Yuca","lat":2.93833,"lon":-73.20833,"type":"city"},{"id":"co-3671228","label":"Pupiales","lat":0.87136,"lon":-77.64027,"type":"city"},{"id":"co-3671208","label":"Purificacion","lat":3.85871,"lon":-74.93129,"type":"city"},{"id":"co-3671203","label":"Purisima de la Concepcion","lat":9.23657,"lon":-75.72191,"type":"city"},{"id":"co-3671116","label":"Quibdo","lat":5.69188,"lon":-76.65835,"type":"city"},{"id":"co-3671098","label":"Quimbaya","lat":4.62306,"lon":-75.76278,"type":"city"},{"id":"co-3671091","label":"Quinchia","lat":5.33957,"lon":-75.73018,"type":"city"},{"id":"co-3671002","label":"Ramiriqui","lat":5.4002,"lon":-73.33544,"type":"city"},{"id":"co-3670910","label":"Regidor","lat":8.66633,"lon":-73.82221,"type":"city"},{"id":"co-3670899","label":"Remedios","lat":7.02835,"lon":-74.69379,"type":"city"},{"id":"co-3670884","label":"Remolino","lat":10.70199,"lon":-74.71602,"type":"city"},{"id":"co-3670874","label":"Repelon","lat":10.4952,"lon":-75.12448,"type":"city"},{"id":"co-3670855","label":"Restrepo","lat":4.25833,"lon":-73.56142,"type":"city"},{"id":"co-3670856","label":"Restrepo","lat":3.82203,"lon":-76.52242,"type":"city"},{"id":"co-3670849","label":"Retiro","lat":6.05861,"lon":-75.50306,"type":"city"},{"id":"co-3670812","label":"Ricaurte","lat":4.28075,"lon":-74.76469,"type":"city"},{"id":"co-3670756","label":"Rio de Oro","lat":8.29223,"lon":-73.3849,"type":"city"},{"id":"co-3670709","label":"Rio Viejo","lat":8.58863,"lon":-73.83972,"type":"city"},{"id":"co-3670764","label":"Rioblanco","lat":3.52973,"lon":-75.64525,"type":"city"},{"id":"co-3670754","label":"Riofrio","lat":4.1571,"lon":-76.28852,"type":"city"},{"id":"co-3670745","label":"Riohacha","lat":11.54444,"lon":-72.90722,"type":"city"},{"id":"co-3670730","label":"Rionegro","lat":6.15515,"lon":-75.37371,"type":"city"},{"id":"co-3670718","label":"Riosucio","lat":7.44348,"lon":-77.11964,"type":"city"},{"id":"co-3670719","label":"Riosucio","lat":5.42164,"lon":-75.70318,"type":"city"},{"id":"co-3670700","label":"Risaralda","lat":5.16647,"lon":-75.76595,"type":"city"},{"id":"co-3670692","label":"Rivera","lat":2.77717,"lon":-75.25642,"type":"city"},{"id":"co-3670644","label":"Roldanillo","lat":4.41256,"lon":-76.15457,"type":"city"},{"id":"co-3670629","label":"Roncesvalles","lat":4.0108,"lon":-75.60493,"type":"city"},{"id":"co-3670595","label":"Rosas","lat":2.26093,"lon":-76.73986,"type":"city"},{"id":"co-3670587","label":"Rovira","lat":4.23922,"lon":-75.23996,"type":"city"},{"id":"co-3670520","label":"Sabana de Torres","lat":7.3915,"lon":-73.49574,"type":"city"},{"id":"co-3670513","label":"Sabanagrande","lat":10.79115,"lon":-74.76059,"type":"city"},{"id":"co-3670502","label":"Sabanalarga","lat":10.63072,"lon":-74.92214,"type":"city"},{"id":"co-3670475","label":"Sabaneta","lat":6.15153,"lon":-75.61657,"type":"city"},{"id":"co-3670419","label":"Sahagun","lat":8.94617,"lon":-75.44275,"type":"city"},{"id":"co-3670383","label":"Saladoblanco","lat":1.99244,"lon":-76.04335,"type":"city"},{"id":"co-3672087","label":"Salahonda","lat":2.0406,"lon":-78.65877,"type":"city"},{"id":"co-3670368","label":"Salamina","lat":10.49027,"lon":-74.79463,"type":"city"},{"id":"co-3670370","label":"Salamina","lat":5.40733,"lon":-75.48749,"type":"city"},{"id":"co-3670357","label":"Saldana","lat":3.92923,"lon":-75.01517,"type":"city"},{"id":"co-3670350","label":"Salgar","lat":5.96502,"lon":-75.96541,"type":"city"},{"id":"co-3670293","label":"Samaniego","lat":1.33849,"lon":-77.5957,"type":"city"},{"id":"co-3670280","label":"Sampues","lat":9.18361,"lon":-75.38167,"type":"city"},{"id":"co-3670260","label":"San Agustin","lat":1.87884,"lon":-76.26722,"type":"city"},{"id":"co-3670242","label":"San Alberto","lat":7.76107,"lon":-73.3922,"type":"city"},{"id":"co-3670218","label":"San Andres","lat":12.57858,"lon":-81.69973,"type":"city"},{"id":"co-3670199","label":"San Antero","lat":9.3741,"lon":-75.75891,"type":"city"},{"id":"co-3670107","label":"San Antonio","lat":9.93303,"lon":-74.69346,"type":"city"},{"id":"co-3670162","label":"San Antonio","lat":3.91423,"lon":-75.48009,"type":"city"},{"id":"co-3670038","label":"San Benito Abad","lat":8.92901,"lon":-75.02709,"type":"city"},{"id":"co-3670018","label":"San Bernardo del Viento","lat":9.3533,"lon":-75.95244,"type":"city"},{"id":"co-3669997","label":"San Carlos","lat":8.79577,"lon":-75.69947,"type":"city"},{"id":"co-3669998","label":"San Carlos","lat":7.79177,"lon":-74.77316,"type":"city"},{"id":"co-3670000","label":"San Carlos","lat":6.18789,"lon":-74.99315,"type":"city"},{"id":"co-3669987","label":"San Carlos de Guaroa","lat":3.71161,"lon":-73.24344,"type":"city"},{"id":"co-3669947","label":"San Diego","lat":10.33384,"lon":-73.18048,"type":"city"},{"id":"co-3669929","label":"San Estanislao","lat":10.39833,"lon":-75.15111,"type":"city"},{"id":"co-3669808","label":"San Gil","lat":6.55952,"lon":-73.13637,"type":"city"},{"id":"co-3669736","label":"San Jacinto","lat":9.82767,"lon":-75.1217,"type":"city"},{"id":"co-3669718","label":"San Jeronimo","lat":6.44344,"lon":-75.72815,"type":"city"},{"id":"co-3828545","label":"San Jose del Guaviare","lat":2.56799,"lon":-72.63972,"type":"city"},{"id":"co-3669480","label":"San Juan de Betulia","lat":9.27345,"lon":-75.24103,"type":"city"},{"id":"co-3669461","label":"San Juan de Uraba","lat":8.75924,"lon":-76.52969,"type":"city"},{"id":"co-3669469","label":"San Juan del Cesar","lat":10.77107,"lon":-73.00314,"type":"city"},{"id":"co-3669454","label":"San Juan Nepomuceno","lat":9.95157,"lon":-75.08198,"type":"city"},{"id":"co-3669440","label":"San Lorenzo","lat":1.50294,"lon":-77.21537,"type":"city"},{"id":"co-3667991","label":"San Luis de Since","lat":9.24391,"lon":-75.14675,"type":"city"},{"id":"co-3669346","label":"San Marcos","lat":8.65972,"lon":-75.12809,"type":"city"},{"id":"co-3669332","label":"San Martin","lat":3.69637,"lon":-73.69957,"type":"city"},{"id":"co-3792385","label":"San Martin","lat":8.00181,"lon":-73.51143,"type":"city"},{"id":"co-3669218","label":"San Onofre","lat":9.73586,"lon":-75.52626,"type":"city"},{"id":"co-3669188","label":"San Pablo","lat":10.05154,"lon":-75.26775,"type":"city"},{"id":"co-3669214","label":"San Pablo","lat":1.6725,"lon":-77.01389,"type":"city"},{"id":"co-3669173","label":"San Pablo de Borbur","lat":5.65138,"lon":-74.06991,"type":"city"},{"id":"co-3669128","label":"San Pedro","lat":9.3956,"lon":-75.06476,"type":"city"},{"id":"co-3669138","label":"San Pedro","lat":6.46135,"lon":-75.55778,"type":"city"},{"id":"co-3669156","label":"San Pedro","lat":3.99445,"lon":-76.22885,"type":"city"},{"id":"co-3669087","label":"San Pedro de Uraba","lat":8.27515,"lon":-76.37641,"type":"city"},{"id":"co-3669084","label":"San Pelayo","lat":8.95833,"lon":-75.83627,"type":"city"},{"id":"co-3669056","label":"San Rafael","lat":6.29436,"lon":-75.02589,"type":"city"},{"id":"co-3669011","label":"San Roque","lat":6.48511,"lon":-75.0196,"type":"city"},{"id":"co-3675252","label":"San Sebastian de Mariquita","lat":5.19889,"lon":-74.89295,"type":"city"},{"id":"co-3668302","label":"San Vicente","lat":6.28535,"lon":-75.33385,"type":"city"},{"id":"co-3668292","label":"San Vicente de Chucuri","lat":6.881,"lon":-73.40977,"type":"city"},{"id":"co-3668286","label":"San Zenon","lat":9.24217,"lon":-74.50037,"type":"city"},{"id":"co-3669938","label":"Sandona","lat":1.28626,"lon":-77.46921,"type":"city"},{"id":"co-3668937","label":"Santa Ana","lat":9.32125,"lon":-74.56848,"type":"city"},{"id":"co-3668895","label":"Santa Barbara","lat":5.87458,"lon":-75.56706,"type":"city"},{"id":"co-3668861","label":"Santa Catalina","lat":10.60361,"lon":-75.28824,"type":"city"},{"id":"co-3689816","label":"Santa Fe de Antioquia","lat":6.55687,"lon":-75.82806,"type":"city"},{"id":"co-3828283","label":"Santa Isabel","lat":3.34944,"lon":-74.98056,"type":"city"},{"id":"co-3668655","label":"Santa Lucia","lat":10.3242,"lon":-74.96017,"type":"city"},{"id":"co-3668605","label":"Santa Marta","lat":11.23855,"lon":-74.19427,"type":"city"},{"id":"co-3668472","label":"Santa Rosa","lat":10.44472,"lon":-75.36972,"type":"city"},{"id":"co-3668454","label":"Santa Rosa de Cabal","lat":4.86806,"lon":-75.62139,"type":"city"},{"id":"co-3668451","label":"Santa Rosa de Osos","lat":6.64738,"lon":-75.46031,"type":"city"},{"id":"co-3668447","label":"Santa Rosa de Viterbo","lat":5.87401,"lon":-72.98217,"type":"city"},{"id":"co-3792379","label":"Santa Rosa del Sur","lat":7.96444,"lon":-74.05444,"type":"city"},{"id":"co-3668572","label":"Santander de Quilichao","lat":3.00945,"lon":-76.48494,"type":"city"},{"id":"co-3668400","label":"Santiago","lat":1.14844,"lon":-77.0045,"type":"city"},{"id":"co-3666939","label":"Santiago de Tolu","lat":9.52392,"lon":-75.58139,"type":"city"},{"id":"co-3668373","label":"Santo Domingo","lat":6.47282,"lon":-75.16547,"type":"city"},{"id":"co-3668332","label":"Santo Tomas","lat":10.75773,"lon":-74.75451,"type":"city"},{"id":"co-3668323","label":"Santuario","lat":6.13833,"lon":-75.26417,"type":"city"},{"id":"co-3668324","label":"Santuario","lat":5.07415,"lon":-75.96423,"type":"city"},{"id":"co-3668245","label":"Sardinata","lat":8.08289,"lon":-72.80071,"type":"city"},{"id":"co-3668228","label":"Sasaima","lat":4.96705,"lon":-74.43512,"type":"city"},{"id":"co-3668175","label":"Segovia","lat":7.07993,"lon":-74.6989,"type":"city"},{"id":"co-3668132","label":"Sevilla","lat":4.26425,"lon":-75.93085,"type":"city"},{"id":"co-3668087","label":"Sibate","lat":4.49154,"lon":-74.25957,"type":"city"},{"id":"co-3668078","label":"Sibundoy","lat":1.20296,"lon":-76.92275,"type":"city"},{"id":"co-3668028","label":"Silvania","lat":4.40367,"lon":-74.3867,"type":"city"},{"id":"co-3668025","label":"Silvia","lat":2.61557,"lon":-76.38261,"type":"city"},{"id":"co-3668012","label":"Simiti","lat":7.9579,"lon":-73.9436,"type":"city"},{"id":"co-3667983","label":"Sincelejo","lat":9.3045,"lon":-75.3905,"type":"city"},{"id":"co-3667918","label":"Sitionuevo","lat":10.77737,"lon":-74.72049,"type":"city"},{"id":"co-3667905","label":"Soacha","lat":4.57937,"lon":-74.21682,"type":"city"},{"id":"co-3667901","label":"Soata","lat":6.33369,"lon":-72.68283,"type":"city"},{"id":"co-3667887","label":"Socorro","lat":6.46838,"lon":-73.26022,"type":"city"},{"id":"co-3667873","label":"Sogamoso","lat":5.71434,"lon":-72.93391,"type":"city"},{"id":"co-3667868","label":"Solano","lat":0.69937,"lon":-75.25353,"type":"city"},{"id":"co-3667849","label":"Soledad","lat":10.91843,"lon":-74.76459,"type":"city"},{"id":"co-3667820","label":"Sonson","lat":5.71062,"lon":-75.31069,"type":"city"},{"id":"co-3667811","label":"Soplaviento","lat":10.39306,"lon":-75.14083,"type":"city"},{"id":"co-3667807","label":"Sopo","lat":4.9075,"lon":-73.9384,"type":"city"},{"id":"co-3667791","label":"Sotomayor","lat":1.49474,"lon":-77.52136,"type":"city"},{"id":"co-3667780","label":"Suan","lat":10.33347,"lon":-74.88016,"type":"city"},{"id":"co-3667773","label":"Suarez","lat":2.95395,"lon":-76.69644,"type":"city"},{"id":"co-3667728","label":"Sucre","lat":8.81136,"lon":-74.72084,"type":"city"},{"id":"co-3667697","label":"Supia","lat":5.45303,"lon":-75.65072,"type":"city"},{"id":"co-3667579","label":"Tado","lat":5.26598,"lon":-76.56487,"type":"city"},{"id":"co-3667547","label":"Talaigua Viejo","lat":9.31206,"lon":-74.58544,"type":"city"},{"id":"co-3667478","label":"Tame","lat":6.46065,"lon":-71.73618,"type":"city"},{"id":"co-3667473","label":"Tamesis","lat":5.66462,"lon":-75.71339,"type":"city"},{"id":"co-3667386","label":"Tarqui","lat":2.11248,"lon":-75.82419,"type":"city"},{"id":"co-3667355","label":"Tauramena","lat":5.01789,"lon":-72.74675,"type":"city"},{"id":"co-3667323","label":"Tello","lat":3.06694,"lon":-75.13778,"type":"city"},{"id":"co-3667202","label":"Tibu","lat":8.63895,"lon":-72.73583,"type":"city"},{"id":"co-3667158","label":"Tierralta","lat":8.17361,"lon":-76.05917,"type":"city"},{"id":"co-3667082","label":"Timana","lat":1.97136,"lon":-75.93123,"type":"city"},{"id":"co-3667070","label":"Timbiqui","lat":2.7717,"lon":-77.66536,"type":"city"},{"id":"co-3792380","label":"Tiquisio","lat":8.55666,"lon":-74.26355,"type":"city"},{"id":"co-3667023","label":"Titiribi","lat":6.06276,"lon":-75.7937,"type":"city"},{"id":"co-3667003","label":"Tocaima","lat":4.4582,"lon":-74.63434,"type":"city"},{"id":"co-3666997","label":"Tocancipa","lat":4.96531,"lon":-73.91301,"type":"city"},{"id":"co-3666959","label":"Toledo","lat":7.30984,"lon":-72.48295,"type":"city"},{"id":"co-3666936","label":"Tolu Viejo","lat":9.45082,"lon":-75.43864,"type":"city"},{"id":"co-3666881","label":"Toro","lat":4.61167,"lon":-76.08139,"type":"city"},{"id":"co-3666719","label":"Trinidad","lat":5.40849,"lon":-71.66196,"type":"city"},{"id":"co-3666680","label":"Trujillo","lat":4.21217,"lon":-76.31945,"type":"city"},{"id":"co-3666673","label":"Tubara","lat":10.87562,"lon":-74.97873,"type":"city"},{"id":"co-3666645","label":"Tulua","lat":4.08466,"lon":-76.19536,"type":"city"},{"id":"co-3666640","label":"Tumaco","lat":1.79112,"lon":-78.79275,"type":"city"},{"id":"co-3666608","label":"Tunja","lat":5.54481,"lon":-73.35756,"type":"city"},{"id":"co-3666582","label":"Tuquerres","lat":1.08647,"lon":-77.61858,"type":"city"},{"id":"co-3666577","label":"Turbaco","lat":10.32944,"lon":-75.41137,"type":"city"},{"id":"co-3666575","label":"Turbana","lat":10.27169,"lon":-75.44222,"type":"city"},{"id":"co-3666570","label":"Turbo","lat":8.09263,"lon":-76.72822,"type":"city"},{"id":"co-3666475","label":"Unguia","lat":8.04364,"lon":-77.09137,"type":"city"},{"id":"co-3666409","label":"Uribia","lat":11.71505,"lon":-72.26592,"type":"city"},{"id":"co-3666395","label":"Urrao","lat":6.31696,"lon":-76.1342,"type":"city"},{"id":"co-3666381","label":"Urumita","lat":10.56095,"lon":-73.0134,"type":"city"},{"id":"co-3666370","label":"Usiacuri","lat":10.74313,"lon":-74.97604,"type":"city"},{"id":"co-3666333","label":"Valdivia","lat":7.29382,"lon":-75.3919,"type":"city"},{"id":"co-3666326","label":"Valencia","lat":8.25801,"lon":-76.14928,"type":"city"},{"id":"co-3827723","label":"Valle del Guamuez","lat":0.4525,"lon":-76.91917,"type":"city"},{"id":"co-3666304","label":"Valledupar","lat":10.46538,"lon":-73.2531,"type":"city"},{"id":"co-3666291","label":"Valparaiso","lat":1.19403,"lon":-75.70746,"type":"city"},{"id":"co-3792377","label":"Vegachi","lat":6.76141,"lon":-74.79473,"type":"city"},{"id":"co-3666232","label":"Velez","lat":6.01335,"lon":-73.67352,"type":"city"},{"id":"co-3666226","label":"Venadillo","lat":4.71929,"lon":-74.92918,"type":"city"},{"id":"co-3666193","label":"Venecia","lat":5.96278,"lon":-75.73806,"type":"city"},{"id":"co-3666042","label":"Vigia del Fuerte","lat":6.58933,"lon":-76.89599,"type":"city"},{"id":"co-3666003","label":"Villa de Leyva","lat":5.63413,"lon":-73.52438,"type":"city"},{"id":"co-3666519","label":"Villa de San Diego de Ubate","lat":5.30933,"lon":-73.81575,"type":"city"},{"id":"co-3665913","label":"Villa del Rosario","lat":7.83389,"lon":-72.47417,"type":"city"},{"id":"co-3770955","label":"Villa Rica","lat":2.5142,"lon":-76.84939,"type":"city"},{"id":"co-3665992","label":"Villagarzon","lat":1.0375,"lon":-76.62667,"type":"city"},{"id":"co-3665973","label":"Villamaria","lat":5.04565,"lon":-75.51474,"type":"city"},{"id":"co-3665934","label":"Villanueva","lat":10.60768,"lon":-72.97901,"type":"city"},{"id":"co-3665935","label":"Villanueva","lat":10.44361,"lon":-75.27306,"type":"city"},{"id":"co-3665951","label":"Villanueva","lat":5.28333,"lon":-71.96667,"type":"city"},{"id":"co-3665924","label":"Villapinzon","lat":5.21617,"lon":-73.5949,"type":"city"},{"id":"co-3665900","label":"Villavicencio","lat":4.13238,"lon":-73.62564,"type":"city"},{"id":"co-3665895","label":"Villeta","lat":5.00886,"lon":-74.47226,"type":"city"},{"id":"co-3665881","label":"Viota","lat":4.43713,"lon":-74.52157,"type":"city"},{"id":"co-3665851","label":"Viterbo","lat":5.06242,"lon":-75.87159,"type":"city"},{"id":"co-3665813","label":"Yacopi","lat":5.45948,"lon":-74.33823,"type":"city"},{"id":"co-3665811","label":"Yacuanquer","lat":1.11577,"lon":-77.40169,"type":"city"},{"id":"co-3665803","label":"Yaguara","lat":2.66355,"lon":-75.51753,"type":"city"},{"id":"co-3665741","label":"Yarumal","lat":6.96321,"lon":-75.41738,"type":"city"},{"id":"co-3665693","label":"Yolombo","lat":6.59841,"lon":-75.0114,"type":"city"},{"id":"co-3665691","label":"Yondo","lat":7.00621,"lon":-73.90972,"type":"city"},{"id":"co-3665688","label":"Yopal","lat":5.33573,"lon":-72.3939,"type":"city"},{"id":"co-3665678","label":"Yotoco","lat":3.86048,"lon":-76.38364,"type":"city"},{"id":"co-3665657","label":"Yumbo","lat":3.58234,"lon":-76.49146,"type":"city"},{"id":"co-3665616","label":"Zambrano","lat":9.7474,"lon":-74.81572,"type":"city"},{"id":"co-3665587","label":"Zapatoca","lat":6.81532,"lon":-73.26768,"type":"city"},{"id":"co-3665566","label":"Zaragoza","lat":7.48971,"lon":-74.86919,"type":"city"},{"id":"co-3665559","label":"Zarzal","lat":4.39462,"lon":-76.0715,"type":"city"},{"id":"co-3665542","label":"Zipaquira","lat":5.02208,"lon":-74.00481,"type":"city"}]