[{"id":"gh-2306224","label":"Aboso","lat":5.36073,"lon":-1.94856,"type":"city"},{"id":"gh-2306119","label":"Aburi","lat":5.84802,"lon":-0.17449,"type":"city"},{"id":"gh-2306104","label":"Accra","lat":5.55602,"lon":-0.1969,"type":"city"},{"id":"gh-7648641","label":"Adenta","lat":5.71417,"lon":-0.15418,"type":"city"},{"id":"gh-2305677","label":"Aflao","lat":6.11982,"lon":1.19012,"type":"city"},{"id":"gh-2305537","label":"Agogo","lat":6.80004,"lon":-1.08193,"type":"city"},{"id":"gh-2301245","label":"Ahwiaa","lat":6.76051,"lon":-1.59402,"type":"city"},{"id":"gh-13275281","label":"Ahwiaa","lat":6.90306,"lon":-1.65199,"type":"city"},{"id":"gh-2305191","label":"Akatsi","lat":6.1316,"lon":0.79853,"type":"city"},{"id":"gh-2296564","label":"Akim Oda","lat":5.92665,"lon":-0.98577,"type":"city"},{"id":"gh-2305164","label":"Akim Swedru","lat":5.8938,"lon":-1.01636,"type":"city"},{"id":"gh-2305027","label":"Akropong","lat":5.97462,"lon":-0.08542,"type":"city"},{"id":"gh-2304931","label":"Akwatia","lat":6.04024,"lon":-0.80876,"type":"city"},{"id":"gh-2304848","label":"Amanfrom","lat":5.53532,"lon":-0.39827,"type":"city"},{"id":"gh-2304548","label":"Anloga","lat":5.79473,"lon":0.89728,"type":"city"},{"id":"gh-2304421","label":"Anyinam","lat":6.38158,"lon":-0.54932,"type":"city"},{"id":"gh-2304389","label":"Apam","lat":5.285,"lon":-0.746,"type":"city"},{"id":"gh-2304220","label":"Asamankese","lat":5.86006,"lon":-0.6635,"type":"city"},{"id":"gh-2304121","label":"Ashaiman","lat":5.69951,"lon":-0.03484,"type":"city"},{"id":"gh-11467879","label":"Assin Foso","lat":5.7,"lon":-1.65,"type":"city"},{"id":"gh-2303878","label":"Atebubu","lat":7.75537,"lon":-0.98085,"type":"city"},{"id":"gh-2303789","label":"Atronie","lat":7.15341,"lon":-2.40496,"type":"city"},{"id":"gh-2306079","label":"Atsiaman","lat":5.69775,"lon":-0.32824,"type":"city"},{"id":"gh-8457205","label":"Awoshi","lat":5.58385,"lon":-0.27787,"type":"city"},{"id":"gh-2303287","label":"Bawku","lat":11.05926,"lon":-0.24249,"type":"city"},{"id":"gh-2303258","label":"Bechem","lat":7.09034,"lon":-2.02498,"type":"city"},{"id":"gh-2303236","label":"Begoro","lat":6.38706,"lon":-0.37738,"type":"city"},{"id":"gh-2303224","label":"Bekwai","lat":6.45195,"lon":-1.57866,"type":"city"},{"id":"gh-2303125","label":"Berekum","lat":7.4534,"lon":-2.58404,"type":"city"},{"id":"gh-2303060","label":"Bibiani","lat":6.45196,"lon":-2.31635,"type":"city"},{"id":"gh-2303026","label":"Bimbila","lat":8.85488,"lon":0.05922,"type":"city"},{"id":"gh-2302821","label":"Bolgatanga","lat":10.78556,"lon":-0.85139,"type":"city"},{"id":"gh-2302541","label":"Buduburam","lat":5.52314,"lon":-0.47718,"type":"city"},{"id":"gh-2302357","label":"Cape Coast","lat":5.10535,"lon":-1.2466,"type":"city"},{"id":"gh-2301424","label":"Dambai","lat":8.06616,"lon":0.17947,"type":"city"},{"id":"gh-2302002","label":"Damongo","lat":9.08296,"lon":-1.81884,"type":"city"},{"id":"gh-2301529","label":"Domaa-Ahenkro","lat":7.27386,"lon":-2.87348,"type":"city"},{"id":"gh-2301639","label":"Dome","lat":5.65003,"lon":-0.2361,"type":"city"},{"id":"gh-2301464","label":"Duayaw-Nkwanta","lat":7.17487,"lon":-2.09961,"type":"city"},{"id":"gh-2301400","label":"Dunkwa","lat":5.95996,"lon":-1.77792,"type":"city"},{"id":"gh-2301367","label":"Dzodze","lat":6.23669,"lon":0.99578,"type":"city"},{"id":"gh-7281088","label":"Effiduase","lat":6.84684,"lon":-1.39612,"type":"city"},{"id":"gh-2301217","label":"Ejura","lat":7.38558,"lon":-1.35617,"type":"city"},{"id":"gh-2301190","label":"Elmina","lat":5.0847,"lon":-1.35093,"type":"city"},{"id":"gh-2301184","label":"Elubo","lat":5.28515,"lon":-2.76658,"type":"city"},{"id":"gh-2303611","label":"Esim","lat":4.86641,"lon":-2.24181,"type":"city"},{"id":"gh-2300883","label":"Foso","lat":5.70119,"lon":-1.28657,"type":"city"},{"id":"gh-2300721","label":"Gbawe","lat":5.57692,"lon":-0.31038,"type":"city"},{"id":"gh-2300749","label":"Goaso","lat":6.80355,"lon":-2.5172,"type":"city"},{"id":"gh-2300379","label":"Ho","lat":6.60084,"lon":0.4713,"type":"city"},{"id":"gh-2300372","label":"Hohoe","lat":7.15181,"lon":0.47362,"type":"city"},{"id":"gh-2300182","label":"Japekrom","lat":7.5758,"lon":-2.78516,"type":"city"},{"id":"gh-2300068","label":"Jirapa","lat":10.53689,"lon":-2.70155,"type":"city"},{"id":"gh-2299945","label":"Kade","lat":6.09392,"lon":-0.83599,"type":"city"},{"id":"gh-2296458","label":"Kasoa","lat":5.53449,"lon":-0.41679,"type":"city"},{"id":"gh-2299645","label":"Keta","lat":5.91793,"lon":0.98789,"type":"city"},{"id":"gh-2299642","label":"Kete Krachi","lat":7.79391,"lon":-0.0498,"type":"city"},{"id":"gh-2299636","label":"Kibi","lat":6.16494,"lon":-0.55376,"type":"city"},{"id":"gh-2299625","label":"Kintampo","lat":8.05627,"lon":-1.73058,"type":"city"},{"id":"gh-2299522","label":"Koforidua","lat":6.09408,"lon":-0.25913,"type":"city"},{"id":"gh-2299349","label":"Konongo","lat":6.61667,"lon":-1.21667,"type":"city"},{"id":"gh-2299236","label":"Kpandae","lat":8.46885,"lon":-0.01127,"type":"city"},{"id":"gh-2299233","label":"Kpandu","lat":6.99536,"lon":0.29306,"type":"city"},{"id":"gh-2298890","label":"Kumasi","lat":6.68848,"lon":-1.62443,"type":"city"},{"id":"gh-11428216","label":"Lashibi","lat":5.68476,"lon":-0.04011,"type":"city"},{"id":"gh-2298264","label":"Mampong","lat":7.06273,"lon":-1.4001,"type":"city"},{"id":"gh-12640505","label":"Mandela","lat":5.55221,"lon":-0.33912,"type":"city"},{"id":"gh-2298205","label":"Mankesim","lat":5.2717,"lon":-1.0152,"type":"city"},{"id":"gh-2298330","label":"Medina Estates","lat":5.6658,"lon":-0.16307,"type":"city"},{"id":"gh-2298005","label":"Mim","lat":6.90412,"lon":-2.56114,"type":"city"},{"id":"gh-2297834","label":"Mpraeso","lat":6.59321,"lon":-0.73462,"type":"city"},{"id":"gh-2297810","label":"Mumford","lat":5.26176,"lon":-0.75897,"type":"city"},{"id":"gh-2297661","label":"Nalerigu","lat":10.52726,"lon":-0.36982,"type":"city"},{"id":"gh-2297505","label":"Navrongo","lat":10.89469,"lon":-1.09083,"type":"city"},{"id":"gh-8541923","label":"New Achimota","lat":5.62657,"lon":-0.25807,"type":"city"},{"id":"gh-2297432","label":"New Tafo","lat":6.71897,"lon":-1.61188,"type":"city"},{"id":"gh-12640506","label":"Nkawkaw","lat":6.54584,"lon":-0.76264,"type":"city"},{"id":"gh-2297289","label":"Nkoranza","lat":7.57127,"lon":-1.7087,"type":"city"},{"id":"gh-2297141","label":"Nsawam","lat":5.80893,"lon":-0.35026,"type":"city"},{"id":"gh-2297126","label":"Nsoatre","lat":7.40353,"lon":-2.46635,"type":"city"},{"id":"gh-2296969","label":"Nungua","lat":5.60105,"lon":-0.07713,"type":"city"},{"id":"gh-2296606","label":"Obuase","lat":6.20228,"lon":-1.66796,"type":"city"},{"id":"gh-8456972","label":"Osu","lat":5.55728,"lon":-0.1864,"type":"city"},{"id":"gh-2295840","label":"Prestea","lat":5.43385,"lon":-2.14295,"type":"city"},{"id":"gh-2295692","label":"Sakumona","lat":5.62135,"lon":-0.05193,"type":"city"},{"id":"gh-2295684","label":"Salaga","lat":8.55083,"lon":-0.51875,"type":"city"},{"id":"gh-2295672","label":"Saltpond","lat":5.20913,"lon":-1.06058,"type":"city"},{"id":"gh-2295663","label":"Saman","lat":6.32388,"lon":-0.50063,"type":"city"},{"id":"gh-2295517","label":"Savelugu","lat":9.62376,"lon":-0.82705,"type":"city"},{"id":"gh-2295506","label":"Sawla","lat":9.27289,"lon":-2.41428,"type":"city"},{"id":"gh-2295468","label":"Sefwi","lat":6.52306,"lon":-1.63596,"type":"city"},{"id":"gh-2294056","label":"Sefwi Wiawso","lat":6.20583,"lon":-2.48944,"type":"city"},{"id":"gh-11808941","label":"Sekondi","lat":4.93422,"lon":-1.71454,"type":"city"},{"id":"gh-2295458","label":"Sekondi-Takoradi","lat":4.92678,"lon":-1.75773,"type":"city"},{"id":"gh-2295385","label":"Shama Junction","lat":5.01806,"lon":-1.66437,"type":"city"},{"id":"gh-2295065","label":"Suhum","lat":6.04089,"lon":-0.45004,"type":"city"},{"id":"gh-2295021","label":"Sunyani","lat":7.33991,"lon":-2.32676,"type":"city"},{"id":"gh-2294962","label":"Swedru","lat":5.53711,"lon":-0.69984,"type":"city"},{"id":"gh-2294938","label":"Tafo","lat":6.73156,"lon":-1.6137,"type":"city"},{"id":"gh-12640508","label":"Taifa","lat":5.65825,"lon":-0.25223,"type":"city"},{"id":"gh-2294915","label":"Takoradi","lat":4.89816,"lon":-1.76029,"type":"city"},{"id":"gh-2294877","label":"Tamale","lat":9.40079,"lon":-0.8393,"type":"city"},{"id":"gh-2294768","label":"Tarkwa","lat":5.30383,"lon":-1.98956,"type":"city"},{"id":"gh-2294727","label":"Techiman","lat":7.59054,"lon":-1.93947,"type":"city"},{"id":"gh-2294700","label":"Tema","lat":5.6698,"lon":-0.01657,"type":"city"},{"id":"gh-11205476","label":"Tema New Town","lat":5.65396,"lon":0.0264,"type":"city"},{"id":"gh-2294676","label":"Tepa","lat":7.00595,"lon":-2.16586,"type":"city"},{"id":"gh-2294665","label":"Teshi Old Town","lat":5.58365,"lon":-0.10722,"type":"city"},{"id":"gh-2294308","label":"Twifu Praso","lat":5.61411,"lon":-1.5502,"type":"city"},{"id":"gh-2294206","label":"Wa","lat":10.06069,"lon":-2.50192,"type":"city"},{"id":"gh-2294086","label":"Wankyi","lat":7.73855,"lon":-2.1036,"type":"city"},{"id":"gh-2294034","label":"Winneba","lat":5.35113,"lon":-0.62313,"type":"city"},{"id":"gh-2293805","label":"Yegyi","lat":8.22542,"lon":-0.64889,"type":"city"},{"id":"gh-2293801","label":"Yendi","lat":9.44272,"lon":-0.00991,"type":"city"}]