[{"id":"gt-3600008","label":"Acatenango","lat":14.55451,"lon":-90.94368,"type":"city"},{"id":"gt-3599912","label":"Aguacatan","lat":15.34222,"lon":-91.31141,"type":"city"},{"id":"gt-3599793","label":"Almolonga","lat":14.81591,"lon":-91.49464,"type":"city"},{"id":"gt-3599788","label":"Alotenango","lat":14.48585,"lon":-90.80437,"type":"city"},{"id":"gt-3599735","label":"Amatitlan","lat":14.4774,"lon":-90.63489,"type":"city"},{"id":"gt-3599699","label":"Antigua Guatemala","lat":14.55636,"lon":-90.7332,"type":"city"},{"id":"gt-3599639","label":"Asuncion Mita","lat":14.33365,"lon":-89.71094,"type":"city"},{"id":"gt-3599633","label":"Atescatempa","lat":14.1755,"lon":-89.74184,"type":"city"},{"id":"gt-3599582","label":"Barberena","lat":14.30739,"lon":-90.36156,"type":"city"},{"id":"gt-3599575","label":"Barillas","lat":15.80361,"lon":-91.31583,"type":"city"},{"id":"gt-3599287","label":"Cabrican","lat":15.07485,"lon":-91.648,"type":"city"},{"id":"gt-3599069","label":"Cantel","lat":14.81154,"lon":-91.45536,"type":"city"},{"id":"gt-3598968","label":"Casillas","lat":14.41915,"lon":-90.24328,"type":"city"},{"id":"gt-3598825","label":"Chahal","lat":15.79122,"lon":-89.60518,"type":"city"},{"id":"gt-3598804","label":"Chajul","lat":15.48523,"lon":-91.0352,"type":"city"},{"id":"gt-3598787","label":"Champerico","lat":14.29206,"lon":-91.91339,"type":"city"},{"id":"gt-3598692","label":"Chiantla","lat":15.35484,"lon":-91.45807,"type":"city"},{"id":"gt-3598678","label":"Chicacao","lat":14.54295,"lon":-91.32636,"type":"city"},{"id":"gt-3598655","label":"Chichicastenango","lat":14.94333,"lon":-91.11116,"type":"city"},{"id":"gt-3598572","label":"Chimaltenango","lat":14.65881,"lon":-90.8216,"type":"city"},{"id":"gt-3598529","label":"Chinautla","lat":14.70289,"lon":-90.49983,"type":"city"},{"id":"gt-3598465","label":"Chiquimula","lat":14.8009,"lon":-89.54641,"type":"city"},{"id":"gt-3598462","label":"Chiquimulilla","lat":14.0838,"lon":-90.38547,"type":"city"},{"id":"gt-3598415","label":"Chisec","lat":15.81311,"lon":-90.28896,"type":"city"},{"id":"gt-3598277","label":"Chuarrancho","lat":14.81794,"lon":-90.51568,"type":"city"},{"id":"gt-3598129","label":"Ciudad Tecun Uman","lat":14.67737,"lon":-92.14039,"type":"city"},{"id":"gt-3598128","label":"Ciudad Vieja","lat":14.52396,"lon":-90.76308,"type":"city"},{"id":"gt-3598122","label":"Coatepeque","lat":14.70413,"lon":-91.86426,"type":"city"},{"id":"gt-3598119","label":"Coban","lat":15.47025,"lon":-90.37455,"type":"city"},{"id":"gt-3598073","label":"Colomba","lat":14.7073,"lon":-91.73167,"type":"city"},{"id":"gt-3598034","label":"Comalapa","lat":14.74086,"lon":-90.88761,"type":"city"},{"id":"gt-3598025","label":"Comitancillo","lat":15.08937,"lon":-91.74971,"type":"city"},{"id":"gt-3597993","label":"Concepcion Chiquirichapa","lat":14.8551,"lon":-91.6236,"type":"city"},{"id":"gt-3598005","label":"Concepcion Huista","lat":15.62378,"lon":-91.66521,"type":"city"},{"id":"gt-3597976","label":"Concepcion Tutuapa","lat":15.2394,"lon":-91.8446,"type":"city"},{"id":"gt-3597837","label":"Cubulco","lat":15.10452,"lon":-90.62871,"type":"city"},{"id":"gt-3597804","label":"Cuilapa","lat":14.27537,"lon":-90.29865,"type":"city"},{"id":"gt-3597772","label":"Cunen","lat":15.33626,"lon":-91.02776,"type":"city"},{"id":"gt-3597750","label":"Cuyotenango","lat":14.54006,"lon":-91.57179,"type":"city"},{"id":"gt-3597722","label":"Dolores","lat":16.51178,"lon":-89.41704,"type":"city"},{"id":"gt-3597587","label":"El Asintal","lat":14.59626,"lon":-91.72744,"type":"city"},{"id":"gt-3597078","label":"El Estor","lat":15.53221,"lon":-89.33111,"type":"city"},{"id":"gt-3596644","label":"El Palmar","lat":14.65083,"lon":-91.578,"type":"city"},{"id":"gt-3596423","label":"El Progreso","lat":14.35604,"lon":-89.84854,"type":"city"},{"id":"gt-3596389","label":"El Quetzal","lat":14.76865,"lon":-91.81757,"type":"city"},{"id":"gt-3596041","label":"El Tejar","lat":14.64683,"lon":-90.79122,"type":"city"},{"id":"gt-3595929","label":"El Tumbador","lat":14.86375,"lon":-91.93416,"type":"city"},{"id":"gt-3595803","label":"Escuintla","lat":14.30097,"lon":-90.78816,"type":"city"},{"id":"gt-3595783","label":"Esquipulas","lat":14.56571,"lon":-89.35166,"type":"city"},{"id":"gt-3595757","label":"Estanzuela","lat":14.99777,"lon":-89.57285,"type":"city"},{"id":"gt-3595725","label":"Flores","lat":16.92258,"lon":-89.89941,"type":"city"},{"id":"gt-3595721","label":"Flores Costa Cuca","lat":14.63238,"lon":-91.86341,"type":"city"},{"id":"gt-3595714","label":"Fraijanes","lat":14.46528,"lon":-90.44083,"type":"city"},{"id":"gt-3595560","label":"Gualan","lat":15.11952,"lon":-89.35721,"type":"city"},{"id":"gt-3596421","label":"Guastatoya","lat":14.85442,"lon":-90.06991,"type":"city"},{"id":"gt-3598132","label":"Guatemala City","lat":14.64072,"lon":-90.51327,"type":"city"},{"id":"gt-3595503","label":"Guazacapan","lat":14.07417,"lon":-90.41667,"type":"city"},{"id":"gt-3595416","label":"Huehuetenango","lat":15.32097,"lon":-91.47001,"type":"city"},{"id":"gt-3595406","label":"Huitan","lat":15.0492,"lon":-91.63944,"type":"city"},{"id":"gt-3595366","label":"Ipala","lat":14.61987,"lon":-89.6194,"type":"city"},{"id":"gt-3595248","label":"Jacaltenango","lat":15.66662,"lon":-91.71177,"type":"city"},{"id":"gt-3595237","label":"Jalapa","lat":14.63542,"lon":-89.99112,"type":"city"},{"id":"gt-3595232","label":"Jalpatagua","lat":14.1369,"lon":-90.00908,"type":"city"},{"id":"gt-3595181","label":"Jocotan","lat":14.82072,"lon":-89.38991,"type":"city"},{"id":"gt-3595171","label":"Jocotenango","lat":14.57814,"lon":-90.73804,"type":"city"},{"id":"gt-3595148","label":"Joyabaj","lat":14.99311,"lon":-90.80161,"type":"city"},{"id":"gt-3595069","label":"Jutiapa","lat":14.28491,"lon":-89.88798,"type":"city"},{"id":"gt-3594753","label":"La Democracia","lat":14.22919,"lon":-90.94806,"type":"city"},{"id":"gt-3594703","label":"La Esperanza","lat":14.87169,"lon":-91.5614,"type":"city"},{"id":"gt-3594575","label":"La Gomera","lat":14.08213,"lon":-91.05383,"type":"city"},{"id":"gt-3594422","label":"La Libertad","lat":16.7885,"lon":-90.11698,"type":"city"},{"id":"gt-3594423","label":"La Libertad","lat":15.51421,"lon":-91.86944,"type":"city"},{"id":"gt-3593376","label":"Livingston","lat":15.82826,"lon":-88.75039,"type":"city"},{"id":"gt-3592770","label":"Magdalena Milpas Altas","lat":14.54801,"lon":-90.67477,"type":"city"},{"id":"gt-3592753","label":"Malacatan","lat":14.91132,"lon":-92.05788,"type":"city"},{"id":"gt-3592642","label":"Masagua","lat":14.20306,"lon":-90.84806,"type":"city"},{"id":"gt-3592635","label":"Mataquescuintla","lat":14.52917,"lon":-90.18417,"type":"city"},{"id":"gt-3592609","label":"Mazatenango","lat":14.53412,"lon":-91.50311,"type":"city"},{"id":"gt-3598131","label":"Melchor de Mencos","lat":17.06606,"lon":-89.15229,"type":"city"},{"id":"gt-3592519","label":"Mixco","lat":14.63077,"lon":-90.60711,"type":"city"},{"id":"gt-3592483","label":"Momostenango","lat":15.04437,"lon":-91.40864,"type":"city"},{"id":"gt-3592477","label":"Monjas","lat":14.50309,"lon":-89.87246,"type":"city"},{"id":"gt-3592362","label":"Morales","lat":15.47225,"lon":-88.8407,"type":"city"},{"id":"gt-3592322","label":"Moyuta","lat":14.03861,"lon":-90.08083,"type":"city"},{"id":"gt-3592286","label":"Nahuala","lat":14.8429,"lon":-91.31799,"type":"city"},{"id":"gt-3592237","label":"Nebaj","lat":15.40614,"lon":-91.14682,"type":"city"},{"id":"gt-3592145","label":"Nueva Concepcion","lat":14.2,"lon":-91.3,"type":"city"},{"id":"gt-3592126","label":"Nueva Santa Rosa","lat":14.38111,"lon":-90.27611,"type":"city"},{"id":"gt-11449731","label":"Nuevo Leon","lat":15.79369,"lon":-91.09237,"type":"city"},{"id":"gt-3592108","label":"Nuevo Progreso","lat":14.79174,"lon":-91.91946,"type":"city"},{"id":"gt-3592105","label":"Nuevo San Carlos","lat":14.593,"lon":-91.6939,"type":"city"},{"id":"gt-3592019","label":"Oratorio","lat":14.22806,"lon":-90.17583,"type":"city"},{"id":"gt-3591997","label":"Ostuncalco","lat":14.86899,"lon":-91.62137,"type":"city"},{"id":"gt-3591885","label":"Pajapita","lat":14.72152,"lon":-92.03521,"type":"city"},{"id":"gt-3591851","label":"Palencia","lat":14.66715,"lon":-90.35721,"type":"city"},{"id":"gt-3591833","label":"Palin","lat":14.40358,"lon":-90.69659,"type":"city"},{"id":"gt-3591750","label":"Panajachel","lat":14.74185,"lon":-91.15676,"type":"city"},{"id":"gt-3591676","label":"Panzos","lat":15.39862,"lon":-89.64147,"type":"city"},{"id":"gt-3591629","label":"Parramos","lat":14.60891,"lon":-90.80303,"type":"city"},{"id":"gt-3591574","label":"Pastores","lat":14.59433,"lon":-90.75473,"type":"city"},{"id":"gt-3591541","label":"Patulul","lat":14.42321,"lon":-91.16049,"type":"city"},{"id":"gt-3591523","label":"Patzicia","lat":14.63194,"lon":-90.92659,"type":"city"},{"id":"gt-3591512","label":"Patzun","lat":14.68189,"lon":-91.01397,"type":"city"},{"id":"gt-3591415","label":"Petapa","lat":14.50189,"lon":-90.56196,"type":"city"},{"id":"gt-3591181","label":"Poptun","lat":16.33111,"lon":-89.41694,"type":"city"},{"id":"gt-3591062","label":"Puerto Barrios","lat":15.72724,"lon":-88.59787,"type":"city"},{"id":"gt-3591060","label":"Puerto San Jose","lat":13.92216,"lon":-90.81906,"type":"city"},{"id":"gt-3591028","label":"Purulha","lat":15.23566,"lon":-90.23571,"type":"city"},{"id":"gt-3590979","label":"Quetzaltenango","lat":14.84462,"lon":-91.52316,"type":"city"},{"id":"gt-3590924","label":"Rabinal","lat":15.0853,"lon":-90.49255,"type":"city"},{"id":"gt-3590858","label":"Retalhuleu","lat":14.53575,"lon":-91.67848,"type":"city"},{"id":"gt-3590804","label":"Rio Bravo","lat":14.40042,"lon":-91.31713,"type":"city"},{"id":"gt-3590788","label":"Rio Hondo","lat":15.04505,"lon":-89.58523,"type":"city"},{"id":"gt-3590690","label":"Sacapulas","lat":15.28801,"lon":-91.08914,"type":"city"},{"id":"gt-3590616","label":"Salama","lat":15.1021,"lon":-90.31906,"type":"city"},{"id":"gt-3590605","label":"Salcaja","lat":14.87964,"lon":-91.45699,"type":"city"},{"id":"gt-3590567","label":"Samayac","lat":14.58084,"lon":-91.46135,"type":"city"},{"id":"gt-3590547","label":"San Agustin Acasaguastlan","lat":14.945,"lon":-89.96967,"type":"city"},{"id":"gt-3590537","label":"San Andres","lat":16.96863,"lon":-89.91181,"type":"city"},{"id":"gt-3590529","label":"San Andres Itzapa","lat":14.62222,"lon":-90.84314,"type":"city"},{"id":"gt-3590522","label":"San Andres Villa Seca","lat":14.57801,"lon":-91.58539,"type":"city"},{"id":"gt-3590520","label":"San Andres Xecul","lat":14.90482,"lon":-91.48307,"type":"city"},{"id":"gt-3590475","label":"San Antonio Aguas Calientes","lat":14.54676,"lon":-90.78054,"type":"city"},{"id":"gt-3590458","label":"San Antonio Huista","lat":15.6501,"lon":-91.77163,"type":"city"},{"id":"gt-3590449","label":"San Antonio La Paz","lat":14.75888,"lon":-90.28485,"type":"city"},{"id":"gt-3590412","label":"San Antonio Suchitepequez","lat":14.53938,"lon":-91.41442,"type":"city"},{"id":"gt-3590393","label":"San Bartolome Milpas Altas","lat":14.6069,"lon":-90.67807,"type":"city"},{"id":"gt-3590389","label":"San Benito","lat":16.91675,"lon":-89.91898,"type":"city"},{"id":"gt-3590384","label":"San Bernardino","lat":14.5424,"lon":-91.45811,"type":"city"},{"id":"gt-3590347","label":"San Carlos Sija","lat":14.98436,"lon":-91.54912,"type":"city"},{"id":"gt-3590323","label":"San Cristobal Cucho","lat":14.90505,"lon":-91.78123,"type":"city"},{"id":"gt-3590316","label":"San Cristobal Verapaz","lat":15.36663,"lon":-90.47825,"type":"city"},{"id":"gt-3590288","label":"San Felipe","lat":14.62304,"lon":-91.595,"type":"city"},{"id":"gt-3590219","label":"San Francisco El Alto","lat":14.9449,"lon":-91.4431,"type":"city"},{"id":"gt-3590197","label":"San Francisco Zapotitlan","lat":14.58939,"lon":-91.52144,"type":"city"},{"id":"gt-3590114","label":"San Jeronimo","lat":15.06032,"lon":-90.2405,"type":"city"},{"id":"gt-3590053","label":"San Jose Acatempa","lat":14.26528,"lon":-90.12694,"type":"city"},{"id":"gt-3589977","label":"San Jose Pinula","lat":14.546,"lon":-90.41288,"type":"city"},{"id":"gt-3589975","label":"San Jose Poaquil","lat":14.81808,"lon":-90.91248,"type":"city"},{"id":"gt-3589917","label":"San Juan Chamelco","lat":15.42433,"lon":-90.33044,"type":"city"},{"id":"gt-3589913","label":"San Juan Cotzal","lat":15.43368,"lon":-91.03481,"type":"city"},{"id":"gt-3589885","label":"San Juan Sacatepequez","lat":14.71889,"lon":-90.64417,"type":"city"},{"id":"gt-3589852","label":"San Lucas Sacatepequez","lat":14.61075,"lon":-90.65681,"type":"city"},{"id":"gt-3589850","label":"San Lucas Toliman","lat":14.59471,"lon":-91.14659,"type":"city"},{"id":"gt-3589841","label":"San Luis","lat":16.19889,"lon":-89.44028,"type":"city"},{"id":"gt-3589822","label":"San Luis Jilotepeque","lat":14.64724,"lon":-89.72463,"type":"city"},{"id":"gt-3589805","label":"San Marcos","lat":14.96437,"lon":-91.79486,"type":"city"},{"id":"gt-3589780","label":"San Martin Jilotepeque","lat":14.78008,"lon":-90.79259,"type":"city"},{"id":"gt-3589774","label":"San Mateo","lat":14.858,"lon":-91.59004,"type":"city"},{"id":"gt-3589770","label":"San Mateo Ixtatan","lat":15.83194,"lon":-91.47806,"type":"city"},{"id":"gt-3589730","label":"San Miguel Chicaj","lat":15.09472,"lon":-90.39442,"type":"city"},{"id":"gt-3589727","label":"San Miguel Duenas","lat":14.52241,"lon":-90.79938,"type":"city"},{"id":"gt-3589706","label":"San Miguel Siguila","lat":14.89547,"lon":-91.61457,"type":"city"},{"id":"gt-3589677","label":"San Pablo","lat":14.93269,"lon":-92.00415,"type":"city"},{"id":"gt-3589671","label":"San Pablo Jocopilas","lat":14.58882,"lon":-91.45188,"type":"city"},{"id":"gt-3589669","label":"San Pablo La Laguna","lat":14.72092,"lon":-91.27242,"type":"city"},{"id":"gt-3589646","label":"San Pedro Ayampuc","lat":14.77943,"lon":-90.45318,"type":"city"},{"id":"gt-3589643","label":"San Pedro Carcha","lat":15.47745,"lon":-90.31105,"type":"city"},{"id":"gt-3589637","label":"San Pedro La Laguna","lat":14.69297,"lon":-91.27201,"type":"city"},{"id":"gt-3589626","label":"San Pedro Sacatepequez","lat":14.96807,"lon":-91.76172,"type":"city"},{"id":"gt-3589627","label":"San Pedro Sacatepequez","lat":14.68612,"lon":-90.64253,"type":"city"},{"id":"gt-3589569","label":"San Raimundo","lat":14.76462,"lon":-90.59493,"type":"city"},{"id":"gt-3589548","label":"San Sebastian","lat":14.56177,"lon":-91.64865,"type":"city"},{"id":"gt-3589036","label":"San Vicente Pacaya","lat":14.41466,"lon":-90.63613,"type":"city"},{"id":"gt-3590406","label":"Sanarate","lat":14.78828,"lon":-90.19876,"type":"city"},{"id":"gt-3589507","label":"Santa Ana","lat":16.80582,"lon":-89.82708,"type":"city"},{"id":"gt-3589475","label":"Santa Barbara","lat":14.43563,"lon":-91.22685,"type":"city"},{"id":"gt-3589458","label":"Santa Catarina Ixtahuacan","lat":14.79797,"lon":-91.35866,"type":"city"},{"id":"gt-3589456","label":"Santa Catarina Mita","lat":14.45131,"lon":-89.74285,"type":"city"},{"id":"gt-3589452","label":"Santa Catarina Pinula","lat":14.57047,"lon":-90.49925,"type":"city"},{"id":"gt-3589433","label":"Santa Clara La Laguna","lat":14.71509,"lon":-91.30355,"type":"city"},{"id":"gt-3589408","label":"Santa Cruz Balanya","lat":14.68522,"lon":-90.91906,"type":"city"},{"id":"gt-3589404","label":"Santa Cruz del Quiche","lat":15.02995,"lon":-91.14876,"type":"city"},{"id":"gt-3589398","label":"Santa Cruz Naranjo","lat":14.38806,"lon":-90.36972,"type":"city"},{"id":"gt-3589395","label":"Santa Cruz Verapaz","lat":15.37342,"lon":-90.42857,"type":"city"},{"id":"gt-3589289","label":"Santa Lucia Cotzumalguapa","lat":14.33505,"lon":-91.02339,"type":"city"},{"id":"gt-3589285","label":"Santa Lucia Milpas Altas","lat":14.57655,"lon":-90.67632,"type":"city"},{"id":"gt-3589256","label":"Santa Maria Chiquimula","lat":15.02992,"lon":-91.3292,"type":"city"},{"id":"gt-3589253","label":"Santa Maria de Jesus","lat":14.49452,"lon":-90.71036,"type":"city"},{"id":"gt-3589159","label":"Santa Rosa de Lima","lat":14.38806,"lon":-90.29556,"type":"city"},{"id":"gt-3589105","label":"Santiago Atitlan","lat":14.63823,"lon":-91.22901,"type":"city"},{"id":"gt-3589101","label":"Santiago Sacatepequez","lat":14.6351,"lon":-90.67654,"type":"city"},{"id":"gt-3589074","label":"Santo Domingo Suchitepequez","lat":14.47901,"lon":-91.48327,"type":"city"},{"id":"gt-3589072","label":"Santo Domingo Xenacoj","lat":14.68057,"lon":-90.70012,"type":"city"},{"id":"gt-3589062","label":"Santo Tomas La Union","lat":14.63219,"lon":-91.41075,"type":"city"},{"id":"gt-3588984","label":"Sayaxche","lat":16.52446,"lon":-90.18801,"type":"city"},{"id":"gt-3588858","label":"Senahu","lat":15.4164,"lon":-89.82215,"type":"city"},{"id":"gt-3588698","label":"Solola","lat":14.7707,"lon":-91.18344,"type":"city"},{"id":"gt-3588694","label":"Soloma","lat":15.65841,"lon":-91.42994,"type":"city"},{"id":"gt-3588653","label":"Sumpango","lat":14.64623,"lon":-90.73427,"type":"city"},{"id":"gt-3588612","label":"Tacana","lat":15.24058,"lon":-92.06721,"type":"city"},{"id":"gt-3588603","label":"Tactic","lat":15.32218,"lon":-90.35448,"type":"city"},{"id":"gt-3588491","label":"Taxisco","lat":14.06719,"lon":-90.46791,"type":"city"},{"id":"gt-3588476","label":"Tecpan Guatemala","lat":14.76181,"lon":-90.99247,"type":"city"},{"id":"gt-3588469","label":"Teculutan","lat":14.98901,"lon":-89.71936,"type":"city"},{"id":"gt-3591093","label":"Tiquisate","lat":14.28356,"lon":-91.36063,"type":"city"},{"id":"gt-3588258","label":"Totonicapan","lat":14.91188,"lon":-91.36054,"type":"city"},{"id":"gt-3588043","label":"Uspantan","lat":15.34672,"lon":-90.8705,"type":"city"},{"id":"gt-3587923","label":"Villa Canales","lat":14.48285,"lon":-90.53425,"type":"city"},{"id":"gt-3587902","label":"Villa Nueva","lat":14.52512,"lon":-90.58544,"type":"city"},{"id":"gt-3587636","label":"Yepocapa","lat":14.50195,"lon":-90.95396,"type":"city"},{"id":"gt-3587587","label":"Zacapa","lat":14.96867,"lon":-89.52732,"type":"city"},{"id":"gt-3587578","label":"Zacualpa","lat":15.02681,"lon":-90.87815,"type":"city"},{"id":"gt-3587543","label":"Zaragoza","lat":14.64968,"lon":-90.89034,"type":"city"},{"id":"gt-3587510","label":"Zunil","lat":14.78463,"lon":-91.48345,"type":"city"}]