[{"id":"hk-1819757","label":"Aberdeen","lat":22.24802,"lon":114.15289,"type":"city"},{"id":"hk-12719790","label":"Aberdeen Centre","lat":22.24842,"lon":114.15406,"type":"city"},{"id":"hk-8223931","label":"Admiralty","lat":22.28025,"lon":114.16337,"type":"city"},{"id":"hk-12719542","label":"Aldrich Bay","lat":22.28203,"lon":114.22474,"type":"city"},{"id":"hk-12719617","label":"Aldrich Garden","lat":22.28082,"lon":114.22857,"type":"city"},{"id":"hk-12719431","label":"Ap Lei Chau Estate","lat":22.24473,"lon":114.15052,"type":"city"},{"id":"hk-12719800","label":"Baguio Villa","lat":22.26234,"lon":114.13364,"type":"city"},{"id":"hk-12719561","label":"Banyan Garden","lat":22.3346,"lon":114.14797,"type":"city"},{"id":"hk-12719438","label":"Braemar Hill","lat":22.28282,"lon":114.20034,"type":"city"},{"id":"hk-12689065","label":"Butterfly","lat":22.37591,"lon":113.96251,"type":"city"},{"id":"hk-1818428","label":"Causeway Bay","lat":22.28189,"lon":114.18515,"type":"city"},{"id":"hk-8223932","label":"Central","lat":22.28299,"lon":114.15846,"type":"city"},{"id":"hk-12719809","label":"Charming Garden","lat":22.31382,"lon":114.1647,"type":"city"},{"id":"hk-1819983","label":"Che Ha","lat":22.43021,"lon":114.26264,"type":"city"},{"id":"hk-12719612","label":"Cheerful Garden","lat":22.263,"lon":114.25063,"type":"city"},{"id":"hk-1819980","label":"Chek Chue","lat":22.21849,"lon":114.21241,"type":"city"},{"id":"hk-1819968","label":"Cheung Chau","lat":22.21085,"lon":114.02787,"type":"city"},{"id":"hk-1819952","label":"Cheung Sha Wan","lat":22.33447,"lon":114.1558,"type":"city"},{"id":"hk-12719795","label":"Chi Fu Fa Yuen","lat":22.25582,"lon":114.13928,"type":"city"},{"id":"hk-1819932","label":"Choi Hung","lat":22.33548,"lon":114.20638,"type":"city"},{"id":"hk-12746531","label":"Choi Hung Estate","lat":22.33636,"lon":114.20581,"type":"city"},{"id":"hk-12689060","label":"Choi Wan","lat":22.33385,"lon":114.21368,"type":"city"},{"id":"hk-12746532","label":"Choi Wan Estate (I & II)","lat":22.33337,"lon":114.21331,"type":"city"},{"id":"hk-12719836","label":"Chong Chien Court - Wyler Gardens","lat":22.31811,"lon":114.19205,"type":"city"},{"id":"hk-1819923","label":"Chuk Yuen","lat":22.34544,"lon":114.19327,"type":"city"},{"id":"hk-12746517","label":"Chuk Yuen North Estate","lat":22.34592,"lon":114.19197,"type":"city"},{"id":"hk-12746518","label":"Chuk Yuen South Estate","lat":22.34457,"lon":114.19282,"type":"city"},{"id":"hk-12719544","label":"City Garden","lat":22.28997,"lon":114.19259,"type":"city"},{"id":"hk-12640679","label":"City One","lat":22.38679,"lon":114.20275,"type":"city"},{"id":"hk-12719550","label":"Cosmopolitan Estate","lat":22.32161,"lon":114.16162,"type":"city"},{"id":"hk-12719574","label":"Cullinan West","lat":22.32702,"lon":114.15409,"type":"city"},{"id":"hk-1819894","label":"Discovery Bay","lat":22.3,"lon":114.01667,"type":"city"},{"id":"hk-12689054","label":"Discovery Park","lat":22.37621,"lon":114.11141,"type":"city"},{"id":"hk-12689069","label":"Fairview Park","lat":22.46738,"lon":114.04766,"type":"city"},{"id":"hk-1819873","label":"Fanling","lat":22.49487,"lon":114.13949,"type":"city"},{"id":"hk-1819855","label":"Fo Tan","lat":22.39846,"lon":114.19293,"type":"city"},{"id":"hk-7778986","label":"Fortress Hill","lat":22.28858,"lon":114.19417,"type":"city"},{"id":"hk-12719572","label":"Fu Cheong Estate","lat":22.32891,"lon":114.15399,"type":"city"},{"id":"hk-12746536","label":"Fu Shan Estate","lat":22.34278,"lon":114.20865,"type":"city"},{"id":"hk-12689053","label":"Fuk Loi","lat":22.37405,"lon":114.11352,"type":"city"},{"id":"hk-12719614","label":"Fullview Garden","lat":22.26251,"lon":114.25191,"type":"city"},{"id":"hk-12746545","label":"Fung Tak Estate","lat":22.34432,"lon":114.20087,"type":"city"},{"id":"hk-12746528","label":"Galaxia","lat":22.34121,"lon":114.20218,"type":"city"},{"id":"hk-12746519","label":"Grand View Garden","lat":22.34132,"lon":114.20779,"type":"city"},{"id":"hk-12719610","label":"Greenwood Terrace","lat":22.26718,"lon":114.23492,"type":"city"},{"id":"hk-1819775","label":"Ha Tsuen","lat":22.44724,"lon":113.9916,"type":"city"},{"id":"hk-1819791","label":"Hang Hau","lat":22.31811,"lon":114.26994,"type":"city"},{"id":"hk-1819783","label":"Happy Valley","lat":22.26912,"lon":114.18619,"type":"city"},{"id":"hk-12719831","label":"Harbour Place","lat":22.30323,"lon":114.18619,"type":"city"},{"id":"hk-12719613","label":"Harmony Garden","lat":22.26573,"lon":114.2487,"type":"city"},{"id":"hk-12719608","label":"Healthy Village","lat":22.29117,"lon":114.20624,"type":"city"},{"id":"hk-12719592","label":"Heng Fa Chuen","lat":22.27668,"lon":114.24077,"type":"city"},{"id":"hk-12719627","label":"Hing Man Estate","lat":22.26682,"lon":114.2327,"type":"city"},{"id":"hk-12719628","label":"Hing Tung Estate","lat":22.28151,"lon":114.21943,"type":"city"},{"id":"hk-12719629","label":"Hing Wah Estate (I & II)","lat":22.26309,"lon":114.23506,"type":"city"},{"id":"hk-1819731","label":"Ho Man Tin","lat":22.31584,"lon":114.18181,"type":"city"},{"id":"hk-12719822","label":"Ho Man Tin Estate","lat":22.3149,"lon":114.18252,"type":"city"},{"id":"hk-12719808","label":"Hoi Fu Court","lat":22.31631,"lon":114.16466,"type":"city"},{"id":"hk-12719569","label":"Hoi Lai Estate","lat":22.33182,"lon":114.14667,"type":"city"},{"id":"hk-12719571","label":"Hoi Lok Court","lat":22.32781,"lon":114.14913,"type":"city"},{"id":"hk-12719439","label":"Hok Yuen","lat":22.31027,"lon":114.18816,"type":"city"},{"id":"hk-1819729","label":"Hong Kong","lat":22.27832,"lon":114.17469,"type":"city"},{"id":"hk-12747064","label":"Hong Kong Island","lat":22.26302,"lon":114.18419,"type":"city"},{"id":"hk-1819726","label":"Hong Lok Yuen","lat":22.46315,"lon":114.1552,"type":"city"},{"id":"hk-1819718","label":"Hung Hom","lat":22.30715,"lon":114.18532,"type":"city"},{"id":"hk-12719825","label":"Hung Hom Estate","lat":22.308,"lon":114.18929,"type":"city"},{"id":"hk-12640694","label":"Hung Shui Kiu","lat":22.43163,"lon":113.98815,"type":"city"},{"id":"hk-12719813","label":"Island Harbourview","lat":22.31842,"lon":114.15745,"type":"city"},{"id":"hk-12719632","label":"Island Resort","lat":22.26665,"lon":114.2508,"type":"city"},{"id":"hk-1819706","label":"Jardine's Lookout","lat":22.26857,"lon":114.19252,"type":"city"},{"id":"hk-12719548","label":"Jat Min Chuen","lat":22.37609,"lon":114.1914,"type":"city"},{"id":"hk-8224045","label":"Jordan","lat":22.30539,"lon":114.17001,"type":"city"},{"id":"hk-12719828","label":"Ka Wai Chuen","lat":22.30791,"lon":114.18648,"type":"city"},{"id":"hk-12640682","label":"Kadoorie","lat":22.32247,"lon":114.17556,"type":"city"},{"id":"hk-12719838","label":"Kai Ching Estate","lat":22.33289,"lon":114.20304,"type":"city"},{"id":"hk-12640684","label":"Kai Tak","lat":22.32425,"lon":114.19741,"type":"city"},{"id":"hk-1819685","label":"Kam Tin","lat":22.44123,"lon":114.06019,"type":"city"},{"id":"hk-12719445","label":"Kam Ying","lat":22.42285,"lon":114.23664,"type":"city"},{"id":"hk-1819652","label":"Kau Wa Keng","lat":22.3459,"lon":114.13684,"type":"city"},{"id":"hk-12719547","label":"Keng Hau","lat":22.36507,"lon":114.17472,"type":"city"},{"id":"hk-1819638","label":"Kennedy Town","lat":22.28277,"lon":114.12953,"type":"city"},{"id":"hk-12746540","label":"Kingsford Terrace","lat":22.34031,"lon":114.21125,"type":"city"},{"id":"hk-12719543","label":"Kornhill","lat":22.28213,"lon":114.21566,"type":"city"},{"id":"hk-12719609","label":"Kornhill Garden","lat":22.2853,"lon":114.21601,"type":"city"},{"id":"hk-1819609","label":"Kowloon","lat":22.31667,"lon":114.18333,"type":"city"},{"id":"hk-8504415","label":"Kowloon Bay","lat":22.32662,"lon":114.20777,"type":"city"},{"id":"hk-1819607","label":"Kowloon City","lat":22.33047,"lon":114.19222,"type":"city"},{"id":"hk-13308632","label":"Kowloon City Centre","lat":22.32979,"lon":114.18889,"type":"city"},{"id":"hk-1819602","label":"Kowloon Tong","lat":22.33312,"lon":114.17969,"type":"city"},{"id":"hk-13308633","label":"Kowloon West End","lat":22.32848,"lon":114.18514,"type":"city"},{"id":"hk-1819595","label":"Kwai Chung","lat":22.36828,"lon":114.13877,"type":"city"},{"id":"hk-12719441","label":"Kwong Yuen","lat":22.38005,"lon":114.21361,"type":"city"},{"id":"hk-12719585","label":"Kwun Lung Lau","lat":22.28044,"lon":114.12758,"type":"city"},{"id":"hk-1819577","label":"Kwun Tong","lat":22.31184,"lon":114.22176,"type":"city"},{"id":"hk-12689059","label":"Laguna City","lat":22.30554,"lon":114.22861,"type":"city"},{"id":"hk-12719440","label":"Laguna Verde","lat":22.30719,"lon":114.19071,"type":"city"},{"id":"hk-12719830","label":"Laguna Verde (Estate)","lat":22.30767,"lon":114.19288,"type":"city"},{"id":"hk-12719580","label":"Lai Kok Estate","lat":22.33227,"lon":114.15691,"type":"city"},{"id":"hk-12719586","label":"Lai Tak Tsuen","lat":22.27789,"lon":114.1947,"type":"city"},{"id":"hk-12719579","label":"Lai Tsui Court","lat":22.33376,"lon":114.15506,"type":"city"},{"id":"hk-1819554","label":"Lam Tin","lat":22.30933,"lon":114.23634,"type":"city"},{"id":"hk-12719444","label":"Lee On","lat":22.42635,"lon":114.24133,"type":"city"},{"id":"hk-12719557","label":"Lei Cheng Uk Estate","lat":22.33937,"lon":114.15921,"type":"city"},{"id":"hk-12719634","label":"Lei King Wan","lat":22.28389,"lon":114.22328,"type":"city"},{"id":"hk-12640693","label":"Lei Tung","lat":22.24052,"lon":114.15757,"type":"city"},{"id":"hk-12719787","label":"Lei Tung Estate","lat":22.24115,"lon":114.15523,"type":"city"},{"id":"hk-1819529","label":"Leighton Hill","lat":22.2761,"lon":114.18398,"type":"city"},{"id":"hk-12719560","label":"Liberte","lat":22.33465,"lon":114.14886,"type":"city"},{"id":"hk-12719433","label":"LOHAS Park","lat":22.29315,"lon":114.27245,"type":"city"},{"id":"hk-12719429","label":"Lok Fu","lat":22.33727,"lon":114.18725,"type":"city"},{"id":"hk-12746546","label":"Lok Fu Estate","lat":22.33719,"lon":114.18672,"type":"city"},{"id":"hk-12719849","label":"Lok Man Sun Chuen","lat":22.3163,"lon":114.18616,"type":"city"},{"id":"hk-12746539","label":"Lower Wong Tai Sin Estate (I & II)","lat":22.33923,"lon":114.19441,"type":"city"},{"id":"hk-12689050","label":"Luk Yeung","lat":22.37371,"lon":114.11917,"type":"city"},{"id":"hk-12746548","label":"Lung Poon Court","lat":22.34239,"lon":114.19987,"type":"city"},{"id":"hk-1819400","label":"Ma On Shan","lat":22.40613,"lon":114.24079,"type":"city"},{"id":"hk-1819395","label":"Ma Tau Kok","lat":22.3215,"lon":114.1905,"type":"city"},{"id":"hk-1819394","label":"Ma Tau Wai","lat":22.32074,"lon":114.18743,"type":"city"},{"id":"hk-1819374","label":"Ma Wan","lat":22.3523,"lon":114.06002,"type":"city"},{"id":"hk-12640681","label":"Mei Foo","lat":22.33719,"lon":114.13856,"type":"city"},{"id":"hk-12719566","label":"Mei Foo Sun Chuen","lat":22.33636,"lon":114.14018,"type":"city"},{"id":"hk-12719810","label":"Metro Harbour","lat":22.32447,"lon":114.16028,"type":"city"},{"id":"hk-1819361","label":"Mid Levels","lat":22.28399,"lon":114.14958,"type":"city"},{"id":"hk-12719596","label":"Ming Wah Dai Ha","lat":22.27778,"lon":114.23108,"type":"city"},{"id":"hk-1819353","label":"Mong Kok","lat":22.31935,"lon":114.17136,"type":"city"},{"id":"hk-1819339","label":"Mount Davis","lat":22.27862,"lon":114.11777,"type":"city"},{"id":"hk-12719437","label":"Mount Parker","lat":22.26638,"lon":114.21833,"type":"city"},{"id":"hk-1819333","label":"Mui Wo Kau Tsuen","lat":22.26886,"lon":113.98609,"type":"city"},{"id":"hk-1819326","label":"Nai Chung","lat":22.43116,"lon":114.25753,"type":"city"},{"id":"hk-12689055","label":"Nam Cheong","lat":22.32799,"lon":114.15389,"type":"city"},{"id":"hk-12719603","label":"Nam Fung Sun Chuen","lat":22.28247,"lon":114.21475,"type":"city"},{"id":"hk-12719564","label":"Nam Shan Estate","lat":22.33477,"lon":114.17182,"type":"city"},{"id":"hk-12747063","label":"New Territories","lat":22.42441,"lon":114.11095,"type":"city"},{"id":"hk-1819230","label":"Ngong Ping","lat":22.25556,"lon":113.90391,"type":"city"},{"id":"hk-12719847","label":"Oi Man Estate","lat":22.31197,"lon":114.17853,"type":"city"},{"id":"hk-12719616","label":"Oi Tung Estate","lat":22.28173,"lon":114.22786,"type":"city"},{"id":"hk-12689056","label":"Olympic","lat":22.31939,"lon":114.15736,"type":"city"},{"id":"hk-1819142","label":"Pak Shek Kok","lat":22.42734,"lon":114.20366,"type":"city"},{"id":"hk-12719553","label":"Pak Tin Estate","lat":22.33713,"lon":114.16673,"type":"city"},{"id":"hk-12719549","label":"Parc Oasis","lat":22.33332,"lon":114.17488,"type":"city"},{"id":"hk-12689063","label":"Pat Heung","lat":22.4461,"lon":114.09226,"type":"city"},{"id":"hk-1819112","label":"Peng Chau","lat":22.28333,"lon":114.03333,"type":"city"},{"id":"hk-1819101","label":"Ping Shan","lat":22.44111,"lon":114.00608,"type":"city"},{"id":"hk-1819091","label":"Pok Fu Lam","lat":22.26861,"lon":114.12924,"type":"city"},{"id":"hk-12687141","label":"Pok Hong","lat":22.37558,"lon":114.19584,"type":"city"},{"id":"hk-12687144","label":"Prince Edward","lat":22.3236,"lon":114.17938,"type":"city"},{"id":"hk-1819072","label":"Pui O","lat":22.24597,"lon":113.97817,"type":"city"},{"id":"hk-1819064","label":"Quarry Bay","lat":22.28768,"lon":114.2135,"type":"city"},{"id":"hk-12719788","label":"Residence Bel-air","lat":22.25466,"lon":114.13289,"type":"city"},{"id":"hk-12746526","label":"Rhythm Garden","lat":22.33617,"lon":114.20272,"type":"city"},{"id":"hk-1819050","label":"Sai Kung","lat":22.38333,"lon":114.26667,"type":"city"},{"id":"hk-1819031","label":"Sai Wan","lat":22.28124,"lon":114.12554,"type":"city"},{"id":"hk-1819029","label":"Sai Wan Ho","lat":22.28449,"lon":114.2232,"type":"city"},{"id":"hk-1819026","label":"Sai Ying Pun","lat":22.28998,"lon":114.14223,"type":"city"},{"id":"hk-12719540","label":"Sam Shing","lat":22.38128,"lon":113.97872,"type":"city"},{"id":"hk-1819003","label":"San Po Kong","lat":22.33546,"lon":114.19669,"type":"city"},{"id":"hk-1818992","label":"San Tin","lat":22.37193,"lon":114.18385,"type":"city"},{"id":"hk-1818996","label":"San Tin","lat":22.50166,"lon":114.06932,"type":"city"},{"id":"hk-1819283","label":"San Tung Chung Hang","lat":22.27875,"lon":113.94307,"type":"city"},{"id":"hk-1818972","label":"Sau Mau Ping","lat":22.3202,"lon":114.23497,"type":"city"},{"id":"hk-1818923","label":"Sha Tau Kok","lat":22.54569,"lon":114.22379,"type":"city"},{"id":"hk-1818920","label":"Sha Tin","lat":22.38333,"lon":114.18333,"type":"city"},{"id":"hk-1818916","label":"Sha Tin Wai","lat":22.37756,"lon":114.19753,"type":"city"},{"id":"hk-1818953","label":"Sham Shui Po","lat":22.33023,"lon":114.15945,"type":"city"},{"id":"hk-1818950","label":"Sham Tseng","lat":22.36667,"lon":114.05,"type":"city"},{"id":"hk-12719430","label":"Shap Pat Heung","lat":22.4248,"lon":114.03581,"type":"city"},{"id":"hk-1818911","label":"Shau Kei Wan","lat":22.27771,"lon":114.22864,"type":"city"},{"id":"hk-1818905","label":"Shek Kip Mei","lat":22.33146,"lon":114.16799,"type":"city"},{"id":"hk-12719555","label":"Shek Kip Mei Estate","lat":22.33412,"lon":114.16531,"type":"city"},{"id":"hk-1818892","label":"Shek Lei","lat":22.36613,"lon":114.13982,"type":"city"},{"id":"hk-1818883","label":"Shek O","lat":22.23344,"lon":114.25121,"type":"city"},{"id":"hk-1818880","label":"Shek Pai Wan Estate","lat":22.2493,"lon":114.15812,"type":"city"},{"id":"hk-1818868","label":"Shek Wai Kok","lat":22.37546,"lon":114.12411,"type":"city"},{"id":"hk-1818845","label":"Sheung Shui","lat":22.51667,"lon":114.11667,"type":"city"},{"id":"hk-1818817","label":"Shuen Wan","lat":22.46767,"lon":114.20812,"type":"city"},{"id":"hk-12687143","label":"Shui Chuen O","lat":22.37161,"lon":114.19778,"type":"city"},{"id":"hk-1818789","label":"Siu Chik Sha","lat":22.30086,"lon":114.27471,"type":"city"},{"id":"hk-12689067","label":"Siu Hei","lat":22.37359,"lon":113.9671,"type":"city"},{"id":"hk-1818781","label":"Siu Lek Yuen","lat":22.38174,"lon":114.21256,"type":"city"},{"id":"hk-12719587","label":"Siu Sai Wan Estate","lat":22.26155,"lon":114.24881,"type":"city"},{"id":"hk-12719846","label":"Sky Tower","lat":22.3235,"lon":114.18982,"type":"city"},{"id":"hk-1818771","label":"So Kwun Wat","lat":22.37594,"lon":114.00682,"type":"city"},{"id":"hk-1818770","label":"So Kwun Wat Tsuen","lat":22.3849,"lon":114.00448,"type":"city"},{"id":"hk-12640674","label":"So Uk","lat":22.34131,"lon":114.15679,"type":"city"},{"id":"hk-12719581","label":"So Uk Estate","lat":22.34153,"lon":114.15653,"type":"city"},{"id":"hk-1818775","label":"Sok Kwu Wan","lat":22.20453,"lon":114.13159,"type":"city"},{"id":"hk-12719814","label":"Sorrento","lat":22.30641,"lon":114.16226,"type":"city"},{"id":"hk-12719432","label":"South Horizons","lat":22.24383,"lon":114.14828,"type":"city"},{"id":"hk-12719791","label":"South Horizons (Estate)","lat":22.24411,"lon":114.14616,"type":"city"},{"id":"hk-12689062","label":"Sun Tin Wai","lat":22.37058,"lon":114.18696,"type":"city"},{"id":"hk-12640671","label":"Sung Wong Toi","lat":22.32466,"lon":114.19149,"type":"city"},{"id":"hk-1818734","label":"Tai Hang","lat":22.27851,"lon":114.1922,"type":"city"},{"id":"hk-12719551","label":"Tai Hang Estate (East & West)","lat":22.33209,"lon":114.17068,"type":"city"},{"id":"hk-1818721","label":"Tai Kok Tsui","lat":22.32146,"lon":114.163,"type":"city"},{"id":"hk-10170102","label":"Tai Koo","lat":22.2841,"lon":114.21631,"type":"city"},{"id":"hk-1818695","label":"Tai Mei Tuk","lat":22.47447,"lon":114.23458,"type":"city"},{"id":"hk-1818692","label":"Tai Mong Tsai","lat":22.40034,"lon":114.30249,"type":"city"},{"id":"hk-1818673","label":"Tai Po","lat":22.45007,"lon":114.16877,"type":"city"},{"id":"hk-1818654","label":"Tai Shui Hang","lat":22.40631,"lon":114.22385,"type":"city"},{"id":"hk-1818628","label":"Tai Wai","lat":22.37286,"lon":114.17897,"type":"city"},{"id":"hk-1818616","label":"Tai Wo","lat":22.45151,"lon":114.16115,"type":"city"},{"id":"hk-1818614","label":"Tai Wo Hau","lat":22.36718,"lon":114.12347,"type":"city"},{"id":"hk-6691573","label":"Tai Yuen Estate","lat":22.45574,"lon":114.16971,"type":"city"},{"id":"hk-12719589","label":"Taikoo Shing","lat":22.28613,"lon":114.2187,"type":"city"},{"id":"hk-12719848","label":"Tak Long Estate","lat":22.3302,"lon":114.20338,"type":"city"},{"id":"hk-12719584","label":"The Belcher's","lat":22.28481,"lon":114.13329,"type":"city"},{"id":"hk-12719556","label":"The Pacifica","lat":22.33448,"lon":114.14988,"type":"city"},{"id":"hk-12640687","label":"The Peak","lat":22.26202,"lon":114.15649,"type":"city"},{"id":"hk-12719546","label":"Tin Hau","lat":22.28093,"lon":114.1924,"type":"city"},{"id":"hk-12746516","label":"Tin Ma Court","lat":22.34321,"lon":114.18691,"type":"city"},{"id":"hk-1818558","label":"Tin Shui Wai","lat":22.45679,"lon":114.00234,"type":"city"},{"id":"hk-1818557","label":"Tin Wan","lat":22.25113,"lon":114.14726,"type":"city"},{"id":"hk-12719785","label":"Tin Wan Estate","lat":22.25073,"lon":114.1487,"type":"city"},{"id":"hk-1818574","label":"Ting Kau","lat":22.36956,"lon":114.07907,"type":"city"},{"id":"hk-1818550","label":"Tiu Keng Leng","lat":22.29853,"lon":114.25115,"type":"city"},{"id":"hk-1818544","label":"To Kwa Wan","lat":22.31693,"lon":114.19052,"type":"city"},{"id":"hk-1818506","label":"Tseung Kwan O","lat":22.32789,"lon":114.24992,"type":"city"},{"id":"hk-1818501","label":"Tsim Sha Tsui","lat":22.3,"lon":114.16667,"type":"city"},{"id":"hk-1818483","label":"Tsing Yi Town","lat":22.35,"lon":114.1,"type":"city"},{"id":"hk-1818209","label":"Tsuen Wan","lat":22.37137,"lon":114.11329,"type":"city"},{"id":"hk-12746544","label":"Tsui Chuk Garden","lat":22.34639,"lon":114.18766,"type":"city"},{"id":"hk-12719624","label":"Tsui Wan Estate","lat":22.2682,"lon":114.24028,"type":"city"},{"id":"hk-12746541","label":"Tsz Ching Estate","lat":22.35099,"lon":114.20056,"type":"city"},{"id":"hk-12746543","label":"Tsz Hong Estate","lat":22.34747,"lon":114.20274,"type":"city"},{"id":"hk-12746542","label":"Tsz Man Estate","lat":22.34816,"lon":114.20287,"type":"city"},{"id":"hk-1818447","label":"Tsz Wan Shan","lat":22.35247,"lon":114.20016,"type":"city"},{"id":"hk-1818446","label":"Tuen Mun","lat":22.39175,"lon":113.97157,"type":"city"},{"id":"hk-1818444","label":"Tuen Mun San Hui","lat":22.39877,"lon":113.97596,"type":"city"},{"id":"hk-11101593","label":"Tung Chung","lat":22.28783,"lon":113.94243,"type":"city"},{"id":"hk-12719599","label":"Tung Hei Court","lat":22.28031,"lon":114.21886,"type":"city"},{"id":"hk-12746524","label":"Tung Tau Estate","lat":22.33212,"lon":114.19277,"type":"city"},{"id":"hk-1818413","label":"Tung Tau Tsuen","lat":22.45291,"lon":114.02873,"type":"city"},{"id":"hk-12746523","label":"Tung Wui Estate","lat":22.33228,"lon":114.19393,"type":"city"},{"id":"hk-12719598","label":"Tung Yuk Court","lat":22.2824,"lon":114.22681,"type":"city"},{"id":"hk-12719552","label":"Un Chau Estate","lat":22.33633,"lon":114.15616,"type":"city"},{"id":"hk-12746538","label":"Upper Wong Tai Sin Estate","lat":22.3433,"lon":114.19193,"type":"city"},{"id":"hk-1931681","label":"Victoria","lat":22.2875,"lon":114.14417,"type":"city"},{"id":"hk-12719545","label":"Victoria Park","lat":22.28464,"lon":114.19051,"type":"city"},{"id":"hk-1818385","label":"Wah Fu","lat":22.25474,"lon":114.13622,"type":"city"},{"id":"hk-12719541","label":"Wah Kwai","lat":22.25097,"lon":114.14005,"type":"city"},{"id":"hk-12719793","label":"Wah Kwai Estate","lat":22.25044,"lon":114.13964,"type":"city"},{"id":"hk-1818379","label":"Wan Chai","lat":22.28142,"lon":114.17258,"type":"city"},{"id":"hk-12719630","label":"Wan Tsui Estate","lat":22.26123,"lon":114.2374,"type":"city"},{"id":"hk-1818365","label":"Wang Tau Hom","lat":22.3401,"lon":114.18732,"type":"city"},{"id":"hk-12746547","label":"Wang Tau Hom Estate","lat":22.34009,"lon":114.18673,"type":"city"},{"id":"hk-12689057","label":"Whampoa","lat":22.30504,"lon":114.19021,"type":"city"},{"id":"hk-12719844","label":"Whampoa Estate","lat":22.30624,"lon":114.18819,"type":"city"},{"id":"hk-12719843","label":"Whampoa Garden","lat":22.30534,"lon":114.18936,"type":"city"},{"id":"hk-1818349","label":"Wo Che","lat":22.39016,"lon":114.19217,"type":"city"},{"id":"hk-9172583","label":"Wong Chuk Hang","lat":22.23981,"lon":114.17001,"type":"city"},{"id":"hk-1818304","label":"Wong Tai Sin","lat":22.35,"lon":114.18333,"type":"city"},{"id":"hk-12719443","label":"Wu Kai Sha","lat":22.43016,"lon":114.24212,"type":"city"},{"id":"hk-12689066","label":"Wu King","lat":22.37607,"lon":113.96537,"type":"city"},{"id":"hk-1818268","label":"Yau Ma Tei","lat":22.3138,"lon":114.16857,"type":"city"},{"id":"hk-1818266","label":"Yau Tong","lat":22.29569,"lon":114.23599,"type":"city"},{"id":"hk-1818264","label":"Yau Yat Chuen","lat":22.33101,"lon":114.17413,"type":"city"},{"id":"hk-1818259","label":"Yeung Uk Tsuen","lat":22.45,"lon":114.01667,"type":"city"},{"id":"hk-12719635","label":"Yiu Tung Estate","lat":22.27849,"lon":114.22299,"type":"city"},{"id":"hk-12719442","label":"Yu Chui","lat":22.38059,"lon":114.2053,"type":"city"},{"id":"hk-12719798","label":"Yue On Court","lat":22.24304,"lon":114.15746,"type":"city"},{"id":"hk-12719623","label":"Yue Wan Estate","lat":22.26592,"lon":114.24129,"type":"city"},{"id":"hk-1818225","label":"Yuen Long","lat":22.44518,"lon":114.02621,"type":"city"},{"id":"hk-1818223","label":"Yuen Long Kau Hui","lat":22.44831,"lon":114.03199,"type":"city"},{"id":"hk-1818222","label":"Yuen Long San Hui","lat":22.43333,"lon":114.03333,"type":"city"},{"id":"hk-12689068","label":"Yuet Wu","lat":22.37529,"lon":113.96814,"type":"city"},{"id":"hk-1818211","label":"Yung Shue Wan","lat":22.22623,"lon":114.11241,"type":"city"}]