[{"id":"ir-145303","label":"'Abas Abad","lat":36.72769,"lon":51.10574,"type":"city"},{"id":"ir-144038","label":"'Ali Abad-e Katul","lat":36.91011,"lon":54.86737,"type":"city"},{"id":"ir-8522943","label":"'Ali Shahr","lat":28.93125,"lon":51.06571,"type":"city"},{"id":"ir-143471","label":"'Anbarabad","lat":28.4759,"lon":57.848,"type":"city"},{"id":"ir-143469","label":"'Anbaran","lat":38.4875,"lon":48.43194,"type":"city"},{"id":"ir-42517","label":"'Eyn-e Do","lat":31.3456,"lon":48.60063,"type":"city"},{"id":"ir-44172","label":"Ab Pakhsh","lat":29.35862,"lon":51.07423,"type":"city"},{"id":"ir-144916","label":"Ab Sard","lat":35.62293,"lon":52.15323,"type":"city"},{"id":"ir-145459","label":"Abadan","lat":30.3392,"lon":48.3043,"type":"city"},{"id":"ir-48918","label":"Abadeh","lat":28.8349,"lon":53.1726,"type":"city"},{"id":"ir-145449","label":"Abadeh","lat":31.1608,"lon":52.6506,"type":"city"},{"id":"ir-113090","label":"Abadeh Tashk","lat":29.81083,"lon":53.7275,"type":"city"},{"id":"ir-145427","label":"Abarkuh","lat":31.1289,"lon":53.2824,"type":"city"},{"id":"ir-145407","label":"Abbar","lat":36.92627,"lon":48.95832,"type":"city"},{"id":"ir-145234","label":"Abdan","lat":28.0799,"lon":51.76815,"type":"city"},{"id":"ir-145233","label":"Abdanan","lat":32.9926,"lon":47.4198,"type":"city"},{"id":"ir-145034","label":"Abhar","lat":36.1468,"lon":49.218,"type":"city"},{"id":"ir-145125","label":"Abi Beyglu","lat":38.28126,"lon":48.55092,"type":"city"},{"id":"ir-418950","label":"Abrisham","lat":32.55613,"lon":51.57325,"type":"city"},{"id":"ir-144853","label":"Abu Homeyzeh","lat":31.52902,"lon":48.2202,"type":"city"},{"id":"ir-144794","label":"Abyek","lat":36.06667,"lon":50.55,"type":"city"},{"id":"ir-144795","label":"Abyek","lat":36.03993,"lon":50.53101,"type":"city"},{"id":"ir-144696","label":"Aghajari","lat":30.7006,"lon":49.8315,"type":"city"},{"id":"ir-144616","label":"Ahar","lat":38.4774,"lon":47.0699,"type":"city"},{"id":"ir-400791","label":"Ahmad Abad Mostufi","lat":35.63957,"lon":51.21273,"type":"city"},{"id":"ir-144484","label":"Ahram","lat":28.8826,"lon":51.2746,"type":"city"},{"id":"ir-144448","label":"Ahvaz","lat":31.31901,"lon":48.6842,"type":"city"},{"id":"ir-144443","label":"Ajab Shir","lat":37.4776,"lon":45.8943,"type":"city"},{"id":"ir-144410","label":"Akbarabad","lat":29.24609,"lon":52.78081,"type":"city"},{"id":"ir-144364","label":"Akhand","lat":27.4361,"lon":52.75,"type":"city"},{"id":"ir-144273","label":"Alard","lat":35.51296,"lon":51.05959,"type":"city"},{"id":"ir-144263","label":"Alavijeh","lat":33.0548,"lon":51.08331,"type":"city"},{"id":"ir-144269","label":"Aleshtar","lat":33.86419,"lon":48.26258,"type":"city"},{"id":"ir-143921","label":"Aligudarz","lat":33.404,"lon":49.69179,"type":"city"},{"id":"ir-143758","label":"Aluni","lat":31.55303,"lon":51.0605,"type":"city"},{"id":"ir-10570","label":"Alvand","lat":36.1893,"lon":50.0643,"type":"city"},{"id":"ir-121826","label":"Am Altamir","lat":31.25026,"lon":48.55545,"type":"city"},{"id":"ir-143561","label":"Amir Kola","lat":36.59673,"lon":52.6658,"type":"city"},{"id":"ir-143539","label":"Amlash","lat":37.0966,"lon":50.18709,"type":"city"},{"id":"ir-143534","label":"Amol","lat":36.46961,"lon":52.35072,"type":"city"},{"id":"ir-143499","label":"Anar","lat":30.87066,"lon":55.27025,"type":"city"},{"id":"ir-115876","label":"Anbar Alum","lat":37.1331,"lon":54.61968,"type":"city"},{"id":"ir-143420","label":"Andimeshk","lat":32.4615,"lon":48.35368,"type":"city"},{"id":"ir-10865375","label":"Andisheh","lat":35.74708,"lon":51.27739,"type":"city"},{"id":"ir-7329809","label":"Aq Qala","lat":37.0139,"lon":54.45504,"type":"city"},{"id":"ir-39874","label":"Aq Qayeh","lat":37.27472,"lon":55.15889,"type":"city"},{"id":"ir-143305","label":"Aqabad","lat":37.29957,"lon":55.24229,"type":"city"},{"id":"ir-143129","label":"Aradan","lat":35.24941,"lon":52.49422,"type":"city"},{"id":"ir-143127","label":"Arak","lat":34.09493,"lon":49.69809,"type":"city"},{"id":"ir-143122","label":"Aran Bidgol","lat":34.05751,"lon":51.48291,"type":"city"},{"id":"ir-385189","label":"Arateh","lat":36.49093,"lon":52.95056,"type":"city"},{"id":"ir-143083","label":"Ardabil","lat":38.2498,"lon":48.2933,"type":"city"},{"id":"ir-143073","label":"Ardakan","lat":32.31001,"lon":54.01747,"type":"city"},{"id":"ir-403656","label":"Ardakan","lat":30.25961,"lon":51.98491,"type":"city"},{"id":"ir-143070","label":"Ardal","lat":31.99969,"lon":50.66231,"type":"city"},{"id":"ir-143064","label":"Ardaq","lat":36.05273,"lon":49.82412,"type":"city"},{"id":"ir-143052","label":"Ardestan","lat":33.37939,"lon":52.36981,"type":"city"},{"id":"ir-120539","label":"Arkavaz","lat":33.3828,"lon":46.5983,"type":"city"},{"id":"ir-142958","label":"Arsanjan","lat":29.9124,"lon":53.3085,"type":"city"},{"id":"ir-403707","label":"Arvand Kenar","lat":29.97775,"lon":48.51777,"type":"city"},{"id":"ir-142872","label":"Asadabad","lat":34.78241,"lon":48.12012,"type":"city"},{"id":"ir-142859","label":"Asalem","lat":37.73312,"lon":48.95333,"type":"city"},{"id":"ir-142824","label":"Asfarvarin","lat":35.93451,"lon":49.74908,"type":"city"},{"id":"ir-418957","label":"Asgharabad","lat":32.65236,"lon":51.48042,"type":"city"},{"id":"ir-66250","label":"Ashkezar","lat":31.99679,"lon":54.20852,"type":"city"},{"id":"ir-142768","label":"Ashkhaneh","lat":37.5615,"lon":56.92125,"type":"city"},{"id":"ir-142744","label":"Ashtian","lat":34.52298,"lon":50.00608,"type":"city"},{"id":"ir-142703","label":"Aslan Duz","lat":39.4439,"lon":47.4056,"type":"city"},{"id":"ir-389875","label":"Asmanabad","lat":33.8531,"lon":46.4613,"type":"city"},{"id":"ir-142681","label":"Astaneh","lat":33.88346,"lon":49.35229,"type":"city"},{"id":"ir-142679","label":"Astaneh-ye Ashrafiyeh","lat":37.26318,"lon":49.94325,"type":"city"},{"id":"ir-142676","label":"Astara","lat":38.43084,"lon":48.86994,"type":"city"},{"id":"ir-142587","label":"Ayask","lat":33.88744,"lon":58.38236,"type":"city"},{"id":"ir-110831","label":"Azadshahr","lat":37.08641,"lon":55.17222,"type":"city"},{"id":"ir-6686970","label":"Azarshahr","lat":37.759,"lon":45.9783,"type":"city"},{"id":"ir-142496","label":"Azna","lat":33.6095,"lon":48.9307,"type":"city"},{"id":"ir-142497","label":"Azna","lat":33.45643,"lon":49.45646,"type":"city"},{"id":"ir-134988","label":"Aznav","lat":34.29986,"lon":48.8576,"type":"city"},{"id":"ir-142386","label":"Bab Anar","lat":28.9642,"lon":53.2163,"type":"city"},{"id":"ir-142453","label":"Baba Heydar","lat":32.32932,"lon":50.46805,"type":"city"},{"id":"ir-142363","label":"Babol","lat":36.55102,"lon":52.6786,"type":"city"},{"id":"ir-142358","label":"Babolsar","lat":36.69929,"lon":52.65011,"type":"city"},{"id":"ir-142350","label":"Bad Rud","lat":33.6908,"lon":52.0085,"type":"city"},{"id":"ir-443190","label":"Badalabad","lat":38.5734,"lon":44.9251,"type":"city"},{"id":"ir-142255","label":"Bafq","lat":31.6035,"lon":55.40249,"type":"city"},{"id":"ir-142247","label":"Baft","lat":29.2331,"lon":56.6022,"type":"city"},{"id":"ir-142112","label":"Bagh-e Ma'ruf","lat":38.0427,"lon":46.1069,"type":"city"},{"id":"ir-142114","label":"Bagh-e Malek","lat":31.52398,"lon":49.88558,"type":"city"},{"id":"ir-13562246","label":"Baghestan","lat":35.64706,"lon":51.13378,"type":"city"},{"id":"ir-142049","label":"Baghin","lat":30.18164,"lon":56.80311,"type":"city"},{"id":"ir-142000","label":"Bahar","lat":34.9072,"lon":48.4414,"type":"city"},{"id":"ir-418512","label":"Baharan Shahr","lat":32.51216,"lon":51.54243,"type":"city"},{"id":"ir-418943","label":"Baharestan","lat":32.48814,"lon":51.77312,"type":"city"},{"id":"ir-141971","label":"Bahman","lat":31.19334,"lon":52.48373,"type":"city"},{"id":"ir-140926","label":"Bahnemir","lat":36.66822,"lon":52.76171,"type":"city"},{"id":"ir-141857","label":"Bakhshayesh","lat":38.1325,"lon":46.946,"type":"city"},{"id":"ir-141834","label":"Bala Deh","lat":27.4023,"lon":53.5799,"type":"city"},{"id":"ir-141736","label":"Bam","lat":29.106,"lon":58.357,"type":"city"},{"id":"ir-1161735","label":"Bampur","lat":27.19439,"lon":60.45594,"type":"city"},{"id":"ir-141702","label":"Banak","lat":27.871,"lon":52.0274,"type":"city"},{"id":"ir-141681","label":"Bandar Abbas","lat":27.1865,"lon":56.2808,"type":"city"},{"id":"ir-142857","label":"Bandar-e 'Asaluyah","lat":27.47383,"lon":52.60782,"type":"city"},{"id":"ir-141679","label":"Bandar-e Anzali","lat":37.47318,"lon":49.45785,"type":"city"},{"id":"ir-141676","label":"Bandar-e Deylam","lat":30.0542,"lon":50.159,"type":"city"},{"id":"ir-136280","label":"Bandar-e Deyr","lat":27.8399,"lon":51.9378,"type":"city"},{"id":"ir-8521444","label":"Bandar-e Emam Khomeyni","lat":30.43698,"lon":49.10288,"type":"city"},{"id":"ir-141673","label":"Bandar-e Gaz","lat":36.77409,"lon":53.94798,"type":"city"},{"id":"ir-134217","label":"Bandar-e Genaveh","lat":29.5791,"lon":50.517,"type":"city"},{"id":"ir-128847","label":"Bandar-e Kangan","lat":27.83434,"lon":52.06306,"type":"city"},{"id":"ir-127992","label":"Bandar-e Khamir","lat":26.9521,"lon":55.5851,"type":"city"},{"id":"ir-141666","label":"Bandar-e Kong","lat":26.59775,"lon":54.93694,"type":"city"},{"id":"ir-141665","label":"Bandar-e Lengeh","lat":26.56207,"lon":54.88382,"type":"city"},{"id":"ir-141663","label":"Bandar-e Mahshahr","lat":30.55655,"lon":49.18852,"type":"city"},{"id":"ir-141657","label":"Bandar-e Rig","lat":29.4879,"lon":50.62698,"type":"city"},{"id":"ir-114966","label":"Bandar-e Shirinu","lat":27.6256,"lon":52.47564,"type":"city"},{"id":"ir-113596","label":"Bandar-e Siraf","lat":27.66573,"lon":52.34616,"type":"city"},{"id":"ir-141653","label":"Bandar-e Torkaman","lat":36.90124,"lon":54.07195,"type":"city"},{"id":"ir-141584","label":"Baneh","lat":35.9975,"lon":45.8853,"type":"city"},{"id":"ir-11717","label":"Baqer Tangeh","lat":36.70417,"lon":52.70288,"type":"city"},{"id":"ir-400809","label":"Baqershahr","lat":35.53164,"lon":51.4048,"type":"city"},{"id":"ir-141407","label":"Baravat","lat":29.0663,"lon":58.4046,"type":"city"},{"id":"ir-141349","label":"Bardaskan","lat":35.26218,"lon":57.97075,"type":"city"},{"id":"ir-141348","label":"Bardestan","lat":27.87327,"lon":51.96076,"type":"city"},{"id":"ir-124647","label":"Bardsir","lat":29.92266,"lon":56.57433,"type":"city"},{"id":"ir-127995","label":"Barf Anbar","lat":33.00315,"lon":50.19366,"type":"city"},{"id":"ir-141124","label":"Basht","lat":30.361,"lon":51.15735,"type":"city"},{"id":"ir-141111","label":"Basmenj","lat":37.9958,"lon":46.4748,"type":"city"},{"id":"ir-141104","label":"Bastak","lat":27.19908,"lon":54.36676,"type":"city"},{"id":"ir-141100","label":"Bastam","lat":36.48534,"lon":54.99959,"type":"city"},{"id":"ir-13631698","label":"Bavanat","lat":30.48725,"lon":53.59348,"type":"city"},{"id":"ir-69018","label":"Bazar Jom'eh-ye Shanderman","lat":37.40524,"lon":49.11934,"type":"city"},{"id":"ir-141011","label":"Bazargan","lat":39.3915,"lon":44.3875,"type":"city"},{"id":"ir-1161681","label":"Bazman","lat":27.85637,"lon":60.18059,"type":"city"},{"id":"ir-140951","label":"Behbahan","lat":30.5959,"lon":50.2417,"type":"city"},{"id":"ir-140918","label":"Behshahr","lat":36.69235,"lon":53.55262,"type":"city"},{"id":"ir-140891","label":"Ben","lat":32.54037,"lon":50.74515,"type":"city"},{"id":"ir-406425","label":"Bent","lat":26.29317,"lon":59.51825,"type":"city"},{"id":"ir-140839","label":"Berentin","lat":27.28317,"lon":57.22355,"type":"city"},{"id":"ir-140762","label":"Beyram","lat":27.43203,"lon":53.51413,"type":"city"},{"id":"ir-131536","label":"Beyza","lat":30.00871,"lon":52.36092,"type":"city"},{"id":"ir-140511","label":"Bi Kah","lat":27.35463,"lon":57.17818,"type":"city"},{"id":"ir-6659958","label":"Bidestan","lat":36.23097,"lon":50.12362,"type":"city"},{"id":"ir-140586","label":"Bidkhun","lat":27.47885,"lon":52.66722,"type":"city"},{"id":"ir-140521","label":"Bijar","lat":35.8668,"lon":47.60506,"type":"city"},{"id":"ir-140494","label":"Bileh Savar","lat":39.37961,"lon":48.35463,"type":"city"},{"id":"ir-140463","label":"Birjand","lat":32.86628,"lon":59.22114,"type":"city"},{"id":"ir-140380","label":"Bojnurd","lat":37.47473,"lon":57.32903,"type":"city"},{"id":"ir-140346","label":"Boldaji","lat":31.93759,"lon":51.05147,"type":"city"},{"id":"ir-140889","label":"Bonab","lat":37.3404,"lon":46.0561,"type":"city"},{"id":"ir-285","label":"Boneh-ye 'Alvan","lat":32.11171,"lon":48.45877,"type":"city"},{"id":"ir-140097","label":"Borazjan","lat":29.2699,"lon":51.2188,"type":"city"},{"id":"ir-140046","label":"Borujen","lat":31.96523,"lon":51.2873,"type":"city"},{"id":"ir-140044","label":"Borujerd","lat":33.8973,"lon":48.7516,"type":"city"},{"id":"ir-9480732","label":"Boshruyeh","lat":33.86845,"lon":57.42885,"type":"city"},{"id":"ir-140023","label":"Bostan","lat":31.71945,"lon":47.99118,"type":"city"},{"id":"ir-23290","label":"Bostanabad","lat":37.84633,"lon":46.83542,"type":"city"},{"id":"ir-139889","label":"Bukan","lat":36.521,"lon":46.2089,"type":"city"},{"id":"ir-139879","label":"Bumahen","lat":35.72972,"lon":51.86884,"type":"city"},{"id":"ir-139817","label":"Bushehr","lat":28.96887,"lon":50.83657,"type":"city"},{"id":"ir-1161724","label":"Chabahar","lat":25.2919,"lon":60.643,"type":"city"},{"id":"ir-139784","label":"Chaboksar","lat":36.97372,"lon":50.5701,"type":"city"},{"id":"ir-139780","label":"Chadegan","lat":32.76825,"lon":50.62873,"type":"city"},{"id":"ir-1161567","label":"Chah-e Jamal","lat":27.23986,"lon":60.69415,"type":"city"},{"id":"ir-139719","label":"Chahar Borj","lat":37.1254,"lon":45.9782,"type":"city"},{"id":"ir-139706","label":"Chahar Dangeh","lat":35.6031,"lon":51.3098,"type":"city"},{"id":"ir-139228","label":"Chaleshtar","lat":32.37869,"lon":50.78663,"type":"city"},{"id":"ir-139223","label":"Chalus","lat":36.655,"lon":51.4204,"type":"city"},{"id":"ir-139194","label":"Chamaz Koti","lat":36.48819,"lon":52.87113,"type":"city"},{"id":"ir-8839","label":"Chamestan","lat":36.47822,"lon":52.11835,"type":"city"},{"id":"ir-418911","label":"Chamgordan","lat":32.39333,"lon":51.33943,"type":"city"},{"id":"ir-139116","label":"Chamkhaleh","lat":37.23188,"lon":50.25129,"type":"city"},{"id":"ir-6648117","label":"Chamran","lat":30.70838,"lon":49.16266,"type":"city"},{"id":"ir-138989","label":"Charam","lat":30.75561,"lon":50.74522,"type":"city"},{"id":"ir-418905","label":"Charmahin","lat":32.33892,"lon":51.19474,"type":"city"},{"id":"ir-138911","label":"Chatrud","lat":30.60388,"lon":56.91038,"type":"city"},{"id":"ir-138905","label":"Chavar","lat":33.6953,"lon":46.2979,"type":"city"},{"id":"ir-138742","label":"Chenaran","lat":36.64546,"lon":59.12123,"type":"city"},{"id":"ir-138381","label":"Choghadak","lat":28.986,"lon":51.0364,"type":"city"},{"id":"ir-138901","label":"Chu'ebdeh-ye Yek","lat":30.2035,"lon":48.5538,"type":"city"},{"id":"ir-138309","label":"Chubar","lat":38.1803,"lon":48.893,"type":"city"},{"id":"ir-138295","label":"Chubin Dar","lat":36.22842,"lon":49.94955,"type":"city"},{"id":"ir-138226","label":"Dabiran","lat":28.40612,"lon":54.18797,"type":"city"},{"id":"ir-6640345","label":"Daghagheleh","lat":31.3889,"lon":48.68882,"type":"city"},{"id":"ir-138098","label":"Dalaki","lat":29.4294,"lon":51.2931,"type":"city"},{"id":"ir-138042","label":"Damavand","lat":35.71842,"lon":52.06958,"type":"city"},{"id":"ir-138025","label":"Damghan","lat":36.1679,"lon":54.34292,"type":"city"},{"id":"ir-137985","label":"Danesfahan","lat":35.81151,"lon":49.74315,"type":"city"},{"id":"ir-137956","label":"Darab","lat":28.75171,"lon":54.54065,"type":"city"},{"id":"ir-137946","label":"Darab Kola","lat":36.56148,"lon":53.25214,"type":"city"},{"id":"ir-137929","label":"Daran","lat":32.98741,"lon":50.4108,"type":"city"},{"id":"ir-137850","label":"Darb-e Behesht","lat":29.2359,"lon":57.33216,"type":"city"},{"id":"ir-137782","label":"Dargahan","lat":26.96316,"lon":56.06278,"type":"city"},{"id":"ir-137585","label":"Dargaz","lat":37.44447,"lon":59.10809,"type":"city"},{"id":"ir-137758","label":"Dariun","lat":29.56363,"lon":52.92917,"type":"city"},{"id":"ir-137724","label":"Darkhovin","lat":30.7445,"lon":48.42282,"type":"city"},{"id":"ir-137436","label":"Darreh Shahr","lat":33.14447,"lon":47.3799,"type":"city"},{"id":"ir-8384992","label":"Darvisheh","lat":31.24386,"lon":48.66603,"type":"city"},{"id":"ir-418886","label":"Dastgerd","lat":32.80208,"lon":51.66361,"type":"city"},{"id":"ir-137202","label":"Dastna'","lat":32.05834,"lon":50.77051,"type":"city"},{"id":"ir-137109","label":"Davudabad","lat":35.39861,"lon":51.56111,"type":"city"},{"id":"ir-137110","label":"Davudabad","lat":34.29394,"lon":49.8556,"type":"city"},{"id":"ir-136556","label":"Deh Pahn","lat":34.34563,"lon":47.13817,"type":"city"},{"id":"ir-136547","label":"Deh Qa'ed","lat":29.29843,"lon":51.19416,"type":"city"},{"id":"ir-137063","label":"Dehaq","lat":33.10391,"lon":50.95855,"type":"city"},{"id":"ir-137057","label":"Dehaqan","lat":31.93986,"lon":51.64731,"type":"city"},{"id":"ir-136987","label":"Dehdasht","lat":30.79337,"lon":50.56508,"type":"city"},{"id":"ir-136983","label":"Dehdez","lat":31.7096,"lon":50.28827,"type":"city"},{"id":"ir-136702","label":"Dehloran","lat":32.6941,"lon":47.2679,"type":"city"},{"id":"ir-31321","label":"Dehrud","lat":36.35028,"lon":59.65657,"type":"city"},{"id":"ir-136399","label":"Delijan","lat":33.9905,"lon":50.6838,"type":"city"},{"id":"ir-136256","label":"Dezful","lat":32.38114,"lon":48.40581,"type":"city"},{"id":"ir-120577","label":"Dibaj","lat":36.42695,"lon":54.2237,"type":"city"},{"id":"ir-136164","label":"Dishmuk","lat":31.29844,"lon":50.4011,"type":"city"},{"id":"ir-136156","label":"Divandarreh","lat":35.9139,"lon":47.0239,"type":"city"},{"id":"ir-136132","label":"Dizaj Diz","lat":38.4619,"lon":45.02447,"type":"city"},{"id":"ir-418875","label":"Dizicheh","lat":32.38753,"lon":51.51022,"type":"city"},{"id":"ir-136014","label":"Dogonbadan","lat":30.3586,"lon":50.7981,"type":"city"},{"id":"ir-418896","label":"Dorcheh Piaz","lat":32.61528,"lon":51.55556,"type":"city"},{"id":"ir-135878","label":"Dorud","lat":33.49218,"lon":49.0616,"type":"city"},{"id":"ir-418868","label":"Dowlatabad","lat":32.79978,"lon":51.69553,"type":"city"},{"id":"ir-1161297","label":"Dust Mohammad Khan","lat":31.1447,"lon":61.7925,"type":"city"},{"id":"ir-135474","label":"Ekhtiarabad","lat":30.32683,"lon":56.92033,"type":"city"},{"id":"ir-144222","label":"Elhayi","lat":31.65373,"lon":48.59518,"type":"city"},{"id":"ir-48822","label":"Emam Shahr","lat":28.44684,"lon":53.15325,"type":"city"},{"id":"ir-121780","label":"Emamzadeh 'Abdollah","lat":36.4061,"lon":52.30892,"type":"city"},{"id":"ir-114106","label":"Eqbaliyeh","lat":36.23081,"lon":49.92499,"type":"city"},{"id":"ir-406993","label":"Eqbaliyeh","lat":35.3022,"lon":51.5358,"type":"city"},{"id":"ir-135355","label":"Eqlid","lat":30.89885,"lon":52.69701,"type":"city"},{"id":"ir-135298","label":"Esfarayen","lat":37.07645,"lon":57.51009,"type":"city"},{"id":"ir-135244","label":"Eshkanan","lat":27.2293,"lon":53.6082,"type":"city"},{"id":"ir-135205","label":"Eshtehard","lat":35.7255,"lon":50.3662,"type":"city"},{"id":"ir-405254","label":"Eslamabad","lat":35.56047,"lon":51.51884,"type":"city"},{"id":"ir-6650432","label":"Eslamabad","lat":27.3836,"lon":57.1619,"type":"city"},{"id":"ir-135175","label":"Eslamabad-e Gharb","lat":34.1089,"lon":46.52988,"type":"city"},{"id":"ir-30400","label":"Eslamiyeh","lat":34.04565,"lon":58.2204,"type":"city"},{"id":"ir-449504","label":"Eslamshahr","lat":35.55222,"lon":51.23504,"type":"city"},{"id":"ir-135094","label":"Estahban","lat":29.1266,"lon":54.0421,"type":"city"},{"id":"ir-135053","label":"Evaz","lat":27.7622,"lon":54.00417,"type":"city"},{"id":"ir-129929","label":"Eyvan","lat":33.8272,"lon":46.3097,"type":"city"},{"id":"ir-418851","label":"Falavarjan","lat":32.5553,"lon":51.50973,"type":"city"},{"id":"ir-134906","label":"Famenin","lat":35.11593,"lon":48.97336,"type":"city"},{"id":"ir-134894","label":"Fannuj","lat":26.57527,"lon":59.64144,"type":"city"},{"id":"ir-418850","label":"Faradonbeh","lat":32.0084,"lon":51.2121,"type":"city"},{"id":"ir-6657205","label":"Fardis","lat":35.7555,"lon":50.9967,"type":"city"},{"id":"ir-134788","label":"Farmahin","lat":34.50383,"lon":49.68437,"type":"city"},{"id":"ir-134781","label":"Farrashband","lat":28.86012,"lon":52.09452,"type":"city"},{"id":"ir-120678","label":"Farrokh Shahr","lat":32.27174,"lon":50.98008,"type":"city"},{"id":"ir-134775","label":"Farrokhabad","lat":35.71513,"lon":50.91303,"type":"city"},{"id":"ir-134762","label":"Farsan","lat":32.25694,"lon":50.56095,"type":"city"},{"id":"ir-134745","label":"Faruj","lat":37.23121,"lon":58.219,"type":"city"},{"id":"ir-134743","label":"Faruq","lat":29.96352,"lon":53.04509,"type":"city"},{"id":"ir-134721","label":"Fasa","lat":28.9383,"lon":53.6482,"type":"city"},{"id":"ir-134715","label":"Fasham","lat":35.9306,"lon":51.5266,"type":"city"},{"id":"ir-134636","label":"Fazelabad","lat":36.89802,"lon":54.74963,"type":"city"},{"id":"ir-134613","label":"Ferdows","lat":34.0185,"lon":58.17222,"type":"city"},{"id":"ir-33069","label":"Ferdowsiyeh","lat":35.6011,"lon":51.0645,"type":"city"},{"id":"ir-134602","label":"Fereydun Kenar","lat":36.68489,"lon":52.51917,"type":"city"},{"id":"ir-134601","label":"Fereydunshahr","lat":32.94195,"lon":50.11991,"type":"city"},{"id":"ir-134598","label":"Ferunabad","lat":35.5156,"lon":51.6232,"type":"city"},{"id":"ir-134520","label":"Firuraq","lat":38.58,"lon":44.8359,"type":"city"},{"id":"ir-134495","label":"Firuzabad","lat":35.5453,"lon":51.4844,"type":"city"},{"id":"ir-134518","label":"Firuzabad","lat":28.84459,"lon":52.57151,"type":"city"},{"id":"ir-134480","label":"Firuzan","lat":34.36078,"lon":48.11538,"type":"city"},{"id":"ir-26018","label":"Firuzeh","lat":37.59791,"lon":58.79079,"type":"city"},{"id":"ir-134462","label":"Firuzkuh","lat":35.75674,"lon":52.77062,"type":"city"},{"id":"ir-134459","label":"Fishvar","lat":27.79832,"lon":53.68469,"type":"city"},{"id":"ir-418838","label":"Fulad Shahr","lat":32.48664,"lon":51.39673,"type":"city"},{"id":"ir-134441","label":"Fuman","lat":37.224,"lon":49.3125,"type":"city"},{"id":"ir-40182","label":"Gadamabad","lat":37.25913,"lon":55.14633,"type":"city"},{"id":"ir-406165","label":"Gahru","lat":32.00319,"lon":50.88537,"type":"city"},{"id":"ir-134296","label":"Galehdar","lat":27.6595,"lon":52.6575,"type":"city"},{"id":"ir-134282","label":"Galikesh","lat":37.27259,"lon":55.43394,"type":"city"},{"id":"ir-7102155","label":"Galmurti","lat":27.48232,"lon":59.44656,"type":"city"},{"id":"ir-134255","label":"Galugah","lat":36.72734,"lon":53.80888,"type":"city"},{"id":"ir-134256","label":"Galugah","lat":36.31048,"lon":52.62621,"type":"city"},{"id":"ir-134173","label":"Gandoman","lat":31.86553,"lon":51.15435,"type":"city"},{"id":"ir-400773","label":"Garmdarreh","lat":35.74803,"lon":51.06865,"type":"city"},{"id":"ir-133964","label":"Garmsar","lat":35.21824,"lon":52.34085,"type":"city"},{"id":"ir-36574","label":"Gavmishabad","lat":32.01435,"lon":48.84784,"type":"city"},{"id":"ir-418830","label":"Gaz-e Borkhar","lat":32.80482,"lon":51.62087,"type":"city"},{"id":"ir-133595","label":"Gerash","lat":27.66966,"lon":54.13586,"type":"city"},{"id":"ir-133972","label":"Germi","lat":39.0215,"lon":48.0801,"type":"city"},{"id":"ir-9514746","label":"Givi","lat":37.68585,"lon":48.34204,"type":"city"},{"id":"ir-133020","label":"Gol Tappeh Kabir","lat":35.48722,"lon":51.565,"type":"city"},{"id":"ir-403529","label":"Golbaf","lat":29.885,"lon":57.7305,"type":"city"},{"id":"ir-7082152","label":"Golbahar","lat":36.56976,"lon":59.1904,"type":"city"},{"id":"ir-418556","label":"Goldasht","lat":32.62837,"lon":51.43926,"type":"city"},{"id":"ir-32900","label":"Golestan","lat":35.5183,"lon":51.1819,"type":"city"},{"id":"ir-133051","label":"Golmakan","lat":36.48128,"lon":59.15871,"type":"city"},{"id":"ir-133037","label":"Golpayegan","lat":33.4537,"lon":50.28836,"type":"city"},{"id":"ir-13665053","label":"Golsar","lat":35.90967,"lon":50.77532,"type":"city"},{"id":"ir-126640","label":"Golshahr","lat":33.50718,"lon":50.46339,"type":"city"},{"id":"ir-32733","label":"Golzar-e Bala","lat":35.4516,"lon":51.7106,"type":"city"},{"id":"ir-40047","label":"Gomishan","lat":37.0718,"lon":54.07654,"type":"city"},{"id":"ir-132961","label":"Gonabad","lat":34.35287,"lon":58.68365,"type":"city"},{"id":"ir-132938","label":"Gonbad-e Kavus","lat":37.25004,"lon":55.16721,"type":"city"},{"id":"ir-418824","label":"Gorgab","lat":32.86591,"lon":51.59732,"type":"city"},{"id":"ir-132892","label":"Gorgan","lat":36.8427,"lon":54.44391,"type":"city"},{"id":"ir-13664979","label":"Gorji-ye Sofla","lat":36.38806,"lon":59.675,"type":"city"},{"id":"ir-133884","label":"Gotvand","lat":32.24585,"lon":48.81315,"type":"city"},{"id":"ir-133831","label":"Gugan","lat":37.7831,"lon":45.904,"type":"city"},{"id":"ir-132697","label":"Guged","lat":33.47558,"lon":50.35249,"type":"city"},{"id":"ir-132687","label":"Gujan","lat":32.24563,"lon":50.54189,"type":"city"},{"id":"ir-418820","label":"Habibabad","lat":32.83057,"lon":51.77633,"type":"city"},{"id":"ir-131621","label":"Hachirud","lat":36.68483,"lon":51.34433,"type":"city"},{"id":"ir-35017","label":"Hadishahr","lat":38.8479,"lon":45.6623,"type":"city"},{"id":"ir-132458","label":"Hafshejan","lat":32.22662,"lon":50.79314,"type":"city"},{"id":"ir-132428","label":"Haftkel","lat":31.44686,"lon":49.52951,"type":"city"},{"id":"ir-132380","label":"Hajjiabad","lat":28.35735,"lon":54.42335,"type":"city"},{"id":"ir-132382","label":"Hajjiabad","lat":28.3091,"lon":55.9017,"type":"city"},{"id":"ir-131272","label":"Halor","lat":26.9669,"lon":56.0834,"type":"city"},{"id":"ir-132144","label":"Hamadan","lat":34.79922,"lon":48.51456,"type":"city"},{"id":"ir-33054","label":"Hamadanak","lat":35.5429,"lon":51.1398,"type":"city"},{"id":"ir-132105","label":"Hamidiyeh","lat":31.48285,"lon":48.4332,"type":"city"},{"id":"ir-131962","label":"Harsin","lat":34.2721,"lon":47.5861,"type":"city"},{"id":"ir-131831","label":"Hasanabad","lat":35.36732,"lon":51.23498,"type":"city"},{"id":"ir-131441","label":"Hashatjin","lat":37.36885,"lon":48.32155,"type":"city"},{"id":"ir-131691","label":"Hashtgerd","lat":35.962,"lon":50.6799,"type":"city"},{"id":"ir-113343","label":"Hashtpar","lat":37.79658,"lon":48.90521,"type":"city"},{"id":"ir-142554","label":"Hashtrud","lat":37.4779,"lon":47.0508,"type":"city"},{"id":"ir-131559","label":"Hendijan","lat":30.2363,"lon":49.7119,"type":"city"},{"id":"ir-113556","label":"Herat","lat":30.05407,"lon":54.37294,"type":"city"},{"id":"ir-131528","label":"Heris","lat":38.24816,"lon":47.11678,"type":"city"},{"id":"ir-131343","label":"Hidaj","lat":36.2563,"lon":49.13261,"type":"city"},{"id":"ir-131314","label":"Hiv","lat":36.0315,"lon":50.64704,"type":"city"},{"id":"ir-131231","label":"Hormoz","lat":27.095,"lon":56.4529,"type":"city"},{"id":"ir-131703","label":"Horr","lat":32.1449,"lon":48.39109,"type":"city"},{"id":"ir-130821","label":"Hoveyzeh","lat":31.4619,"lon":48.074,"type":"city"},{"id":"ir-130809","label":"Ij","lat":29.0214,"lon":54.2459,"type":"city"},{"id":"ir-130802","label":"Ilam","lat":33.6374,"lon":46.4227,"type":"city"},{"id":"ir-6686961","label":"Ilkhchi","lat":37.9373,"lon":45.979,"type":"city"},{"id":"ir-418593","label":"Imanshahr","lat":32.47352,"lon":51.47704,"type":"city"},{"id":"ir-1160939","label":"Iranshahr","lat":27.20245,"lon":60.68476,"type":"city"},{"id":"ir-418863","label":"Isfahan","lat":32.65246,"lon":51.67462,"type":"city"},{"id":"ir-32723","label":"Istgah-e Rah Ahan-e Garmsar","lat":35.23455,"lon":52.30942,"type":"city"},{"id":"ir-130702","label":"Izad Khvast","lat":31.51966,"lon":52.12799,"type":"city"},{"id":"ir-7637486","label":"Izad Shahr","lat":36.59894,"lon":52.12708,"type":"city"},{"id":"ir-130697","label":"Izeh","lat":31.83027,"lon":49.86756,"type":"city"},{"id":"ir-116028","label":"Ja'farabad","lat":39.4346,"lon":48.0939,"type":"city"},{"id":"ir-133677","label":"Ja'fariyeh","lat":34.7747,"lon":50.5169,"type":"city"},{"id":"ir-130531","label":"Jahrom","lat":28.5,"lon":53.5605,"type":"city"},{"id":"ir-130524","label":"Jajarm","lat":36.95012,"lon":56.38005,"type":"city"},{"id":"ir-1160907","label":"Jalq","lat":27.60287,"lon":62.71023,"type":"city"},{"id":"ir-130451","label":"Jam","lat":27.82977,"lon":52.32518,"type":"city"},{"id":"ir-130399","label":"Jam Khaneh","lat":36.58932,"lon":53.25636,"type":"city"},{"id":"ir-130406","label":"Jamkaran","lat":34.58566,"lon":50.9073,"type":"city"},{"id":"ir-130452","label":"Jannat Makan","lat":32.1847,"lon":48.81514,"type":"city"},{"id":"ir-6976849","label":"Jannat Shahr","lat":28.65449,"lon":54.68495,"type":"city"},{"id":"ir-130276","label":"Jask","lat":25.64533,"lon":57.77552,"type":"city"},{"id":"ir-25883","label":"Javanrud","lat":34.8067,"lon":46.4913,"type":"city"},{"id":"ir-39590","label":"Jelin","lat":36.85425,"lon":54.53792,"type":"city"},{"id":"ir-130069","label":"Jenah","lat":27.02016,"lon":54.28398,"type":"city"},{"id":"ir-6925362","label":"Jiroft","lat":28.67806,"lon":57.74056,"type":"city"},{"id":"ir-418748","label":"Jowzdan","lat":32.55605,"lon":51.37297,"type":"city"},{"id":"ir-418744","label":"Jujil","lat":32.56571,"lon":51.48512,"type":"city"},{"id":"ir-130081","label":"Julfa","lat":38.93788,"lon":45.63329,"type":"city"},{"id":"ir-129956","label":"Junqan","lat":32.15145,"lon":50.6875,"type":"city"},{"id":"ir-129945","label":"Juraqan","lat":34.8849,"lon":48.55444,"type":"city"},{"id":"ir-129933","label":"Juybar","lat":36.64088,"lon":52.91206,"type":"city"},{"id":"ir-129931","label":"Juyom","lat":28.2548,"lon":53.98112,"type":"city"},{"id":"ir-129904","label":"Kabudarahang","lat":35.20924,"lon":48.72341,"type":"city"},{"id":"ir-6961608","label":"Kahnuj","lat":27.94034,"lon":57.69983,"type":"city"},{"id":"ir-23814","label":"Kahriz","lat":34.38347,"lon":47.05544,"type":"city"},{"id":"ir-129664","label":"Kahrizak","lat":35.3465,"lon":51.84418,"type":"city"},{"id":"ir-11980175","label":"Kahrizak","lat":35.51718,"lon":51.36052,"type":"city"},{"id":"ir-129569","label":"Kaki","lat":28.33861,"lon":51.52361,"type":"city"},{"id":"ir-129543","label":"Kala Chay","lat":37.07961,"lon":50.39642,"type":"city"},{"id":"ir-129512","label":"Kalaleh","lat":37.37899,"lon":55.493,"type":"city"},{"id":"ir-8781","label":"Kalardasht","lat":36.51094,"lon":51.17343,"type":"city"},{"id":"ir-385048","label":"Kalleh Bast","lat":36.64067,"lon":52.62922,"type":"city"},{"id":"ir-41548","label":"Kamalshahr","lat":35.86187,"lon":50.87424,"type":"city"},{"id":"ir-128905","label":"Kamyaran","lat":34.79535,"lon":46.93682,"type":"city"},{"id":"ir-128831","label":"Kangavar","lat":34.5043,"lon":47.9653,"type":"city"},{"id":"ir-128748","label":"Karahrud","lat":34.06095,"lon":49.64462,"type":"city"},{"id":"ir-128747","label":"Karaj","lat":35.83266,"lon":50.99155,"type":"city"},{"id":"ir-128665","label":"Karkaj","lat":38.0364,"lon":46.4316,"type":"city"},{"id":"ir-418834","label":"Karkevand","lat":32.34244,"lon":51.44584,"type":"city"},{"id":"ir-134695","label":"Karzin","lat":28.40871,"lon":53.10752,"type":"city"},{"id":"ir-31213","label":"Kashaf","lat":36.36973,"lon":59.57793,"type":"city"},{"id":"ir-128476","label":"Kashan","lat":33.98237,"lon":51.42769,"type":"city"},{"id":"ir-6861211","label":"Kashan","lat":34.00228,"lon":51.43879,"type":"city"},{"id":"ir-128447","label":"Kashmar","lat":35.23831,"lon":58.46558,"type":"city"},{"id":"ir-118024","label":"Katalem va Sadat Shahr","lat":36.88879,"lon":50.6964,"type":"city"},{"id":"ir-44439","label":"Kavar","lat":29.20505,"lon":52.69043,"type":"city"},{"id":"ir-128321","label":"Kazerun","lat":29.61919,"lon":51.6535,"type":"city"},{"id":"ir-129479","label":"Kelarabad","lat":36.6998,"lon":51.25597,"type":"city"},{"id":"ir-418723","label":"Kelishad va Sudarjan","lat":32.55118,"lon":51.52758,"type":"city"},{"id":"ir-128234","label":"Kerman","lat":30.28321,"lon":57.07879,"type":"city"},{"id":"ir-128226","label":"Kermanshah","lat":34.31417,"lon":47.065,"type":"city"},{"id":"ir-8421803","label":"Khabarabad","lat":35.54263,"lon":51.14813,"type":"city"},{"id":"ir-127051","label":"Khajeh Nafas","lat":36.99437,"lon":54.09522,"type":"city"},{"id":"ir-13590593","label":"Khalil Shahr","lat":36.7022,"lon":53.64203,"type":"city"},{"id":"ir-118244","label":"Khalilabad","lat":36.80905,"lon":49.41486,"type":"city"},{"id":"ir-128025","label":"Khalilabad","lat":35.25395,"lon":58.28566,"type":"city"},{"id":"ir-128008","label":"Khalkhal","lat":37.61837,"lon":48.52928,"type":"city"},{"id":"ir-127955","label":"Khan Bebin","lat":37.01225,"lon":54.98772,"type":"city"},{"id":"ir-127855","label":"Khan Laq","lat":37.42703,"lon":57.93913,"type":"city"},{"id":"ir-127033","label":"Khansar","lat":33.22052,"lon":50.31497,"type":"city"},{"id":"ir-130216","label":"Khark","lat":29.26139,"lon":50.33056,"type":"city"},{"id":"ir-1160571","label":"Khash","lat":28.22107,"lon":61.21582,"type":"city"},{"id":"ir-127593","label":"Khasht","lat":27.2346,"lon":53.4352,"type":"city"},{"id":"ir-127668","label":"Khatunabad","lat":30.008,"lon":55.421,"type":"city"},{"id":"ir-32895","label":"Khavar Shahr","lat":35.55597,"lon":51.55892,"type":"city"},{"id":"ir-127415","label":"Khomam","lat":37.39016,"lon":49.65846,"type":"city"},{"id":"ir-127403","label":"Khomeyn","lat":33.63889,"lon":50.08003,"type":"city"},{"id":"ir-418710","label":"Khomeyni Shahr","lat":32.6856,"lon":51.53609,"type":"city"},{"id":"ir-127389","label":"Khondab","lat":34.3928,"lon":49.1841,"type":"city"},{"id":"ir-127382","label":"Khonj","lat":27.8913,"lon":53.4344,"type":"city"},{"id":"ir-122914","label":"Khoramdasht","lat":35.92653,"lon":49.51525,"type":"city"},{"id":"ir-127342","label":"Khorramabad","lat":36.78265,"lon":50.87224,"type":"city"},{"id":"ir-127349","label":"Khorramabad","lat":33.48778,"lon":48.35583,"type":"city"},{"id":"ir-41210","label":"Khorramdarreh","lat":36.20777,"lon":49.19527,"type":"city"},{"id":"ir-127319","label":"Khorramshahr","lat":30.44079,"lon":48.18428,"type":"city"},{"id":"ir-127289","label":"Khoshk Bijar","lat":37.37389,"lon":49.75842,"type":"city"},{"id":"ir-127269","label":"Khoshkrud","lat":35.3986,"lon":50.3341,"type":"city"},{"id":"ir-127219","label":"Khosrowshahr","lat":37.9497,"lon":46.0528,"type":"city"},{"id":"ir-418699","label":"Khowrzuq","lat":32.778,"lon":51.64685,"type":"city"},{"id":"ir-127166","label":"Khumeh Zar","lat":30.00909,"lon":51.57786,"type":"city"},{"id":"ir-127029","label":"Khur","lat":33.77512,"lon":55.08329,"type":"city"},{"id":"ir-127131","label":"Khur","lat":27.6461,"lon":54.34392,"type":"city"},{"id":"ir-127109","label":"Khurin","lat":35.403,"lon":51.6392,"type":"city"},{"id":"ir-127014","label":"Khurmuj","lat":28.6543,"lon":51.38,"type":"city"},{"id":"ir-127098","label":"Khusf","lat":32.78108,"lon":58.89002,"type":"city"},{"id":"ir-126972","label":"Khuy","lat":38.5503,"lon":44.9521,"type":"city"},{"id":"ir-1160544","label":"Khvaf","lat":34.5763,"lon":60.14093,"type":"city"},{"id":"ir-7987","label":"Kia Kola","lat":36.68615,"lon":51.31444,"type":"city"},{"id":"ir-126962","label":"Kia Kola","lat":36.58028,"lon":52.81253,"type":"city"},{"id":"ir-115802","label":"Kian","lat":32.28418,"lon":50.89202,"type":"city"},{"id":"ir-126952","label":"Kiashahr","lat":37.42047,"lon":49.94692,"type":"city"},{"id":"ir-126914","label":"Kish","lat":26.55778,"lon":54.01944,"type":"city"},{"id":"ir-7944","label":"Kolaksar","lat":36.49625,"lon":52.34397,"type":"city"},{"id":"ir-126734","label":"Kolvanaq","lat":38.1002,"lon":46.9894,"type":"city"},{"id":"ir-418689","label":"Komeshcheh","lat":32.9054,"lon":51.8098,"type":"city"},{"id":"ir-126715","label":"Komijan","lat":34.72142,"lon":49.32653,"type":"city"},{"id":"ir-1160500","label":"Konarak","lat":25.3604,"lon":60.3995,"type":"city"},{"id":"ir-126656","label":"Kondor","lat":35.21191,"lon":58.15159,"type":"city"},{"id":"ir-126572","label":"Kord Kuy","lat":36.79307,"lon":54.11214,"type":"city"},{"id":"ir-126501","label":"Koshksaray","lat":38.45838,"lon":45.56708,"type":"city"},{"id":"ir-126435","label":"Kuchesfahan","lat":37.27818,"lon":49.77169,"type":"city"},{"id":"ir-126411","label":"Kuhbanan","lat":31.41029,"lon":56.28255,"type":"city"},{"id":"ir-126409","label":"Kuhdasht","lat":33.53335,"lon":47.60999,"type":"city"},{"id":"ir-27301","label":"Kuhnani","lat":33.40259,"lon":47.3273,"type":"city"},{"id":"ir-418681","label":"Kuhpayeh","lat":32.71511,"lon":52.43892,"type":"city"},{"id":"ir-13631356","label":"Kuhsar","lat":35.96471,"lon":50.79112,"type":"city"},{"id":"ir-129610","label":"Kujuvar","lat":38.05993,"lon":46.13809,"type":"city"},{"id":"ir-126267","label":"Kumeleh","lat":37.15495,"lon":50.17357,"type":"city"},{"id":"ir-418678","label":"Kushk","lat":32.64219,"lon":51.49955,"type":"city"},{"id":"ir-126082","label":"Kut-e 'Abdollah","lat":31.23917,"lon":48.65639,"type":"city"},{"id":"ir-7416833","label":"Kut-e Navaser","lat":31.22259,"lon":48.66038,"type":"city"},{"id":"ir-17861","label":"Lahijan","lat":37.9849,"lon":46.0863,"type":"city"},{"id":"ir-126015","label":"Lahijan","lat":37.20416,"lon":50.00919,"type":"city"},{"id":"ir-125961","label":"Lalejin","lat":34.9746,"lon":48.4758,"type":"city"},{"id":"ir-125938","label":"Lali","lat":32.32981,"lon":49.09324,"type":"city"},{"id":"ir-125926","label":"Lamerd","lat":27.334,"lon":53.179,"type":"city"},{"id":"ir-125726","label":"Landeh","lat":30.98215,"lon":50.4206,"type":"city"},{"id":"ir-125897","label":"Langarud","lat":37.19548,"lon":50.15263,"type":"city"},{"id":"ir-125881","label":"Lapu'i","lat":29.80046,"lon":52.65291,"type":"city"},{"id":"ir-125877","label":"Lar","lat":27.68336,"lon":54.34172,"type":"city"},{"id":"ir-125853","label":"Larim","lat":36.7187,"lon":52.93811,"type":"city"},{"id":"ir-125834","label":"Lashkarabad","lat":35.85534,"lon":50.7462,"type":"city"},{"id":"ir-125826","label":"Lasht-e Nesha","lat":37.36124,"lon":49.86108,"type":"city"},{"id":"ir-125798","label":"Latifi","lat":27.6901,"lon":54.3872,"type":"city"},{"id":"ir-125790","label":"Lavandevil","lat":38.30954,"lon":48.87244,"type":"city"},{"id":"ir-490","label":"Lavasan","lat":35.82159,"lon":51.64444,"type":"city"},{"id":"ir-125710","label":"Leylan","lat":37.01099,"lon":46.2065,"type":"city"},{"id":"ir-125688","label":"Likak","lat":30.8949,"lon":50.0931,"type":"city"},{"id":"ir-125609","label":"Lordegan","lat":31.51338,"lon":50.82672,"type":"city"},{"id":"ir-125585","label":"Lowshan","lat":36.62981,"lon":49.51282,"type":"city"},{"id":"ir-28776","label":"Lulaman","lat":37.25564,"lon":49.81628,"type":"city"},{"id":"ir-125016","label":"Ma'mulan","lat":33.3793,"lon":47.9596,"type":"city"},{"id":"ir-125489","label":"Madavan","lat":30.71525,"lon":51.54131,"type":"city"},{"id":"ir-125446","label":"Mahabad","lat":36.7631,"lon":45.7222,"type":"city"},{"id":"ir-6746932","label":"Mahajeran","lat":34.05042,"lon":49.43498,"type":"city"},{"id":"ir-125438","label":"Mahallat","lat":33.91108,"lon":50.45317,"type":"city"},{"id":"ir-122860","label":"Mahalleh-ye Najafabad","lat":30.63158,"lon":51.5981,"type":"city"},{"id":"ir-125427","label":"Mahan","lat":30.05943,"lon":57.29198,"type":"city"},{"id":"ir-124838","label":"Mahdasht","lat":35.7282,"lon":50.8134,"type":"city"},{"id":"ir-7100777","label":"Mahdishahr","lat":35.71071,"lon":53.35394,"type":"city"},{"id":"ir-26652","label":"Mahmudabad","lat":36.7197,"lon":46.5145,"type":"city"},{"id":"ir-125328","label":"Mahmudabad","lat":36.63191,"lon":52.26286,"type":"city"},{"id":"ir-125330","label":"Mahmudabad Nemuneh","lat":36.28967,"lon":49.9014,"type":"city"},{"id":"ir-124274","label":"Mahriz","lat":31.58428,"lon":54.4428,"type":"city"},{"id":"ir-6659743","label":"Majlesi","lat":32.19891,"lon":51.5,"type":"city"},{"id":"ir-125205","label":"Maku","lat":39.28992,"lon":44.46035,"type":"city"},{"id":"ir-125206","label":"Maku","lat":27.8486,"lon":52.423,"type":"city"},{"id":"ir-125188","label":"Malard","lat":35.6659,"lon":50.9767,"type":"city"},{"id":"ir-125185","label":"Malayer","lat":34.30158,"lon":48.82166,"type":"city"},{"id":"ir-125112","label":"Malekan","lat":37.14258,"lon":46.10345,"type":"city"},{"id":"ir-125035","label":"Mamqan","lat":37.843,"lon":45.9757,"type":"city"},{"id":"ir-6657461","label":"Mamuniyeh","lat":35.30454,"lon":50.49934,"type":"city"},{"id":"ir-124967","label":"Manjil","lat":36.74445,"lon":49.40082,"type":"city"},{"id":"ir-124925","label":"Mansuriyeh","lat":30.62942,"lon":50.3045,"type":"city"},{"id":"ir-124914","label":"Manujan","lat":27.39893,"lon":57.49722,"type":"city"},{"id":"ir-7492424","label":"Manzariyeh","lat":31.94509,"lon":51.87178,"type":"city"},{"id":"ir-124877","label":"Maragheh","lat":37.39206,"lon":46.23909,"type":"city"},{"id":"ir-124878","label":"Maragheh","lat":35.82916,"lon":59.63324,"type":"city"},{"id":"ir-124862","label":"Marand","lat":38.4329,"lon":45.7749,"type":"city"},{"id":"ir-124778","label":"Marivan","lat":35.51829,"lon":46.18298,"type":"city"},{"id":"ir-124775","label":"Marjaghal","lat":37.27975,"lon":49.37267,"type":"city"},{"id":"ir-124724","label":"Marvast","lat":30.47833,"lon":54.21167,"type":"city"},{"id":"ir-124721","label":"Marvdasht","lat":29.87407,"lon":52.80258,"type":"city"},{"id":"ir-124715","label":"Maryanaj","lat":34.831,"lon":48.4593,"type":"city"},{"id":"ir-124709","label":"Marzanabad","lat":36.45249,"lon":51.30023,"type":"city"},{"id":"ir-141015","label":"Masal","lat":37.3631,"lon":49.1329,"type":"city"},{"id":"ir-124665","label":"Mashhad","lat":36.29807,"lon":59.60567,"type":"city"},{"id":"ir-124667","label":"Mashkat","lat":34.1769,"lon":51.2651,"type":"city"},{"id":"ir-124620","label":"Masjed Soleyman","lat":31.9364,"lon":49.3039,"type":"city"},{"id":"ir-8535197","label":"Mehestan","lat":35.98907,"lon":50.74512,"type":"city"},{"id":"ir-404840","label":"Mehrabad","lat":35.7054,"lon":51.9134,"type":"city"},{"id":"ir-124298","label":"Mehraban","lat":38.0813,"lon":47.13169,"type":"city"},{"id":"ir-124291","label":"Mehran","lat":33.1222,"lon":46.1646,"type":"city"},{"id":"ir-1159306","label":"Mehrestan","lat":27.131,"lon":61.67445,"type":"city"},{"id":"ir-46554","label":"Mehrian","lat":30.6991,"lon":51.56398,"type":"city"},{"id":"ir-124210","label":"Meshgin Shahr","lat":38.399,"lon":47.682,"type":"city"},{"id":"ir-123205","label":"Meshkin Dasht","lat":35.74988,"lon":50.94376,"type":"city"},{"id":"ir-124193","label":"Meybod","lat":32.25014,"lon":54.01658,"type":"city"},{"id":"ir-124146","label":"Meymand","lat":28.86907,"lon":52.75023,"type":"city"},{"id":"ir-124085","label":"Miandoab","lat":36.96667,"lon":46.10961,"type":"city"},{"id":"ir-124082","label":"Mianeh","lat":37.421,"lon":47.715,"type":"city"},{"id":"ir-115491","label":"Mianrud","lat":32.15373,"lon":48.4403,"type":"city"},{"id":"ir-123986","label":"Milajerd","lat":34.62206,"lon":49.20798,"type":"city"},{"id":"ir-123941","label":"Minab","lat":27.13104,"lon":57.08716,"type":"city"},{"id":"ir-123927","label":"Minudasht","lat":37.23015,"lon":55.37211,"type":"city"},{"id":"ir-3315","label":"Mirabad","lat":36.4053,"lon":45.372,"type":"city"},{"id":"ir-1160258","label":"Mirjaveh","lat":29.0148,"lon":61.44959,"type":"city"},{"id":"ir-124094","label":"Miyanshahr","lat":28.7175,"lon":53.85763,"type":"city"},{"id":"ir-418625","label":"Mobarakeh","lat":32.34612,"lon":51.50205,"type":"city"},{"id":"ir-125443","label":"Mohajeran","lat":35.07624,"lon":48.61632,"type":"city"},{"id":"ir-400771","label":"Mohammad Shahr","lat":35.763,"lon":50.9171,"type":"city"},{"id":"ir-123494","label":"Mohammad Yar","lat":36.9861,"lon":45.5169,"type":"city"},{"id":"ir-1160245","label":"Mohammadan","lat":27.20015,"lon":60.55988,"type":"city"},{"id":"ir-6659981","label":"Mohammadiyeh","lat":36.22374,"lon":50.18247,"type":"city"},{"id":"ir-123485","label":"Mohr","lat":27.5521,"lon":52.88157,"type":"city"},{"id":"ir-7465130","label":"Mojtame'-e Maskuni-ye Namju","lat":35.4723,"lon":51.724,"type":"city"},{"id":"ir-8717127","label":"Moradabad Komb","lat":25.284,"lon":60.69812,"type":"city"},{"id":"ir-123266","label":"Morghan","lat":29.56236,"lon":52.65014,"type":"city"},{"id":"ir-32996","label":"Morteza Gerd","lat":35.6025,"lon":51.3496,"type":"city"},{"id":"ir-122989","label":"Musaabad","lat":31.9339,"lon":51.75196,"type":"city"},{"id":"ir-122869","label":"Na'in","lat":32.86006,"lon":53.08749,"type":"city"},{"id":"ir-122915","label":"Nahavand","lat":34.19088,"lon":48.37446,"type":"city"},{"id":"ir-418606","label":"Najafabad","lat":32.63464,"lon":51.36525,"type":"city"},{"id":"ir-122864","label":"Najafshahr","lat":29.38575,"lon":55.71758,"type":"city"},{"id":"ir-122787","label":"Nakhl-e Taqi","lat":27.49752,"lon":52.58653,"type":"city"},{"id":"ir-122721","label":"Namin","lat":38.4269,"lon":48.4839,"type":"city"},{"id":"ir-122698","label":"Naqadeh","lat":36.9553,"lon":45.388,"type":"city"},{"id":"ir-122687","label":"Naqneh","lat":31.93242,"lon":51.32933,"type":"city"},{"id":"ir-122369","label":"Narjeh","lat":35.99121,"lon":49.62519,"type":"city"},{"id":"ir-122560","label":"Nashtarud","lat":36.7509,"lon":51.02362,"type":"city"},{"id":"ir-6672634","label":"Nasim Shahr","lat":35.56504,"lon":51.16332,"type":"city"},{"id":"ir-13405749","label":"Nasimshahr","lat":35.56528,"lon":51.1583,"type":"city"},{"id":"ir-122544","label":"Nasirshahr","lat":35.49209,"lon":51.13836,"type":"city"},{"id":"ir-122491","label":"Natanz","lat":33.51118,"lon":51.91808,"type":"city"},{"id":"ir-122438","label":"Nazarabad","lat":35.95411,"lon":50.60607,"type":"city"},{"id":"ir-1160121","label":"Negur","lat":25.38882,"lon":61.13834,"type":"city"},{"id":"ir-1160120","label":"Nehbandan","lat":31.54185,"lon":60.03648,"type":"city"},{"id":"ir-122397","label":"Neka","lat":36.65079,"lon":53.29905,"type":"city"},{"id":"ir-122375","label":"Neqab","lat":36.70792,"lon":57.42146,"type":"city"},{"id":"ir-122289","label":"Neyriz","lat":29.1988,"lon":54.3278,"type":"city"},{"id":"ir-122285","label":"Neyshabur","lat":36.21329,"lon":58.79575,"type":"city"},{"id":"ir-1160110","label":"Nikshahr","lat":26.2258,"lon":60.2143,"type":"city"},{"id":"ir-122183","label":"Nimvar","lat":33.8871,"lon":50.5728,"type":"city"},{"id":"ir-15269","label":"Nir","lat":38.0346,"lon":47.9986,"type":"city"},{"id":"ir-10065","label":"Nosratabad","lat":36.16271,"lon":50.10051,"type":"city"},{"id":"ir-121993","label":"Now Kandeh","lat":36.73743,"lon":53.90899,"type":"city"},{"id":"ir-48464","label":"Nowdezh","lat":27.52728,"lon":57.45709,"type":"city"},{"id":"ir-121959","label":"Nowshahr","lat":36.64852,"lon":51.49621,"type":"city"},{"id":"ir-121934","label":"Nukan","lat":34.3609,"lon":47.17148,"type":"city"},{"id":"ir-113797","label":"Nur","lat":36.57168,"lon":52.0153,"type":"city"},{"id":"ir-24851","label":"Nurabad","lat":34.0734,"lon":47.9725,"type":"city"},{"id":"ir-121925","label":"Nurabad","lat":30.11405,"lon":51.52174,"type":"city"},{"id":"ir-121890","label":"Nushabad","lat":34.0797,"lon":51.4368,"type":"city"},{"id":"ir-21173","label":"Nushin","lat":37.7349,"lon":45.0513,"type":"city"},{"id":"ir-121861","label":"Omidiyeh","lat":30.76277,"lon":49.70226,"type":"city"},{"id":"ir-121801","label":"Orumiyeh","lat":37.55274,"lon":45.07605,"type":"city"},{"id":"ir-142902","label":"Orzu'iyeh","lat":28.45318,"lon":56.35994,"type":"city"},{"id":"ir-121795","label":"Oshnaviyeh","lat":37.0397,"lon":45.0983,"type":"city"},{"id":"ir-14203","label":"Oshtorinan","lat":34.01674,"lon":48.64307,"type":"city"},{"id":"ir-121781","label":"Osku","lat":37.91504,"lon":46.12258,"type":"city"},{"id":"ir-406487","label":"Ovrin","lat":35.5477,"lon":51.1282,"type":"city"},{"id":"ir-41428","label":"Padegan-e Manjil","lat":36.7415,"lon":49.4161,"type":"city"},{"id":"ir-9478811","label":"Pakdasht","lat":35.47854,"lon":51.6834,"type":"city"},{"id":"ir-6659672","label":"Parand","lat":35.47195,"lon":50.97547,"type":"city"},{"id":"ir-32973","label":"Parandak","lat":35.512,"lon":51.0532,"type":"city"},{"id":"ir-400756","label":"Parandak","lat":35.36183,"lon":50.68209,"type":"city"},{"id":"ir-121457","label":"Pardanjan","lat":32.25283,"lon":50.599,"type":"city"},{"id":"ir-6681051","label":"Pardis","lat":35.74687,"lon":51.81222,"type":"city"},{"id":"ir-400751","label":"Pareh Sar","lat":37.60041,"lon":49.07127,"type":"city"},{"id":"ir-121411","label":"Pariz","lat":29.87214,"lon":55.74964,"type":"city"},{"id":"ir-121380","label":"Parsabad","lat":39.6482,"lon":47.9174,"type":"city"},{"id":"ir-133852","label":"Parsian","lat":27.2083,"lon":53.0361,"type":"city"},{"id":"ir-401202","label":"Pasargad","lat":30.20194,"lon":53.18,"type":"city"},{"id":"ir-121240","label":"Paveh","lat":35.0434,"lon":46.3565,"type":"city"},{"id":"ir-418575","label":"Pir Bakran","lat":32.46786,"lon":51.55969,"type":"city"},{"id":"ir-121100","label":"Pir Bazar","lat":37.3435,"lon":49.54807,"type":"city"},{"id":"ir-121110","label":"Piranshahr","lat":36.701,"lon":45.1413,"type":"city"},{"id":"ir-1159975","label":"Pishin","lat":26.07937,"lon":61.75403,"type":"city"},{"id":"ir-120978","label":"Pishkamar","lat":37.52982,"lon":55.59313,"type":"city"},{"id":"ir-120972","label":"Pishva","lat":35.308,"lon":51.7267,"type":"city"},{"id":"ir-120936","label":"Pol-e Sefid","lat":36.11787,"lon":53.05531,"type":"city"},{"id":"ir-120954","label":"Poldasht","lat":39.348,"lon":45.071,"type":"city"},{"id":"ir-120949","label":"Poldokhtar","lat":33.15249,"lon":47.71014,"type":"city"},{"id":"ir-120695","label":"Qa'em Shahr","lat":36.46671,"lon":52.86762,"type":"city"},{"id":"ir-7451195","label":"Qa'emiyeh","lat":29.85176,"lon":51.5879,"type":"city"},{"id":"ir-120694","label":"Qa'en","lat":33.72654,"lon":59.18439,"type":"city"},{"id":"ir-120724","label":"Qaderabad","lat":30.2778,"lon":53.26569,"type":"city"},{"id":"ir-418571","label":"Qahderijan","lat":32.5773,"lon":51.45367,"type":"city"},{"id":"ir-418569","label":"Qahjavarestan","lat":32.70247,"lon":51.83882,"type":"city"},{"id":"ir-405265","label":"Qal'eh Now Khaleseh","lat":35.5125,"lon":51.5154,"type":"city"},{"id":"ir-13665079","label":"Qanavat","lat":34.61331,"lon":51.02563,"type":"city"},{"id":"ir-119730","label":"Qarah Zia' od Din","lat":38.8915,"lon":45.0255,"type":"city"},{"id":"ir-32767","label":"Qarchak","lat":35.42873,"lon":51.57757,"type":"city"},{"id":"ir-1159877","label":"Qasr-e Qand","lat":26.24833,"lon":60.7525,"type":"city"},{"id":"ir-119586","label":"Qasr-e Shirin","lat":34.5156,"lon":45.5791,"type":"city"},{"id":"ir-119505","label":"Qazvin","lat":36.26877,"lon":50.0041,"type":"city"},{"id":"ir-41979","label":"Qeshlaq","lat":35.6425,"lon":50.9777,"type":"city"},{"id":"ir-32948","label":"Qeshlaq-e Pa'in","lat":35.3968,"lon":51.5787,"type":"city"},{"id":"ir-119374","label":"Qeshm","lat":26.9492,"lon":56.2691,"type":"city"},{"id":"ir-400833","label":"Qiamdasht","lat":35.5237,"lon":51.6505,"type":"city"},{"id":"ir-119369","label":"Qidar","lat":36.11472,"lon":48.59111,"type":"city"},{"id":"ir-119264","label":"Qir","lat":28.4825,"lon":53.0346,"type":"city"},{"id":"ir-120292","label":"Qods","lat":35.7214,"lon":51.109,"type":"city"},{"id":"ir-119208","label":"Qom","lat":34.6401,"lon":50.8764,"type":"city"},{"id":"ir-1594","label":"Qoroq","lat":36.59053,"lon":53.05488,"type":"city"},{"id":"ir-119171","label":"Qoroq","lat":36.88998,"lon":54.71254,"type":"city"},{"id":"ir-12153299","label":"Qorqi-ye Sofla","lat":36.39276,"lon":59.67332,"type":"city"},{"id":"ir-119161","label":"Qorveh","lat":35.1664,"lon":47.80564,"type":"city"},{"id":"ir-119160","label":"Qorveh-ye Dargazin","lat":35.30954,"lon":49.10023,"type":"city"},{"id":"ir-119149","label":"Qotbabad","lat":28.64124,"lon":53.63835,"type":"city"},{"id":"ir-119115","label":"Quchan","lat":37.106,"lon":58.50955,"type":"city"},{"id":"ir-119010","label":"Rabor","lat":29.2912,"lon":56.9131,"type":"city"},{"id":"ir-118994","label":"Rafsanjan","lat":30.4067,"lon":55.9939,"type":"city"},{"id":"ir-118826","label":"Ramhormoz","lat":31.27997,"lon":49.60351,"type":"city"},{"id":"ir-117773","label":"Ramsar","lat":36.91796,"lon":50.64802,"type":"city"},{"id":"ir-118805","label":"Ramshir","lat":30.89315,"lon":49.40787,"type":"city"},{"id":"ir-1159836","label":"Rasak","lat":26.23682,"lon":61.39901,"type":"city"},{"id":"ir-118743","label":"Rasht","lat":37.27611,"lon":49.58862,"type":"city"},{"id":"ir-118705","label":"Ravansar","lat":34.7153,"lon":46.6533,"type":"city"},{"id":"ir-118704","label":"Ravar","lat":31.26562,"lon":56.80545,"type":"city"},{"id":"ir-118696","label":"Rayen","lat":29.5977,"lon":57.4386,"type":"city"},{"id":"ir-118681","label":"Razan","lat":35.38625,"lon":49.0334,"type":"city"},{"id":"ir-406460","label":"Razkan","lat":35.6259,"lon":51.1005,"type":"city"},{"id":"ir-418521","label":"Rehnan","lat":32.68325,"lon":51.60158,"type":"city"},{"id":"ir-118532","label":"Rezvanshahr","lat":37.54947,"lon":49.13736,"type":"city"},{"id":"ir-118367","label":"Robat Karim","lat":35.4846,"lon":51.0829,"type":"city"},{"id":"ir-118302","label":"Rostam Kola","lat":36.67784,"lon":53.42859,"type":"city"},{"id":"ir-118314","label":"Rostamabad","lat":36.90222,"lon":49.49748,"type":"city"},{"id":"ir-120351","label":"Rudan","lat":27.44194,"lon":57.19198,"type":"city"},{"id":"ir-118223","label":"Rudehen","lat":35.73338,"lon":51.90587,"type":"city"},{"id":"ir-118191","label":"Rudsar","lat":37.13696,"lon":50.29174,"type":"city"},{"id":"ir-118153","label":"Runiz","lat":29.192,"lon":53.7687,"type":"city"},{"id":"ir-144290","label":"Ruyan","lat":36.56892,"lon":51.96305,"type":"city"},{"id":"ir-118123","label":"Sa'adat Shahr","lat":30.07921,"lon":53.13464,"type":"city"},{"id":"ir-118048","label":"Sa'dabad","lat":29.3845,"lon":51.1148,"type":"city"},{"id":"ir-117814","label":"Sa'idabad","lat":35.6677,"lon":51.1858,"type":"city"},{"id":"ir-405225","label":"Sa'idabad","lat":35.7338,"lon":51.7014,"type":"city"},{"id":"ir-6672633","label":"Sabbashahr","lat":35.58026,"lon":51.11392,"type":"city"},{"id":"ir-118063","label":"Sabzevar","lat":36.2126,"lon":57.68191,"type":"city"},{"id":"ir-13645766","label":"Safadasht","lat":35.69244,"lon":50.84828,"type":"city"},{"id":"ir-137025","label":"Safashahr","lat":30.6131,"lon":53.1954,"type":"city"},{"id":"ir-126069","label":"Safiabad","lat":32.26299,"lon":48.41865,"type":"city"},{"id":"ir-117879","label":"Saggez Abad","lat":35.77326,"lon":49.93691,"type":"city"},{"id":"ir-418513","label":"Sagzi","lat":32.6907,"lon":52.1243,"type":"city"},{"id":"ir-13631338","label":"Sahand","lat":37.95104,"lon":46.1103,"type":"city"},{"id":"ir-117835","label":"Sahneh","lat":34.4813,"lon":47.6908,"type":"city"},{"id":"ir-36281","label":"Saleh Shahr","lat":32.21278,"lon":48.67237,"type":"city"},{"id":"ir-117708","label":"Salehabad","lat":34.9237,"lon":48.3427,"type":"city"},{"id":"ir-32843","label":"Salehieh","lat":35.50527,"lon":51.19142,"type":"city"},{"id":"ir-123179","label":"Salmanshahr","lat":36.70338,"lon":51.1957,"type":"city"},{"id":"ir-117656","label":"Salmas","lat":38.1973,"lon":44.7653,"type":"city"},{"id":"ir-117627","label":"Saman","lat":32.45014,"lon":50.91092,"type":"city"},{"id":"ir-117574","label":"Sanandaj","lat":35.31495,"lon":46.99883,"type":"city"},{"id":"ir-117461","label":"Sangar","lat":37.17938,"lon":49.69378,"type":"city"},{"id":"ir-117392","label":"Saqqez","lat":36.24992,"lon":46.2735,"type":"city"},{"id":"ir-117048","label":"Sara'eyn","lat":38.15022,"lon":48.07068,"type":"city"},{"id":"ir-117368","label":"Sarab","lat":37.9408,"lon":47.5367,"type":"city"},{"id":"ir-46663","label":"Sarab-e Taveh","lat":30.59808,"lon":51.57677,"type":"city"},{"id":"ir-117304","label":"Sarableh","lat":33.76772,"lon":46.56578,"type":"city"},{"id":"ir-1159716","label":"Sarakhs","lat":36.5449,"lon":61.1577,"type":"city"},{"id":"ir-1159713","label":"Saravan","lat":27.37089,"lon":62.33096,"type":"city"},{"id":"ir-117232","label":"Sarayan","lat":33.86017,"lon":58.52166,"type":"city"},{"id":"ir-117204","label":"Sarbisheh","lat":32.57566,"lon":59.79821,"type":"city"},{"id":"ir-117135","label":"Sardaran","lat":32.02095,"lon":48.7906,"type":"city"},{"id":"ir-117111","label":"Sardasht","lat":36.1552,"lon":45.4788,"type":"city"},{"id":"ir-117115","label":"Sardasht","lat":30.3277,"lon":50.219,"type":"city"},{"id":"ir-117096","label":"Sardrud","lat":38.02613,"lon":46.14763,"type":"city"},{"id":"ir-116996","label":"Sari","lat":36.56332,"lon":53.06009,"type":"city"},{"id":"ir-39227","label":"Sarkhonkalateh","lat":36.89149,"lon":54.56875,"type":"city"},{"id":"ir-120931","label":"Sarpol-e Zahab","lat":34.46109,"lon":45.86264,"type":"city"},{"id":"ir-116337","label":"Saruk","lat":30.61539,"lon":51.61475,"type":"city"},{"id":"ir-116739","label":"Sarvabad","lat":35.3126,"lon":46.3669,"type":"city"},{"id":"ir-116725","label":"Sarvestan","lat":29.2735,"lon":53.2203,"type":"city"},{"id":"ir-116667","label":"Saveh","lat":35.0213,"lon":50.3566,"type":"city"},{"id":"ir-418503","label":"Sedeh Lanjan","lat":32.37872,"lon":51.31601,"type":"city"},{"id":"ir-418500","label":"Sefid Dasht","lat":32.13244,"lon":51.18226,"type":"city"},{"id":"ir-32918","label":"Sefidar","lat":35.4724,"lon":51.11069,"type":"city"},{"id":"ir-122515","label":"Sefidshahr","lat":34.1265,"lon":51.3518,"type":"city"},{"id":"ir-116406","label":"Semirom","lat":31.41667,"lon":51.56667,"type":"city"},{"id":"ir-116402","label":"Semnan","lat":35.57691,"lon":53.39205,"type":"city"},{"id":"ir-116388","label":"Senjan","lat":34.05285,"lon":49.62144,"type":"city"},{"id":"ir-116326","label":"Seyah Cheshmeh","lat":39.06508,"lon":44.38416,"type":"city"},{"id":"ir-116319","label":"Seyyedan","lat":30.00399,"lon":53.00581,"type":"city"},{"id":"ir-44100","label":"Shabankareh","lat":29.47235,"lon":50.99524,"type":"city"},{"id":"ir-116126","label":"Shabestar","lat":38.1804,"lon":45.7028,"type":"city"},{"id":"ir-116105","label":"Shadbad-e Mashayekh","lat":37.9891,"lon":46.3585,"type":"city"},{"id":"ir-116102","label":"Shadegan","lat":30.64924,"lon":48.66497,"type":"city"},{"id":"ir-116076","label":"Shaft","lat":37.1702,"lon":49.3998,"type":"city"},{"id":"ir-140982","label":"Shahbaz","lat":33.87938,"lon":49.53193,"type":"city"},{"id":"ir-115960","label":"Shahdad","lat":30.41739,"lon":57.7067,"type":"city"},{"id":"ir-406472","label":"Shahedshahr","lat":35.5729,"lon":51.085,"type":"city"},{"id":"ir-117793","label":"Shahin Dezh","lat":36.6793,"lon":46.5669,"type":"city"},{"id":"ir-417472","label":"Shahin Shahr","lat":32.85788,"lon":51.5529,"type":"city"},{"id":"ir-418484","label":"Shahpurabad","lat":32.84343,"lon":51.74323,"type":"city"},{"id":"ir-115781","label":"Shahr-e Babak","lat":30.1165,"lon":55.1186,"type":"city"},{"id":"ir-127243","label":"Shahr-e Emam","lat":32.22767,"lon":48.42596,"type":"city"},{"id":"ir-115770","label":"Shahr-e Kord","lat":32.32612,"lon":50.8572,"type":"city"},{"id":"ir-115765","label":"Shahr-e Pir","lat":28.31043,"lon":54.33473,"type":"city"},{"id":"ir-6653052","label":"Shahr-e Sadra","lat":29.79972,"lon":52.50215,"type":"city"},{"id":"ir-8080737","label":"Shahrak-e 'Ala'in","lat":35.58231,"lon":51.45559,"type":"city"},{"id":"ir-32904","label":"Shahrak-e Emam Hasan","lat":35.48846,"lon":51.34567,"type":"city"},{"id":"ir-133166","label":"Shahrak-e Goldasteh","lat":35.6044,"lon":51.2707,"type":"city"},{"id":"ir-10944777","label":"Shahrak-e Ja'fariyeh","lat":35.663,"lon":50.997,"type":"city"},{"id":"ir-6648094","label":"Shahrak-e Madani","lat":30.54736,"lon":49.2593,"type":"city"},{"id":"ir-41589","label":"Shahrak-e Mohandesi-ye Zera'i","lat":35.772,"lon":50.956,"type":"city"},{"id":"ir-403126","label":"Shahrak-e Pabedana","lat":31.13444,"lon":56.39806,"type":"city"},{"id":"ir-6663569","label":"Shahrak-e Pardisan","lat":34.55734,"lon":50.80201,"type":"city"},{"id":"ir-404434","label":"Shahrak-e Qamsar","lat":35.5085,"lon":51.4024,"type":"city"},{"id":"ir-362","label":"Shahrak-e Qods","lat":35.75936,"lon":51.37601,"type":"city"},{"id":"ir-36286","label":"Shahrak-e Salman Farsi","lat":32.20208,"lon":48.28083,"type":"city"},{"id":"ir-45628","label":"Shahrak-e Taleqani","lat":30.835,"lon":50.19873,"type":"city"},{"id":"ir-32909","label":"Shahre Jadide Andisheh","lat":35.6803,"lon":51.0193,"type":"city"},{"id":"ir-418533","label":"Shahreza","lat":32.00877,"lon":51.86407,"type":"city"},{"id":"ir-143860","label":"Shahriar","lat":35.65884,"lon":51.05775,"type":"city"},{"id":"ir-135423","label":"Shahrud","lat":36.41819,"lon":54.97628,"type":"city"},{"id":"ir-115615","label":"Shal","lat":35.89814,"lon":49.76906,"type":"city"},{"id":"ir-115607","label":"Shalamzar","lat":32.0465,"lon":50.81639,"type":"city"},{"id":"ir-7108455","label":"Shalash","lat":36.9084,"lon":53.92647,"type":"city"},{"id":"ir-115580","label":"Shalman","lat":37.1551,"lon":50.21464,"type":"city"},{"id":"ir-115532","label":"Shamsabad","lat":32.29844,"lon":48.42913,"type":"city"},{"id":"ir-115456","label":"Shapur Jan","lat":29.53231,"lon":52.46682,"type":"city"},{"id":"ir-36278","label":"Sharafat","lat":32.0877,"lon":48.7684,"type":"city"},{"id":"ir-115382","label":"Sharifabad","lat":36.21167,"lon":50.14999,"type":"city"},{"id":"ir-115388","label":"Sharifabad","lat":35.42698,"lon":51.78456,"type":"city"},{"id":"ir-142567","label":"Shazand","lat":33.93132,"lon":49.40629,"type":"city"},{"id":"ir-115247","label":"Shendabad","lat":38.14373,"lon":45.62973,"type":"city"},{"id":"ir-6648621","label":"Sheyban","lat":31.40794,"lon":48.7946,"type":"city"},{"id":"ir-115019","label":"Shiraz","lat":29.61031,"lon":52.53113,"type":"city"},{"id":"ir-114242","label":"Shirud","lat":36.85035,"lon":50.80322,"type":"city"},{"id":"ir-114930","label":"Shirvan","lat":37.39669,"lon":57.92952,"type":"city"},{"id":"ir-401118","label":"Showt","lat":39.2192,"lon":44.77,"type":"city"},{"id":"ir-114593","label":"Shush","lat":32.1942,"lon":48.2436,"type":"city"},{"id":"ir-114584","label":"Shushtar","lat":32.04972,"lon":48.84843,"type":"city"},{"id":"ir-114489","label":"Siahkal","lat":37.15328,"lon":49.87136,"type":"city"},{"id":"ir-128392","label":"Simin Shahr","lat":37.01422,"lon":54.23004,"type":"city"},{"id":"ir-418463","label":"Sin","lat":32.85339,"lon":51.65636,"type":"city"},{"id":"ir-114259","label":"Sirjan","lat":29.45137,"lon":55.6809,"type":"city"},{"id":"ir-113848","label":"Sis","lat":38.1998,"lon":45.8126,"type":"city"},{"id":"ir-137013","label":"Sisakht","lat":30.86393,"lon":51.4559,"type":"city"},{"id":"ir-114196","label":"Soghad","lat":31.19295,"lon":52.51802,"type":"city"},{"id":"ir-114163","label":"Sojas","lat":36.23914,"lon":48.54899,"type":"city"},{"id":"ir-114131","label":"Soltanabad","lat":29.52922,"lon":52.54362,"type":"city"},{"id":"ir-114049","label":"Sonqor","lat":34.78187,"lon":47.59945,"type":"city"},{"id":"ir-113952","label":"Sorkheh","lat":35.4633,"lon":53.214,"type":"city"},{"id":"ir-113902","label":"Sorkhrud-e Gharbi","lat":36.67881,"lon":52.45182,"type":"city"},{"id":"ir-113860","label":"Sowme'eh Sara","lat":37.30134,"lon":49.31504,"type":"city"},{"id":"ir-113839","label":"Sud Jan","lat":32.52186,"lon":50.39903,"type":"city"},{"id":"ir-388686","label":"Sufian","lat":38.2775,"lon":45.9806,"type":"city"},{"id":"ir-113791","label":"Suleqan","lat":35.82209,"lon":51.26476,"type":"city"},{"id":"ir-113760","label":"Surak","lat":36.59488,"lon":53.20762,"type":"city"},{"id":"ir-113732","label":"Sureshjan","lat":32.3164,"lon":50.67707,"type":"city"},{"id":"ir-113723","label":"Surian","lat":30.4551,"lon":53.651,"type":"city"},{"id":"ir-137268","label":"Susangerd","lat":31.5635,"lon":48.18958,"type":"city"},{"id":"ir-113684","label":"Suza","lat":26.7807,"lon":56.063,"type":"city"},{"id":"ir-113659","label":"Tabas","lat":33.59586,"lon":56.92437,"type":"city"},{"id":"ir-113646","label":"Tabriz","lat":38.08,"lon":46.2919,"type":"city"},{"id":"ir-113637","label":"Tafihan","lat":29.42072,"lon":52.66385,"type":"city"},{"id":"ir-113636","label":"Tafresh","lat":34.69307,"lon":50.01601,"type":"city"},{"id":"ir-113632","label":"Taft","lat":31.74384,"lon":54.20278,"type":"city"},{"id":"ir-113514","label":"Tajrish","lat":35.8044,"lon":51.4256,"type":"city"},{"id":"ir-113508","label":"Takab","lat":36.4009,"lon":47.1133,"type":"city"},{"id":"ir-113491","label":"Takestan","lat":36.07057,"lon":49.69571,"type":"city"},{"id":"ir-110829","label":"Taqanak","lat":32.22392,"lon":50.83904,"type":"city"},{"id":"ir-1159384","label":"Taybad","lat":34.74,"lon":60.7756,"type":"city"},{"id":"ir-8571","label":"Tazehabad","lat":36.63159,"lon":51.48486,"type":"city"},{"id":"ir-112931","label":"Tehran","lat":35.69439,"lon":51.42151,"type":"city"},{"id":"ir-418446","label":"Tiran","lat":32.70328,"lon":51.15381,"type":"city"},{"id":"ir-1159368","label":"Tis","lat":25.3569,"lon":60.6209,"type":"city"},{"id":"ir-112656","label":"Tonekabon","lat":36.81626,"lon":50.87376,"type":"city"},{"id":"ir-112646","label":"Torbat-e Heydariyeh","lat":35.27401,"lon":59.21949,"type":"city"},{"id":"ir-1159362","label":"Torbat-e Jam","lat":35.244,"lon":60.6225,"type":"city"},{"id":"ir-113151","label":"Torkalaki","lat":32.24367,"lon":48.84688,"type":"city"},{"id":"ir-112634","label":"Torkaman","lat":37.5853,"lon":47.3896,"type":"city"},{"id":"ir-112616","label":"Torqabeh","lat":36.3104,"lon":59.3735,"type":"city"},{"id":"ir-112579","label":"Tula","lat":26.9789,"lon":56.2112,"type":"city"},{"id":"ir-112422","label":"Tuyserkan","lat":34.551,"lon":48.44353,"type":"city"},{"id":"ir-6651758","label":"Vahdattiyeh","lat":29.48431,"lon":51.2306,"type":"city"},{"id":"ir-404592","label":"Vahidiyeh","lat":35.71445,"lon":51.47086,"type":"city"},{"id":"ir-8420881","label":"Vahidiyeh","lat":35.60709,"lon":51.03457,"type":"city"},{"id":"ir-141833","label":"Valashahr","lat":29.28685,"lon":51.94253,"type":"city"},{"id":"ir-112214","label":"Varamin","lat":35.3242,"lon":51.6457,"type":"city"},{"id":"ir-418444","label":"Varnamkhvast","lat":32.3564,"lon":51.3787,"type":"city"},{"id":"ir-112124","label":"Varzaneh","lat":33.54218,"lon":50.50106,"type":"city"},{"id":"ir-112029","label":"Veys","lat":31.48595,"lon":48.87515,"type":"city"},{"id":"ir-111904","label":"Yamchi","lat":38.5234,"lon":45.6377,"type":"city"},{"id":"ir-66093","label":"Yasuj","lat":30.66824,"lon":51.58796,"type":"city"},{"id":"ir-111822","label":"Yazd","lat":31.89722,"lon":54.3675,"type":"city"},{"id":"ir-406476","label":"Yusefabad","lat":35.5813,"lon":51.052,"type":"city"},{"id":"ir-1113217","label":"Zabol","lat":31.0306,"lon":61.4949,"type":"city"},{"id":"ir-386346","label":"Zagh Marz","lat":36.80457,"lon":53.30256,"type":"city"},{"id":"ir-111613","label":"Zahed Shahr","lat":28.75001,"lon":53.80216,"type":"city"},{"id":"ir-1159301","label":"Zahedan","lat":29.4963,"lon":60.8629,"type":"city"},{"id":"ir-111475","label":"Zangiabad","lat":30.4102,"lon":56.9172,"type":"city"},{"id":"ir-111453","label":"Zanjan","lat":36.67642,"lon":48.49628,"type":"city"},{"id":"ir-111407","label":"Zarach","lat":31.99111,"lon":54.23194,"type":"city"},{"id":"ir-111421","label":"Zarand","lat":30.81271,"lon":56.56399,"type":"city"},{"id":"ir-111325","label":"Zargan-e Karaneh","lat":31.36588,"lon":48.76018,"type":"city"},{"id":"ir-111275","label":"Zarnaq","lat":38.0911,"lon":47.0828,"type":"city"},{"id":"ir-111327","label":"Zarqan","lat":29.77237,"lon":52.71891,"type":"city"},{"id":"ir-418418","label":"Zarrin Shahr","lat":32.39057,"lon":51.37654,"type":"city"},{"id":"ir-418416","label":"Zazeran","lat":32.60368,"lon":51.49825,"type":"city"},{"id":"ir-1159302","label":"Zehak","lat":30.894,"lon":61.6804,"type":"city"},{"id":"ir-111171","label":"Zehkalut","lat":27.79245,"lon":58.5876,"type":"city"},{"id":"ir-111130","label":"Zeydabad","lat":29.59995,"lon":55.53697,"type":"city"},{"id":"ir-111060","label":"Zia'abad","lat":35.99325,"lon":49.44638,"type":"city"},{"id":"ir-13590366","label":"Zibashahr","lat":32.38244,"lon":51.56779,"type":"city"},{"id":"ir-11725","label":"Zir Ab","lat":36.1797,"lon":52.97348,"type":"city"}]