[{"id":"jo-250799","label":"'Ajlun","lat":32.33326,"lon":35.75279,"type":"city"},{"id":"jo-250420","label":"`Anjarah","lat":32.30667,"lon":35.75443,"type":"city"},{"id":"jo-250124","label":"`Ayn Janna","lat":32.33466,"lon":35.7637,"type":"city"},{"id":"jo-250106","label":"`Ayy","lat":31.13371,"lon":35.64375,"type":"city"},{"id":"jo-248923","label":"`Izra","lat":31.15889,"lon":35.69278,"type":"city"},{"id":"jo-250095","label":"Al Azraq ash Shamali","lat":31.88209,"lon":36.83017,"type":"city"},{"id":"jo-250718","label":"Al Fuhays","lat":32.00468,"lon":35.78088,"type":"city"},{"id":"jo-250697","label":"Al Hamra'","lat":32.44017,"lon":36.15265,"type":"city"},{"id":"jo-250637","label":"Al Jubayhah","lat":32.01071,"lon":35.89802,"type":"city"},{"id":"jo-250623","label":"Al Karamah","lat":31.95439,"lon":35.58033,"type":"city"},{"id":"jo-250187","label":"Al Khinzirah","lat":31.05056,"lon":35.60606,"type":"city"},{"id":"jo-250603","label":"Al Kittah","lat":32.27685,"lon":35.84114,"type":"city"},{"id":"jo-250540","label":"Al Mazar al Janubi","lat":31.06722,"lon":35.69486,"type":"city"},{"id":"jo-250480","label":"Al Qatranah","lat":31.25083,"lon":36.04932,"type":"city"},{"id":"jo-250462","label":"Al Quwayrah","lat":29.80045,"lon":35.3116,"type":"city"},{"id":"jo-250441","label":"Amman","lat":31.95522,"lon":35.94503,"type":"city"},{"id":"jo-250774","label":"Aqaba","lat":29.52667,"lon":35.00778,"type":"city"},{"id":"jo-250336","label":"Ar Ramtha","lat":32.55873,"lon":36.00816,"type":"city"},{"id":"jo-250258","label":"As Salt","lat":32.03917,"lon":35.72722,"type":"city"},{"id":"jo-250294","label":"Ash Shajarah","lat":32.64391,"lon":35.94175,"type":"city"},{"id":"jo-250198","label":"At Tafilah","lat":30.83752,"lon":35.60442,"type":"city"},{"id":"jo-250186","label":"At Tayyibah","lat":32.54304,"lon":35.71756,"type":"city"},{"id":"jo-250179","label":"At Turrah","lat":32.63979,"lon":35.98943,"type":"city"},{"id":"jo-250152","label":"Aydun","lat":32.50528,"lon":35.85809,"type":"city"},{"id":"jo-10861986","label":"Az Zulayl","lat":32.1208,"lon":36.28008,"type":"city"},{"id":"jo-250052","label":"Balila","lat":32.39109,"lon":35.93832,"type":"city"},{"id":"jo-249930","label":"Bayt Yafa","lat":32.52253,"lon":35.78618,"type":"city"},{"id":"jo-249842","label":"Busayra","lat":30.73256,"lon":35.60943,"type":"city"},{"id":"jo-249676","label":"Dayr Yusuf","lat":32.48701,"lon":35.79635,"type":"city"},{"id":"jo-249318","label":"Hakama","lat":32.59354,"lon":35.8832,"type":"city"},{"id":"jo-249310","label":"Halawah","lat":32.38433,"lon":35.66167,"type":"city"},{"id":"jo-249184","label":"Hatim","lat":32.64492,"lon":35.77771,"type":"city"},{"id":"jo-250738","label":"Hayy al Bunayyat","lat":31.89603,"lon":35.88465,"type":"city"},{"id":"jo-250461","label":"Hayy al Quwaysimah","lat":31.91037,"lon":35.94975,"type":"city"},{"id":"jo-248583","label":"Hayy Khilda","lat":31.99202,"lon":35.84002,"type":"city"},{"id":"jo-248946","label":"Irbid","lat":32.55556,"lon":35.85,"type":"city"},{"id":"jo-248875","label":"Jarash","lat":32.28082,"lon":35.89929,"type":"city"},{"id":"jo-248843","label":"Jawa","lat":31.85247,"lon":35.93928,"type":"city"},{"id":"jo-248803","label":"Judita","lat":32.40792,"lon":35.70802,"type":"city"},{"id":"jo-248738","label":"Kafr Abil","lat":32.41752,"lon":35.66305,"type":"city"},{"id":"jo-248734","label":"Kafr Asad","lat":32.598,"lon":35.71266,"type":"city"},{"id":"jo-248719","label":"Kafr Sawm","lat":32.68527,"lon":35.80102,"type":"city"},{"id":"jo-6946409","label":"Karak City","lat":31.16368,"lon":35.76204,"type":"city"},{"id":"jo-248627","label":"Kharja","lat":32.65988,"lon":35.88782,"type":"city"},{"id":"jo-248460","label":"Khuraybat as Suq","lat":31.87913,"lon":35.92098,"type":"city"},{"id":"jo-248434","label":"Kitim","lat":32.43834,"lon":35.89677,"type":"city"},{"id":"jo-248414","label":"Kurayyimah","lat":32.27639,"lon":35.59938,"type":"city"},{"id":"jo-248382","label":"Ma'an","lat":30.19624,"lon":35.73405,"type":"city"},{"id":"jo-248370","label":"Madaba","lat":31.71599,"lon":35.79392,"type":"city"},{"id":"jo-250582","label":"Mafraq","lat":32.34289,"lon":36.20804,"type":"city"},{"id":"jo-248299","label":"Mahis","lat":31.98646,"lon":35.76987,"type":"city"},{"id":"jo-248250","label":"Malka","lat":32.67645,"lon":35.74851,"type":"city"},{"id":"jo-13308287","label":"Marj Al Hamam","lat":31.90274,"lon":35.84645,"type":"city"},{"id":"jo-250624","label":"Qir Moav","lat":31.18248,"lon":35.69999,"type":"city"},{"id":"jo-247496","label":"Qumaym","lat":32.57174,"lon":35.73452,"type":"city"},{"id":"jo-247340","label":"Raymun","lat":32.28202,"lon":35.82779,"type":"city"},{"id":"jo-247336","label":"Rehab","lat":32.32341,"lon":36.09087,"type":"city"},{"id":"jo-11428685","label":"Rukban","lat":33.31405,"lon":38.70342,"type":"city"},{"id":"jo-7838895","label":"Russeifa","lat":32.01778,"lon":36.04639,"type":"city"},{"id":"jo-11352362","label":"Ruwaished","lat":32.5041,"lon":38.2011,"type":"city"},{"id":"jo-247176","label":"Sabha","lat":32.32696,"lon":36.50159,"type":"city"},{"id":"jo-250267","label":"Safi","lat":31.03608,"lon":35.46544,"type":"city"},{"id":"jo-247105","label":"Sahab","lat":31.87032,"lon":36.00479,"type":"city"},{"id":"jo-247103","label":"Saham al Kaffarat","lat":32.69848,"lon":35.77438,"type":"city"},{"id":"jo-247074","label":"Sakhrah","lat":32.37087,"lon":35.84267,"type":"city"},{"id":"jo-247068","label":"Sakib","lat":32.28431,"lon":35.80909,"type":"city"},{"id":"jo-247061","label":"Sal","lat":32.56897,"lon":35.91185,"type":"city"},{"id":"jo-247015","label":"Samma","lat":32.57102,"lon":35.68984,"type":"city"},{"id":"jo-246725","label":"Suf","lat":32.31372,"lon":35.83713,"type":"city"},{"id":"jo-13286467","label":"Suwaylih","lat":32.0221,"lon":35.84394,"type":"city"},{"id":"jo-246522","label":"Tibnah","lat":32.47521,"lon":35.73056,"type":"city"},{"id":"jo-246314","label":"Umm as Summaq","lat":31.88542,"lon":35.8543,"type":"city"},{"id":"jo-246013","label":"Wadi as Sir","lat":31.9545,"lon":35.81831,"type":"city"},{"id":"jo-246008","label":"Wadi Musa","lat":30.32096,"lon":35.47895,"type":"city"},{"id":"jo-245989","label":"Waqqas","lat":32.54214,"lon":35.60508,"type":"city"},{"id":"jo-250090","label":"Zarqa","lat":32.07275,"lon":36.08796,"type":"city"}]