[{"id":"kg-1528944","label":"Ak-Dzhar","lat":41.17417,"lon":75.7891,"type":"city"},{"id":"kg-1527232","label":"Ak-Suu","lat":42.49948,"lon":78.52702,"type":"city"},{"id":"kg-1528875","label":"Ala-Buka","lat":41.4105,"lon":71.48628,"type":"city"},{"id":"kg-1222708","label":"Andarak","lat":39.76849,"lon":69.46398,"type":"city"},{"id":"kg-1528796","label":"At-Bashi","lat":41.16951,"lon":75.80099,"type":"city"},{"id":"kg-1222635","label":"Aydarken","lat":39.94319,"lon":71.34184,"type":"city"},{"id":"kg-1528766","label":"Baetovo","lat":41.26668,"lon":74.95698,"type":"city"},{"id":"kg-1527004","label":"Balykchy","lat":42.46017,"lon":76.18709,"type":"city"},{"id":"kg-1528735","label":"Batken","lat":40.0604,"lon":70.81929,"type":"city"},{"id":"kg-1528717","label":"Bazar-Korgon","lat":41.0376,"lon":72.74586,"type":"city"},{"id":"kg-1528702","label":"Belovodskoye","lat":42.82944,"lon":74.1083,"type":"city"},{"id":"kg-1528675","label":"Bishkek","lat":42.87,"lon":74.59,"type":"city"},{"id":"kg-1528666","label":"Bokombayevskoye","lat":42.11769,"lon":76.99332,"type":"city"},{"id":"kg-1528642","label":"Boz-Beshik","lat":42.43247,"lon":77.95153,"type":"city"},{"id":"kg-1528512","label":"Cholpon-Ata","lat":42.64944,"lon":77.08225,"type":"city"},{"id":"kg-1222683","label":"Daroot-Korgon","lat":39.55274,"lon":72.20518,"type":"city"},{"id":"kg-1528320","label":"Gul'cha","lat":40.3138,"lon":73.44418,"type":"city"},{"id":"kg-1528283","label":"Iradan","lat":40.26667,"lon":72.1,"type":"city"},{"id":"kg-1528252","label":"Ivanovka","lat":42.88778,"lon":75.085,"type":"city"},{"id":"kg-1528234","label":"Kaindy","lat":42.82469,"lon":73.67585,"type":"city"},{"id":"kg-1528193","label":"Kant","lat":42.89106,"lon":74.85077,"type":"city"},{"id":"kg-1528091","label":"Kara Suu","lat":40.7046,"lon":72.86666,"type":"city"},{"id":"kg-1528182","label":"Kara-Balta","lat":42.81423,"lon":73.84813,"type":"city"},{"id":"kg-1528124","label":"Kara-Kul'","lat":41.62828,"lon":72.67027,"type":"city"},{"id":"kg-8145969","label":"Kara-Kulja","lat":40.63223,"lon":73.59249,"type":"city"},{"id":"kg-1528121","label":"Karakol","lat":42.49047,"lon":78.39197,"type":"city"},{"id":"kg-1222640","label":"Katran","lat":39.84434,"lon":70.01474,"type":"city"},{"id":"kg-1528005","label":"Kazarman","lat":41.40452,"lon":74.02828,"type":"city"},{"id":"kg-1528606","label":"Kemin","lat":42.78611,"lon":75.69167,"type":"city"},{"id":"kg-1528052","label":"Kerben","lat":41.49399,"lon":71.75826,"type":"city"},{"id":"kg-1527951","label":"Khalmion","lat":40.21218,"lon":71.63274,"type":"city"},{"id":"kg-1527903","label":"Kochkor-Ata","lat":41.03709,"lon":72.4832,"type":"city"},{"id":"kg-1528288","label":"Kolkhoz Imeni Kirova","lat":41.83711,"lon":72.89782,"type":"city"},{"id":"kg-8377525","label":"Kulundu","lat":40.10635,"lon":69.64127,"type":"city"},{"id":"kg-1527919","label":"Kyzyl-Adyr","lat":42.61981,"lon":71.5891,"type":"city"},{"id":"kg-8375168","label":"Kyzyl-Bel'","lat":40.09991,"lon":70.74053,"type":"city"},{"id":"kg-8375151","label":"Kyzyl-Jol","lat":40.04158,"lon":70.81207,"type":"city"},{"id":"kg-1527719","label":"Kyzyl-Kyya","lat":40.25684,"lon":72.12793,"type":"city"},{"id":"kg-1527497","label":"Kyzyl-Suu","lat":42.34211,"lon":78.00644,"type":"city"},{"id":"kg-1527690","label":"Lebedinovka","lat":42.88454,"lon":74.67819,"type":"city"},{"id":"kg-1528249","label":"Manas","lat":40.94498,"lon":72.99313,"type":"city"},{"id":"kg-1527689","label":"Massy","lat":41.0601,"lon":72.63285,"type":"city"},{"id":"kg-1540657","label":"Mayevka","lat":42.90927,"lon":74.5685,"type":"city"},{"id":"kg-1527592","label":"Naryn","lat":41.4283,"lon":75.9957,"type":"city"},{"id":"kg-1540656","label":"Nizhnyaya Ala-Archa","lat":42.92245,"lon":74.56684,"type":"city"},{"id":"kg-1528339","label":"Nookat","lat":40.26597,"lon":72.61834,"type":"city"},{"id":"kg-1527534","label":"Osh","lat":40.52828,"lon":72.7985,"type":"city"},{"id":"kg-1527496","label":"Pokrovka","lat":42.7362,"lon":71.60982,"type":"city"},{"id":"kg-1222662","label":"Razzakov","lat":39.83895,"lon":69.5276,"type":"city"},{"id":"kg-8375152","label":"Samarkandyk","lat":39.9981,"lon":70.54589,"type":"city"},{"id":"kg-1527351","label":"Sosnovka","lat":42.63707,"lon":73.89608,"type":"city"},{"id":"kg-1527347","label":"Sovetskoye","lat":41.05178,"lon":72.73965,"type":"city"},{"id":"kg-1222562","label":"Suluktu","lat":39.93652,"lon":69.56779,"type":"city"},{"id":"kg-1527317","label":"Suzak","lat":40.8982,"lon":72.90481,"type":"city"},{"id":"kg-1527299","label":"Talas","lat":42.52256,"lon":72.2417,"type":"city"},{"id":"kg-1527260","label":"Tash-Kumyr","lat":41.34612,"lon":72.21707,"type":"city"},{"id":"kg-1527199","label":"Tokmok","lat":42.84194,"lon":75.30149,"type":"city"},{"id":"kg-1538648","label":"Toktogul","lat":41.87442,"lon":72.94192,"type":"city"},{"id":"kg-1527121","label":"Tyup","lat":42.7276,"lon":78.36476,"type":"city"},{"id":"kg-1527103","label":"Uch-Korgon","lat":40.22881,"lon":72.05924,"type":"city"},{"id":"kg-1527513","label":"Uzgen","lat":40.76994,"lon":73.30068,"type":"city"}]