[{"id":"lr-2278889","label":"Barclayville","lat":4.67443,"lon":-8.23306,"type":"city"},{"id":"lr-2278682","label":"Bensonville","lat":6.44716,"lon":-10.61283,"type":"city"},{"id":"lr-2278248","label":"Bopolu","lat":7.06667,"lon":-10.4875,"type":"city"},{"id":"lr-2278158","label":"Buchanan","lat":5.87693,"lon":-10.04964,"type":"city"},{"id":"lr-2273638","label":"Fish Town","lat":5.19739,"lon":-7.87579,"type":"city"},{"id":"lr-2277301","label":"Foya Kamara","lat":8.36028,"lon":-10.20639,"type":"city"},{"id":"lr-2277197","label":"Ganta","lat":7.30222,"lon":-8.53083,"type":"city"},{"id":"lr-2277241","label":"Ganta","lat":7.235,"lon":-8.98444,"type":"city"},{"id":"lr-2277060","label":"Gbarnga","lat":6.99543,"lon":-9.47122,"type":"city"},{"id":"lr-2276600","label":"Greenville","lat":5.01133,"lon":-9.0388,"type":"city"},{"id":"lr-2276506","label":"Harbel","lat":6.24683,"lon":-10.35642,"type":"city"},{"id":"lr-2276492","label":"Harper","lat":4.3782,"lon":-7.71081,"type":"city"},{"id":"lr-2276086","label":"Kakata","lat":6.53104,"lon":-10.35368,"type":"city"},{"id":"lr-2276103","label":"Karnplay","lat":7.26972,"lon":-8.50389,"type":"city"},{"id":"lr-2274895","label":"Monrovia","lat":6.30054,"lon":-10.7969,"type":"city"},{"id":"lr-2272790","label":"New Yekepa","lat":7.57944,"lon":-8.53778,"type":"city"},{"id":"lr-2274372","label":"Pleebo City","lat":4.58953,"lon":-7.67218,"type":"city"},{"id":"lr-2274288","label":"River Cess","lat":5.45683,"lon":-9.58167,"type":"city"},{"id":"lr-2274286","label":"River Gbeh","lat":5.21194,"lon":-7.66806,"type":"city"},{"id":"lr-2274275","label":"Robertsport","lat":6.75329,"lon":-11.3671,"type":"city"},{"id":"lr-2274222","label":"Saclepea","lat":6.9625,"lon":-8.84056,"type":"city"},{"id":"lr-2274129","label":"Sanniquellie","lat":7.36215,"lon":-8.71326,"type":"city"},{"id":"lr-2273435","label":"Tubmanburg","lat":6.87064,"lon":-10.8211,"type":"city"},{"id":"lr-2273312","label":"Voinjama","lat":8.42194,"lon":-9.74778,"type":"city"},{"id":"lr-2272534","label":"Zorzor","lat":7.77944,"lon":-9.43028,"type":"city"},{"id":"lr-2272491","label":"Zwedru","lat":6.06846,"lon":-8.13559,"type":"city"}]