[{"id":"mc-13527009","label":"Jardin Exotique","lat":43.73049,"lon":7.41399,"type":"city"},{"id":"mc-3009937","label":"La Condamine","lat":43.73439,"lon":7.42024,"type":"city"},{"id":"mc-13527010","label":"La Rousse","lat":43.74754,"lon":7.43141,"type":"city"},{"id":"mc-2993458","label":"Monaco","lat":43.73718,"lon":7.42145,"type":"city"},{"id":"mc-2992741","label":"Monte-Carlo","lat":43.73976,"lon":7.42732,"type":"city"}]