[{"id":"mm-1463085","label":"Ah Lel","lat":16.9224,"lon":96.06344,"type":"city"},{"id":"mm-1481898","label":"Ah Pyin Pa Dan","lat":16.86061,"lon":96.02815,"type":"city"},{"id":"mm-1328955","label":"Ah Twin Pa Dan","lat":16.87159,"lon":96.0295,"type":"city"},{"id":"mm-1329548","label":"Ahlone","lat":16.78897,"lon":96.12649,"type":"city"},{"id":"mm-1329221","label":"Amarapura","lat":21.90709,"lon":96.04894,"type":"city"},{"id":"mm-1481708","label":"Ananbin","lat":16.91318,"lon":96.13335,"type":"city"},{"id":"mm-1328872","label":"Ann","lat":19.79537,"lon":94.04791,"type":"city"},{"id":"mm-13546410","label":"Aung San","lat":16.92153,"lon":96.09715,"type":"city"},{"id":"mm-1328865","label":"Aungban","lat":20.6606,"lon":96.63488,"type":"city"},{"id":"mm-1300466","label":"Bago","lat":17.33521,"lon":96.48135,"type":"city"},{"id":"mm-1328348","label":"Bawhan","lat":19.86773,"lon":96.83192,"type":"city"},{"id":"mm-1328218","label":"Bhamo","lat":24.25256,"lon":97.23357,"type":"city"},{"id":"mm-1328121","label":"Bogale","lat":16.29415,"lon":95.39742,"type":"city"},{"id":"mm-1328076","label":"Bokpyin","lat":11.26576,"lon":98.76087,"type":"city"},{"id":"mm-1327995","label":"Botataung","lat":16.77182,"lon":96.17332,"type":"city"},{"id":"mm-1327854","label":"Buthidaung Town","lat":20.87537,"lon":92.53,"type":"city"},{"id":"mm-1327659","label":"Chauk","lat":20.89921,"lon":94.81784,"type":"city"},{"id":"mm-13546366","label":"Chit Tee Kone","lat":16.93153,"lon":96.15921,"type":"city"},{"id":"mm-13546411","label":"Da Nyin Kone","lat":16.93342,"lon":96.0931,"type":"city"},{"id":"mm-1326951","label":"Daik-u","lat":17.79506,"lon":96.66983,"type":"city"},{"id":"mm-10793787","label":"Danai","lat":26.35926,"lon":96.71997,"type":"city"},{"id":"mm-12403088","label":"Dar Pein South","lat":17.02999,"lon":96.36601,"type":"city"},{"id":"mm-1326703","label":"Dawbon","lat":16.51634,"lon":95.60285,"type":"city"},{"id":"mm-1293625","label":"Dawei","lat":14.0823,"lon":98.19151,"type":"city"},{"id":"mm-13562172","label":"Dimawso","lat":19.54982,"lon":97.15604,"type":"city"},{"id":"mm-1326279","label":"Don Wun","lat":17.14201,"lon":97.27444,"type":"city"},{"id":"mm-1326105","label":"Falam","lat":22.91335,"lon":93.67779,"type":"city"},{"id":"mm-1325814","label":"Gwa","lat":17.59369,"lon":94.57996,"type":"city"},{"id":"mm-1325467","label":"Haing Ku","lat":17.277,"lon":96.19017,"type":"city"},{"id":"mm-1325443","label":"Hakha","lat":22.64452,"lon":93.61076,"type":"city"},{"id":"mm-1325259","label":"Heho","lat":20.72315,"lon":96.82278,"type":"city"},{"id":"mm-1325211","label":"Hinthada","lat":17.64944,"lon":95.45705,"type":"city"},{"id":"mm-8740157","label":"Hlaingthaya","lat":16.85,"lon":96.06667,"type":"city"},{"id":"mm-1324528","label":"Hlaw Kar","lat":17.00039,"lon":96.07009,"type":"city"},{"id":"mm-12217376","label":"Hledan","lat":16.82646,"lon":96.13016,"type":"city"},{"id":"mm-1324494","label":"Hlegu","lat":17.09567,"lon":96.22056,"type":"city"},{"id":"mm-1324385","label":"Hmaw Bi","lat":16.63557,"lon":97.61526,"type":"city"},{"id":"mm-1323949","label":"Hopin","lat":24.99146,"lon":96.52681,"type":"city"},{"id":"mm-1300701","label":"Hpa Yar Gyi","lat":16.65567,"lon":96.01853,"type":"city"},{"id":"mm-1300700","label":"Hpa Yar Gyi Su","lat":16.73993,"lon":96.05901,"type":"city"},{"id":"mm-1302849","label":"Hpa-An","lat":16.88953,"lon":97.63482,"type":"city"},{"id":"mm-1323815","label":"Hpakan","lat":25.6138,"lon":96.31482,"type":"city"},{"id":"mm-12403084","label":"Hpaung Gyi East","lat":17.33455,"lon":96.17541,"type":"city"},{"id":"mm-12403083","label":"Hpaung Gyi West","lat":17.32838,"lon":96.17298,"type":"city"},{"id":"mm-1323174","label":"Hsenwi","lat":23.3026,"lon":97.96569,"type":"city"},{"id":"mm-10242629","label":"Htantabin","lat":17.1333,"lon":95.9167,"type":"city"},{"id":"mm-13546367","label":"Htauk Kyant Toe Cheit","lat":17.03191,"lon":96.13959,"type":"city"},{"id":"mm-12402945","label":"Htein Hnit Pin","lat":16.96716,"lon":95.99132,"type":"city"},{"id":"mm-1322301","label":"Inbawhkon","lat":20.4459,"lon":96.89594,"type":"city"},{"id":"mm-1322192","label":"Indaw","lat":24.22052,"lon":96.14232,"type":"city"},{"id":"mm-1322148","label":"Ingabu","lat":17.81192,"lon":95.27044,"type":"city"},{"id":"mm-1321921","label":"Inn Taing","lat":17.1153,"lon":96.3228,"type":"city"},{"id":"mm-1321937","label":"Insein","lat":16.88874,"lon":96.10257,"type":"city"},{"id":"mm-1321188","label":"Ka Lok","lat":16.67381,"lon":95.92348,"type":"city"},{"id":"mm-1463094","label":"Kalagyisu","lat":16.88268,"lon":96.0304,"type":"city"},{"id":"mm-1321275","label":"Kalaw","lat":20.63459,"lon":96.56454,"type":"city"},{"id":"mm-1321218","label":"Kalemyo","lat":23.19014,"lon":94.06405,"type":"city"},{"id":"mm-1321209","label":"Kalewa","lat":23.19762,"lon":94.30221,"type":"city"},{"id":"mm-12404163","label":"Kan Beit","lat":16.72491,"lon":95.99371,"type":"city"},{"id":"mm-13546398","label":"Kan Nar Middle","lat":16.88052,"lon":96.09703,"type":"city"},{"id":"mm-1481673","label":"Kan Nar West","lat":16.88099,"lon":96.09251,"type":"city"},{"id":"mm-1320997","label":"Kanaungto","lat":16.76385,"lon":96.097,"type":"city"},{"id":"mm-1320974","label":"Kanbalu","lat":23.20328,"lon":95.51695,"type":"city"},{"id":"mm-1320944","label":"Kanbe","lat":16.70728,"lon":96.00168,"type":"city"},{"id":"mm-1320189","label":"Kasin","lat":16.88672,"lon":96.08247,"type":"city"},{"id":"mm-1320155","label":"Katha","lat":24.17541,"lon":96.34144,"type":"city"},{"id":"mm-1319898","label":"Kawkareik","lat":16.55543,"lon":98.2371,"type":"city"},{"id":"mm-1319573","label":"Kawthoung","lat":9.98238,"lon":98.55034,"type":"city"},{"id":"mm-1319533","label":"Kayan","lat":16.90802,"lon":96.56037,"type":"city"},{"id":"mm-1319364","label":"Keng Tung","lat":21.63093,"lon":99.92676,"type":"city"},{"id":"mm-1294974","label":"Kone Ta La Paung","lat":17.00845,"lon":96.14971,"type":"city"},{"id":"mm-1317511","label":"Kungyangon","lat":16.44258,"lon":96.0194,"type":"city"},{"id":"mm-1317682","label":"Kutkai","lat":23.45789,"lon":97.93799,"type":"city"},{"id":"mm-1463210","label":"Kyaik Tha Le","lat":16.67286,"lon":96.0135,"type":"city"},{"id":"mm-1317402","label":"Kyaikkami","lat":16.07686,"lon":97.56388,"type":"city"},{"id":"mm-1317397","label":"Kyaiklat","lat":16.44502,"lon":95.72373,"type":"city"},{"id":"mm-1317375","label":"Kyaikto","lat":17.30858,"lon":97.01124,"type":"city"},{"id":"mm-13546368","label":"Kyan Khin Su","lat":16.89506,"lon":96.14205,"type":"city"},{"id":"mm-1317343","label":"Kyar Inn West","lat":17.17402,"lon":96.1381,"type":"city"},{"id":"mm-1316943","label":"Kyaukme","lat":22.5392,"lon":97.03434,"type":"city"},{"id":"mm-1316870","label":"Kyaukpadaung","lat":20.84158,"lon":95.1267,"type":"city"},{"id":"mm-1316752","label":"Kyaukpyu","lat":19.42793,"lon":93.55134,"type":"city"},{"id":"mm-1316703","label":"Kyaukse","lat":21.6056,"lon":96.13508,"type":"city"},{"id":"mm-1316642","label":"Kyauktaga","lat":17.49468,"lon":96.97758,"type":"city"},{"id":"mm-1316539","label":"Kyauktan","lat":24.2782,"lon":95.89487,"type":"city"},{"id":"mm-1316574","label":"Kyauktan","lat":16.63736,"lon":96.32512,"type":"city"},{"id":"mm-1316499","label":"Kyauktaw","lat":20.84468,"lon":92.97527,"type":"city"},{"id":"mm-1463025","label":"Kyaung Kone","lat":17.00058,"lon":96.08275,"type":"city"},{"id":"mm-1316173","label":"Kyeintali","lat":18.00611,"lon":94.49,"type":"city"},{"id":"mm-1319389","label":"Kyimyindine","lat":16.80852,"lon":96.12415,"type":"city"},{"id":"mm-13546404","label":"Kyo Kone East","lat":16.88578,"lon":96.11463,"type":"city"},{"id":"mm-1481696","label":"Kyo Kone West","lat":16.87333,"lon":96.11306,"type":"city"},{"id":"mm-1315749","label":"Kyonpyaw","lat":17.30132,"lon":95.19833,"type":"city"},{"id":"mm-1315592","label":"Kyun Ka Lay","lat":17.08506,"lon":96.19835,"type":"city"},{"id":"mm-1315244","label":"Labutta","lat":16.14948,"lon":94.75898,"type":"city"},{"id":"mm-1315056","label":"Lakang","lat":24.66051,"lon":97.18923,"type":"city"},{"id":"mm-1314759","label":"Lashio","lat":22.9359,"lon":97.7498,"type":"city"},{"id":"mm-13494766","label":"Laukkai","lat":23.69611,"lon":98.76214,"type":"city"},{"id":"mm-1314619","label":"Lawksawk","lat":21.2481,"lon":96.86731,"type":"city"},{"id":"mm-1314042","label":"Letpandan","lat":17.78664,"lon":95.75076,"type":"city"},{"id":"mm-1313795","label":"Lewe","lat":19.63606,"lon":96.10998,"type":"city"},{"id":"mm-1313479","label":"Loikaw","lat":19.67798,"lon":97.20975,"type":"city"},{"id":"mm-13645768","label":"Longwa","lat":26.66172,"lon":95.22004,"type":"city"},{"id":"mm-1312649","label":"Madaya","lat":22.21148,"lon":96.10387,"type":"city"},{"id":"mm-1312609","label":"Magway","lat":20.14956,"lon":94.93246,"type":"city"},{"id":"mm-1311909","label":"Manaung","lat":18.85479,"lon":93.72913,"type":"city"},{"id":"mm-1311874","label":"Mandalay","lat":21.97473,"lon":96.08359,"type":"city"},{"id":"mm-1310460","label":"Martaban","lat":16.52834,"lon":97.6157,"type":"city"},{"id":"mm-1310362","label":"Maubin","lat":16.73148,"lon":95.65441,"type":"city"},{"id":"mm-1310120","label":"Mawlaik","lat":23.64254,"lon":94.40478,"type":"city"},{"id":"mm-1308465","label":"Mawlamyine","lat":16.49051,"lon":97.62825,"type":"city"},{"id":"mm-1308464","label":"Mawlamyinegyunn","lat":16.3772,"lon":95.26488,"type":"city"},{"id":"mm-1309866","label":"Me Taw","lat":11.71716,"lon":98.6303,"type":"city"},{"id":"mm-1309401","label":"Mee Pya","lat":16.54489,"lon":96.32128,"type":"city"},{"id":"mm-1309793","label":"Meiktila","lat":20.87776,"lon":95.85844,"type":"city"},{"id":"mm-13546371","label":"Min Ga Lar Don Zay","lat":16.92316,"lon":96.11643,"type":"city"},{"id":"mm-1309230","label":"Min Ga Lun","lat":16.57786,"lon":96.4619,"type":"city"},{"id":"mm-1309205","label":"Min Kone","lat":17.3519,"lon":96.2103,"type":"city"},{"id":"mm-1309289","label":"Minbu","lat":20.18059,"lon":94.87595,"type":"city"},{"id":"mm-13589383","label":"Mingala Tangnyunt","lat":16.78855,"lon":96.17234,"type":"city"},{"id":"mm-1309233","label":"Mingaladon","lat":16.92406,"lon":96.09768,"type":"city"},{"id":"mm-1847826","label":"Moeng La","lat":21.67112,"lon":100.01267,"type":"city"},{"id":"mm-1308567","label":"Moeng Yang","lat":21.8478,"lon":99.67651,"type":"city"},{"id":"mm-1847816","label":"Moeng Yawng","lat":21.17924,"lon":100.35761,"type":"city"},{"id":"mm-1308946","label":"Mogaung","lat":25.30543,"lon":96.93537,"type":"city"},{"id":"mm-1308937","label":"Mogok","lat":22.91766,"lon":96.50982,"type":"city"},{"id":"mm-1308910","label":"Mohnyin","lat":24.77822,"lon":96.36863,"type":"city"},{"id":"mm-1308522","label":"Monywa","lat":22.10856,"lon":95.13583,"type":"city"},{"id":"mm-1307658","label":"Mrauk U","lat":20.59,"lon":93.19062,"type":"city"},{"id":"mm-1308318","label":"Mu-se","lat":23.99742,"lon":97.90109,"type":"city"},{"id":"mm-1308415","label":"Mudon","lat":16.25624,"lon":97.7246,"type":"city"},{"id":"mm-1308204","label":"Myanaung","lat":18.28651,"lon":95.32014,"type":"city"},{"id":"mm-1308078","label":"Myaungmya","lat":16.59875,"lon":94.92111,"type":"city"},{"id":"mm-1308052","label":"Myawaddy","lat":16.68911,"lon":98.50893,"type":"city"},{"id":"mm-1329239","label":"Myaydo","lat":19.36838,"lon":95.21512,"type":"city"},{"id":"mm-1309611","label":"Myeik","lat":12.43954,"lon":98.60028,"type":"city"},{"id":"mm-1481929","label":"Myenigon","lat":16.80623,"lon":96.13506,"type":"city"},{"id":"mm-1307835","label":"Myingyan","lat":21.46002,"lon":95.3884,"type":"city"},{"id":"mm-1307741","label":"Myitkyina","lat":25.38327,"lon":97.39637,"type":"city"},{"id":"mm-13546402","label":"Myo Thit Ga","lat":16.86508,"lon":96.09879,"type":"city"},{"id":"mm-13546403","label":"Myo Thit Ka","lat":16.87373,"lon":96.09702,"type":"city"},{"id":"mm-1307101","label":"Namhkam","lat":23.83342,"lon":97.67984,"type":"city"},{"id":"mm-1306443","label":"Nansang","lat":20.89184,"lon":97.71672,"type":"city"},{"id":"mm-13546406","label":"Nant Thar Kone","lat":16.89275,"lon":96.11144,"type":"city"},{"id":"mm-1305715","label":"Nat Sin Kone","lat":16.59729,"lon":96.05138,"type":"city"},{"id":"mm-6611854","label":"Nay Pyi Taw","lat":19.745,"lon":96.12972,"type":"city"},{"id":"mm-1304530","label":"Ngapali","lat":18.43664,"lon":94.32215,"type":"city"},{"id":"mm-1303830","label":"Nwe Khway","lat":17.0231,"lon":96.1458,"type":"city"},{"id":"mm-1463107","label":"Nyaung","lat":16.83458,"lon":96.08796,"type":"city"},{"id":"mm-1463232","label":"Nyaung Waing","lat":16.66722,"lon":96.32301,"type":"city"},{"id":"mm-1303351","label":"Nyaung-U","lat":21.20056,"lon":94.90827,"type":"city"},{"id":"mm-1285871","label":"Nyaungdon","lat":17.04459,"lon":95.63957,"type":"city"},{"id":"mm-1303406","label":"Nyaunglebin","lat":17.95363,"lon":96.72247,"type":"city"},{"id":"mm-1463105","label":"Oke Kan","lat":16.85299,"lon":96.06562,"type":"city"},{"id":"mm-1481644","label":"Okpo","lat":16.97266,"lon":96.0882,"type":"city"},{"id":"mm-13526961","label":"Pa Du Mone","lat":26.00669,"lon":95.8647,"type":"city"},{"id":"mm-1302439","label":"Pakokku","lat":21.33489,"lon":95.08438,"type":"city"},{"id":"mm-1288322","label":"Pangkham","lat":22.17924,"lon":99.16666,"type":"city"},{"id":"mm-1301804","label":"Panglong","lat":24.10051,"lon":98.31264,"type":"city"},{"id":"mm-1328421","label":"Pathein","lat":16.77919,"lon":94.73212,"type":"city"},{"id":"mm-13546340","label":"Pauk Kone","lat":16.94566,"lon":96.14569,"type":"city"},{"id":"mm-1301005","label":"Paung","lat":16.61753,"lon":97.45851,"type":"city"},{"id":"mm-1300969","label":"Paungde","lat":18.49167,"lon":95.50591,"type":"city"},{"id":"mm-1481671","label":"Pawgan","lat":16.90842,"lon":96.09778,"type":"city"},{"id":"mm-11778166","label":"Payathonzu","lat":15.31771,"lon":98.38836,"type":"city"},{"id":"mm-1300567","label":"Pazundaung","lat":16.79574,"lon":96.17493,"type":"city"},{"id":"mm-1481694","label":"Peinnegon","lat":16.88177,"lon":96.10346,"type":"city"},{"id":"mm-1300310","label":"Pekon","lat":19.86766,"lon":97.00668,"type":"city"},{"id":"mm-1299371","label":"Putao","lat":27.35264,"lon":97.40038,"type":"city"},{"id":"mm-1299225","label":"Pya Tha Taik","lat":16.64254,"lon":95.91808,"type":"city"},{"id":"mm-13546372","label":"Pyan Lel Nay Yar Cha Htar Ye","lat":16.97189,"lon":96.1274,"type":"city"},{"id":"mm-1299237","label":"Pyapon","lat":16.28543,"lon":95.67882,"type":"city"},{"id":"mm-1299182","label":"Pyawbwe","lat":20.59193,"lon":96.05202,"type":"city"},{"id":"mm-1299184","label":"Pyawbwe Gyi","lat":16.67735,"lon":96.14391,"type":"city"},{"id":"mm-1299154","label":"Pyay","lat":18.81996,"lon":95.21562,"type":"city"},{"id":"mm-13546373","label":"Pyi Taw Thar","lat":16.93592,"lon":96.12686,"type":"city"},{"id":"mm-1463026","label":"Pyin Ma Pin","lat":16.9958,"lon":96.13152,"type":"city"},{"id":"mm-1309937","label":"Pyin Oo Lwin","lat":22.03501,"lon":96.45683,"type":"city"},{"id":"mm-1298987","label":"Pyinmana","lat":19.7381,"lon":96.20742,"type":"city"},{"id":"mm-1298911","label":"Pyu","lat":18.4813,"lon":96.43742,"type":"city"},{"id":"mm-1298482","label":"Sagaing","lat":21.8787,"lon":95.97965,"type":"city"},{"id":"mm-1480266","label":"San Chaung","lat":17.0953,"lon":96.0992,"type":"city"},{"id":"mm-13546369","label":"San Gyi Wa","lat":16.93503,"lon":96.13747,"type":"city"},{"id":"mm-13589382","label":"Sangyoung","lat":16.80607,"lon":96.13355,"type":"city"},{"id":"mm-1298601","label":"Sar Bu Taung","lat":17.21299,"lon":96.22972,"type":"city"},{"id":"mm-13546405","label":"Saw Bwar Gyi Kone","lat":16.88644,"lon":96.12818,"type":"city"},{"id":"mm-1297516","label":"Seikgyi","lat":16.75863,"lon":96.11618,"type":"city"},{"id":"mm-1481927","label":"Set Ka Lay","lat":16.81435,"lon":96.11393,"type":"city"},{"id":"mm-1481890","label":"Setsan","lat":16.81025,"lon":96.11401,"type":"city"},{"id":"mm-1463102","label":"Shan Chaung","lat":16.86034,"lon":96.09011,"type":"city"},{"id":"mm-13561226","label":"Shwe Kokko","lat":16.82082,"lon":98.53085,"type":"city"},{"id":"mm-1296536","label":"Shwe Lin Ban","lat":16.89659,"lon":96.06801,"type":"city"},{"id":"mm-1463228","label":"Shwe Pyauk","lat":16.6605,"lon":96.31287,"type":"city"},{"id":"mm-1296736","label":"Shwebo","lat":22.56925,"lon":95.69818,"type":"city"},{"id":"mm-1296645","label":"Shwegu","lat":24.22673,"lon":96.79085,"type":"city"},{"id":"mm-1296614","label":"Shwegyin","lat":17.92118,"lon":96.87676,"type":"city"},{"id":"mm-1481655","label":"Shwenatha","lat":16.98837,"lon":96.16219,"type":"city"},{"id":"mm-1481706","label":"Sinngu","lat":16.9132,"lon":96.0974,"type":"city"},{"id":"mm-1295765","label":"Sittwe","lat":20.14624,"lon":92.89835,"type":"city"},{"id":"mm-1463186","label":"Ta Dar Chaung","lat":16.73949,"lon":96.17307,"type":"city"},{"id":"mm-1295301","label":"Tachilek","lat":20.4475,"lon":99.88083,"type":"city"},{"id":"mm-1295087","label":"Taikkyi","lat":17.31439,"lon":95.96293,"type":"city"},{"id":"mm-1294761","label":"Tamu","lat":24.21663,"lon":94.31216,"type":"city"},{"id":"mm-1294547","label":"Tangyan","lat":22.49441,"lon":98.39277,"type":"city"},{"id":"mm-1293120","label":"Tanintharyi","lat":12.09032,"lon":99.01165,"type":"city"},{"id":"mm-1294250","label":"Tatkon","lat":24.679,"lon":95.07416,"type":"city"},{"id":"mm-1294204","label":"Taukkyan","lat":17.04351,"lon":96.13629,"type":"city"},{"id":"mm-13546407","label":"Taung Thu Kone","lat":16.89815,"lon":96.11018,"type":"city"},{"id":"mm-1294041","label":"Taungdwingyi","lat":20.0065,"lon":95.54531,"type":"city"},{"id":"mm-1293960","label":"Taunggyi","lat":20.78919,"lon":97.03776,"type":"city"},{"id":"mm-1290596","label":"Taungoo","lat":18.94291,"lon":96.43408,"type":"city"},{"id":"mm-1293696","label":"Taungup","lat":18.85609,"lon":94.24078,"type":"city"},{"id":"mm-1293586","label":"Taw Pyar","lat":12.21627,"lon":98.45449,"type":"city"},{"id":"mm-13546374","label":"Taw Taik","lat":16.95822,"lon":96.11501,"type":"city"},{"id":"mm-11072083","label":"Tedim","lat":23.37583,"lon":93.65389,"type":"city"},{"id":"mm-1292931","label":"Tha Pyay Kone","lat":16.73284,"lon":96.14139,"type":"city"},{"id":"mm-1292208","label":"Tha Wun Taw","lat":16.76117,"lon":95.93605,"type":"city"},{"id":"mm-1292579","label":"Thanatpin","lat":17.29136,"lon":96.57523,"type":"city"},{"id":"mm-1292507","label":"Thanbyuzayat","lat":15.96893,"lon":97.72745,"type":"city"},{"id":"mm-1292443","label":"Thanhlyin","lat":16.78195,"lon":96.24678,"type":"city"},{"id":"mm-1295395","label":"Thanlyin","lat":16.76887,"lon":96.24503,"type":"city"},{"id":"mm-1292313","label":"Tharyarwady","lat":17.65399,"lon":95.78813,"type":"city"},{"id":"mm-1292288","label":"Thaton","lat":16.91867,"lon":97.37001,"type":"city"},{"id":"mm-1292037","label":"Thayetmyo","lat":19.32076,"lon":95.18272,"type":"city"},{"id":"mm-1291451","label":"Thin Gan Kyun Gyi","lat":16.95735,"lon":96.15541,"type":"city"},{"id":"mm-1291193","label":"Thongwa","lat":16.75998,"lon":96.52498,"type":"city"},{"id":"mm-1290374","label":"Twante","lat":16.70836,"lon":95.9336,"type":"city"},{"id":"mm-1289828","label":"Wakema","lat":16.60333,"lon":95.18278,"type":"city"},{"id":"mm-1289709","label":"War Net Kone","lat":17.12959,"lon":96.26851,"type":"city"},{"id":"mm-13546462","label":"Ward 1","lat":16.91342,"lon":96.18941,"type":"city"},{"id":"mm-13546466","label":"Ward 5","lat":16.89272,"lon":96.19986,"type":"city"},{"id":"mm-1286591","label":"Waw","lat":17.47702,"lon":96.67828,"type":"city"},{"id":"mm-1286026","label":"Wundwin","lat":21.09417,"lon":96.02803,"type":"city"},{"id":"mm-1285899","label":"Yamethin","lat":20.43189,"lon":96.13875,"type":"city"},{"id":"mm-1298824","label":"Yangon","lat":16.80528,"lon":96.15611,"type":"city"},{"id":"mm-1285693","label":"Yawnghwe","lat":20.65973,"lon":96.93376,"type":"city"},{"id":"mm-1285606","label":"Ye","lat":15.24645,"lon":97.85506,"type":"city"},{"id":"mm-1285198","label":"Ye Mun","lat":17.14281,"lon":96.28308,"type":"city"},{"id":"mm-1480237","label":"Ye Su","lat":17.0556,"lon":96.12869,"type":"city"},{"id":"mm-1285002","label":"Ye-u","lat":22.76722,"lon":95.42758,"type":"city"},{"id":"mm-1285457","label":"Yedashe","lat":19.15633,"lon":96.34593,"type":"city"},{"id":"mm-1285173","label":"Yenangyaung","lat":20.46504,"lon":94.8712,"type":"city"},{"id":"mm-1285094","label":"Yesagyo","lat":21.63241,"lon":95.24619,"type":"city"},{"id":"mm-13546408","label":"Ywar Ma East","lat":16.8993,"lon":96.10319,"type":"city"},{"id":"mm-13546409","label":"Ywar Ma Middle","lat":16.8951,"lon":96.09702,"type":"city"},{"id":"mm-1284569","label":"Ywar Ma West","lat":16.89672,"lon":96.09173,"type":"city"},{"id":"mm-1284120","label":"Za Yat Kwin","lat":17.15188,"lon":96.31343,"type":"city"},{"id":"mm-1284225","label":"Zalun","lat":17.47941,"lon":95.55924,"type":"city"},{"id":"mm-13546401","label":"Zay Kone East","lat":16.88353,"lon":96.10963,"type":"city"},{"id":"mm-1463081","label":"Zee Kone","lat":16.94964,"lon":96.10227,"type":"city"},{"id":"mm-1283976","label":"Zi Byu Gon","lat":16.73718,"lon":95.91683,"type":"city"},{"id":"mm-1283878","label":"Zigon","lat":18.33559,"lon":95.6215,"type":"city"}]