[{"id":"pf-4034745","label":"Afaahiti","lat":-17.74395,"lon":-149.32444,"type":"city"},{"id":"pf-4034636","label":"Arue","lat":-17.52764,"lon":-149.53437,"type":"city"},{"id":"pf-4034561","label":"Faaa","lat":-17.55933,"lon":-149.60352,"type":"city"},{"id":"pf-4034307","label":"Mahina","lat":-17.50648,"lon":-149.48899,"type":"city"},{"id":"pf-4034005","label":"Paea","lat":-17.68333,"lon":-149.58333,"type":"city"},{"id":"pf-4033951","label":"Papao","lat":-17.75,"lon":-149.55,"type":"city"},{"id":"pf-4033936","label":"Papeete","lat":-17.5347,"lon":-149.56843,"type":"city"},{"id":"pf-4033838","label":"Pirae","lat":-17.52985,"lon":-149.55119,"type":"city"},{"id":"pf-4033779","label":"Punaauia","lat":-17.63333,"lon":-149.6,"type":"city"},{"id":"pf-8063344","label":"Taiohae","lat":-8.91093,"lon":-140.09972,"type":"city"},{"id":"pf-4033205","label":"Uturoa","lat":-16.73022,"lon":-151.44256,"type":"city"},{"id":"pf-4033062","label":"Vaitoare","lat":-16.67618,"lon":-151.45743,"type":"city"}]