[{"id":"sn-2254689","label":"Amady Ounare","lat":15.34714,"lon":-13.01647,"type":"city"},{"id":"sn-2254441","label":"Bakel","lat":14.90238,"lon":-12.45935,"type":"city"},{"id":"sn-7670740","label":"Bambey","lat":14.70074,"lon":-16.45911,"type":"city"},{"id":"sn-2254154","label":"Bargny","lat":14.69707,"lon":-17.23015,"type":"city"},{"id":"sn-2254153","label":"Bargny Guedj","lat":14.68698,"lon":-17.22808,"type":"city"},{"id":"sn-2595382","label":"Bargny Ngoude","lat":14.69407,"lon":-17.2353,"type":"city"},{"id":"sn-2253901","label":"Bignona","lat":12.81028,"lon":-16.22639,"type":"city"},{"id":"sn-2253844","label":"Birkelane","lat":14.12933,"lon":-15.74409,"type":"city"},{"id":"sn-2253522","label":"Bounkiling","lat":13.05,"lon":-15.7,"type":"city"},{"id":"sn-2253408","label":"Dabo","lat":12.88333,"lon":-14.48333,"type":"city"},{"id":"sn-2253375","label":"Dagana","lat":16.47667,"lon":-15.6,"type":"city"},{"id":"sn-2253354","label":"Dakar","lat":14.6937,"lon":-17.44406,"type":"city"},{"id":"sn-2253277","label":"Dara","lat":15.34844,"lon":-15.47993,"type":"city"},{"id":"sn-2253037","label":"Dembankane","lat":15.08893,"lon":-12.6998,"type":"city"},{"id":"sn-2595640","label":"Diamniadio","lat":14.72051,"lon":-17.1816,"type":"city"},{"id":"sn-2252685","label":"Diaoube","lat":12.91667,"lon":-14.16667,"type":"city"},{"id":"sn-2252606","label":"Diawara","lat":15.02196,"lon":-12.54374,"type":"city"},{"id":"sn-2252473","label":"Diofior","lat":14.1899,"lon":-16.66089,"type":"city"},{"id":"sn-2252336","label":"Diouloulou","lat":13.05009,"lon":-16.59978,"type":"city"},{"id":"sn-2252309","label":"Diourbel","lat":14.64792,"lon":-16.24363,"type":"city"},{"id":"sn-2252132","label":"Dougnane","lat":14.95856,"lon":-16.86999,"type":"city"},{"id":"sn-2251911","label":"Fatick","lat":14.33236,"lon":-16.40513,"type":"city"},{"id":"sn-2251791","label":"Foundiougne","lat":14.12272,"lon":-16.46916,"type":"city"},{"id":"sn-2251750","label":"Gae","lat":16.56667,"lon":-15.45,"type":"city"},{"id":"sn-2251713","label":"Galoya Toucouleur","lat":16.07397,"lon":-13.85894,"type":"city"},{"id":"sn-2251688","label":"Gandiaye","lat":14.24362,"lon":-16.27231,"type":"city"},{"id":"sn-2251544","label":"Golere","lat":16.25575,"lon":-14.10165,"type":"city"},{"id":"sn-2251490","label":"Gossas Village","lat":14.48409,"lon":-16.11377,"type":"city"},{"id":"sn-2251473","label":"Goudiry","lat":14.18146,"lon":-12.71803,"type":"city"},{"id":"sn-2251470","label":"Goudomp","lat":12.57778,"lon":-15.87222,"type":"city"},{"id":"sn-2251327","label":"Guede","lat":16.53839,"lon":-14.80412,"type":"city"},{"id":"sn-2595778","label":"Guediawaye","lat":14.77446,"lon":-17.40212,"type":"city"},{"id":"sn-2251292","label":"Gueoul","lat":15.48333,"lon":-16.35,"type":"city"},{"id":"sn-2251230","label":"Guinguineo","lat":14.2695,"lon":-15.94508,"type":"city"},{"id":"sn-2251178","label":"Haire Lao","lat":16.39697,"lon":-14.32196,"type":"city"},{"id":"sn-13117829","label":"Jaxaay Parcelle Niakoul Rap","lat":14.77474,"lon":-17.28024,"type":"city"},{"id":"sn-2251084","label":"Joal","lat":14.17309,"lon":-16.84929,"type":"city"},{"id":"sn-2251007","label":"Kaffrine","lat":14.10594,"lon":-15.5508,"type":"city"},{"id":"sn-2250982","label":"Kahone","lat":14.15838,"lon":-16.03572,"type":"city"},{"id":"sn-2250849","label":"Kanel","lat":15.4916,"lon":-13.17627,"type":"city"},{"id":"sn-2250805","label":"Kaolack","lat":14.15197,"lon":-16.07259,"type":"city"},{"id":"sn-2250773","label":"Karang Poste","lat":13.60661,"lon":-16.42427,"type":"city"},{"id":"sn-2250677","label":"Kayar","lat":14.91893,"lon":-17.11978,"type":"city"},{"id":"sn-2250668","label":"Kbombole","lat":14.76667,"lon":-16.7,"type":"city"},{"id":"sn-2250659","label":"Kebemer","lat":15.365,"lon":-16.4339,"type":"city"},{"id":"sn-2250645","label":"Kedougou","lat":12.55561,"lon":-12.18076,"type":"city"},{"id":"sn-2250306","label":"Keur Madiabel","lat":13.8472,"lon":-16.05774,"type":"city"},{"id":"sn-2248385","label":"KeurMedoune","lat":14.75835,"lon":-15.90434,"type":"city"},{"id":"sn-2249901","label":"Khombole","lat":14.76361,"lon":-16.6916,"type":"city"},{"id":"sn-2249892","label":"Kidira","lat":14.45668,"lon":-12.21659,"type":"city"},{"id":"sn-2249782","label":"Kolda","lat":12.8939,"lon":-14.94125,"type":"city"},{"id":"sn-2249576","label":"Koumpentoum","lat":13.98333,"lon":-14.56667,"type":"city"},{"id":"sn-2249554","label":"Koungheul","lat":13.98333,"lon":-14.8,"type":"city"},{"id":"sn-2249550","label":"Koungneul Sosse","lat":13.96667,"lon":-14.81667,"type":"city"},{"id":"sn-2249545","label":"Kounkane","lat":12.93333,"lon":-14.08333,"type":"city"},{"id":"sn-2595758","label":"Le Plateau","lat":14.66222,"lon":-17.43972,"type":"city"},{"id":"sn-2249281","label":"Linguere","lat":15.3953,"lon":-15.1193,"type":"city"},{"id":"sn-2249222","label":"Louga","lat":15.61867,"lon":-16.22436,"type":"city"},{"id":"sn-12640235","label":"Madina Wandifa","lat":13.05794,"lon":-15.64319,"type":"city"},{"id":"sn-2248788","label":"MalemHodar","lat":14.08873,"lon":-15.29197,"type":"city"},{"id":"sn-2248777","label":"Marsassoum","lat":12.8275,"lon":-15.98056,"type":"city"},{"id":"sn-2248752","label":"Matam","lat":15.65587,"lon":-13.25544,"type":"city"},{"id":"sn-2248698","label":"Mbake","lat":14.79032,"lon":-15.90803,"type":"city"},{"id":"sn-2248515","label":"Mboro","lat":15.14051,"lon":-16.88682,"type":"city"},{"id":"sn-2248477","label":"Mbour","lat":14.42196,"lon":-16.96375,"type":"city"},{"id":"sn-2248433","label":"Medina Gounas","lat":13.13607,"lon":-13.75566,"type":"city"},{"id":"sn-2248409","label":"Mekhe","lat":15.1097,"lon":-16.6218,"type":"city"},{"id":"sn-8030383","label":"Mermoz Boabab","lat":14.70649,"lon":-17.47581,"type":"city"},{"id":"sn-11101616","label":"N'diareme limamoulaye","lat":14.78148,"lon":-17.3841,"type":"city"},{"id":"sn-2247994","label":"Ndiagne","lat":15.4094,"lon":-16.0707,"type":"city"},{"id":"sn-2252804","label":"Ndiamakouta","lat":13.31667,"lon":-15.63333,"type":"city"},{"id":"sn-2247813","label":"Ndibene Dahra","lat":15.3338,"lon":-15.4766,"type":"city"},{"id":"sn-2247684","label":"Ndioum","lat":16.51293,"lon":-14.64706,"type":"city"},{"id":"sn-2247660","label":"Ndofane","lat":13.91667,"lon":-15.93333,"type":"city"},{"id":"sn-2247520","label":"Nganda","lat":13.83333,"lon":-15.41667,"type":"city"},{"id":"sn-2247507","label":"Ngaparou","lat":14.46419,"lon":-17.05619,"type":"city"},{"id":"sn-2247381","label":"Nguekhokh","lat":14.51255,"lon":-17.00447,"type":"city"},{"id":"sn-2247341","label":"Nguidjlone","lat":15.94052,"lon":-13.35138,"type":"city"},{"id":"sn-2247298","label":"Niakoul Rab","lat":14.78421,"lon":-17.27361,"type":"city"},{"id":"sn-2247157","label":"Nioro du Rip","lat":13.75,"lon":-15.8,"type":"city"},{"id":"sn-2247108","label":"Odobere","lat":15.56142,"lon":-13.09862,"type":"city"},{"id":"sn-2246922","label":"Ouro Sogui","lat":15.60588,"lon":-13.3223,"type":"city"},{"id":"sn-2246861","label":"Pal","lat":15.9139,"lon":-16.2599,"type":"city"},{"id":"sn-2246780","label":"Passy","lat":13.98587,"lon":-16.26179,"type":"city"},{"id":"sn-2246678","label":"Pikine","lat":14.76457,"lon":-17.39071,"type":"city"},{"id":"sn-6650652","label":"Podor","lat":16.64892,"lon":-14.96073,"type":"city"},{"id":"sn-2246637","label":"Poponguine","lat":14.55735,"lon":-17.11396,"type":"city"},{"id":"sn-2246608","label":"PoukhamUn","lat":14.35751,"lon":-16.41235,"type":"city"},{"id":"sn-2246606","label":"Pout","lat":14.77099,"lon":-17.06107,"type":"city"},{"id":"sn-2246544","label":"Richard-Toll","lat":16.4625,"lon":-15.70083,"type":"city"},{"id":"sn-2246523","label":"Ross-Betio","lat":16.27333,"lon":-16.13778,"type":"city"},{"id":"sn-2246522","label":"Rosso","lat":16.42028,"lon":-15.79834,"type":"city"},{"id":"sn-2246512","label":"Rufisque","lat":14.71542,"lon":-17.27334,"type":"city"},{"id":"sn-11101625","label":"Rufisque est","lat":14.7162,"lon":-17.27283,"type":"city"},{"id":"sn-2246452","label":"Saint-Louis","lat":16.01793,"lon":-16.48962,"type":"city"},{"id":"sn-2595222","label":"Sali","lat":14.44111,"lon":-17.01944,"type":"city"},{"id":"sn-2246274","label":"Sangalkam","lat":14.78023,"lon":-17.22761,"type":"city"},{"id":"sn-2245709","label":"Sebikhotane","lat":14.74521,"lon":-17.13783,"type":"city"},{"id":"sn-2245704","label":"Sedhiou","lat":12.70806,"lon":-15.55694,"type":"city"},{"id":"sn-2245666","label":"Seme","lat":15.19422,"lon":-12.94482,"type":"city"},{"id":"sn-2245608","label":"Sibassor","lat":14.18645,"lon":-16.15947,"type":"city"},{"id":"sn-2245427","label":"Sintiou Bamambe","lat":15.36736,"lon":-13.13471,"type":"city"},{"id":"sn-2245241","label":"Sokone","lat":13.87821,"lon":-16.3682,"type":"city"},{"id":"sn-2245222","label":"Somone","lat":14.48649,"lon":-17.07524,"type":"city"},{"id":"sn-2245151","label":"Soum","lat":14.08179,"lon":-16.48127,"type":"city"},{"id":"sn-2244991","label":"Tambacounda","lat":13.77073,"lon":-13.66734,"type":"city"},{"id":"sn-2244786","label":"Thiadiaye","lat":14.42038,"lon":-16.70258,"type":"city"},{"id":"sn-2244802","label":"Thies","lat":14.78944,"lon":-16.92602,"type":"city"},{"id":"sn-2244799","label":"Thies Nones","lat":14.78333,"lon":-16.96667,"type":"city"},{"id":"sn-2244797","label":"Thilogne","lat":15.92389,"lon":-13.65778,"type":"city"},{"id":"sn-2244616","label":"Tiebo","lat":14.63333,"lon":-16.23333,"type":"city"},{"id":"sn-2244497","label":"Tilogne Tokossel","lat":15.96667,"lon":-13.6,"type":"city"},{"id":"sn-2244436","label":"Tionk Essil","lat":12.78556,"lon":-16.52167,"type":"city"},{"id":"sn-2244386","label":"Tivaouane","lat":14.95186,"lon":-16.8152,"type":"city"},{"id":"sn-2244322","label":"Touba","lat":14.86229,"lon":-15.87532,"type":"city"},{"id":"sn-2244177","label":"Velingara","lat":13.15,"lon":-14.11667,"type":"city"},{"id":"sn-2247044","label":"Waounde","lat":15.26367,"lon":-12.86821,"type":"city"},{"id":"sn-2243940","label":"Ziguinchor","lat":12.56801,"lon":-16.27326,"type":"city"}]