[{"id":"st-2411305","label":"Agua Ize","lat":0.21953,"lon":6.72782,"type":"city"},{"id":"st-11204006","label":"Folha Fede","lat":0.284,"lon":6.684,"type":"city"},{"id":"st-2410972","label":"Neves","lat":0.35671,"lon":6.54897,"type":"city"},{"id":"st-2410805","label":"Santo Antonio","lat":1.63943,"lon":7.41951,"type":"city"},{"id":"st-2410763","label":"Sao Tome","lat":0.33756,"lon":6.7299,"type":"city"}]