[{"id":"tj-13580001","label":"20-solagii Istiklolijati Tocikiston","lat":37.54749,"lon":68.46055,"type":"city"},{"id":"tj-1221136","label":"Abdurahmoni Jomi","lat":37.94636,"lon":68.80878,"type":"city"},{"id":"tj-1514929","label":"Adrasmon","lat":40.64928,"lon":69.98472,"type":"city"},{"id":"tj-1222286","label":"Amondara","lat":39.51435,"lon":67.8108,"type":"city"},{"id":"tj-1475852","label":"Avzikent","lat":37.80333,"lon":69.27722,"type":"city"},{"id":"tj-1220747","label":"Bokhtar","lat":37.83654,"lon":68.77762,"type":"city"},{"id":"tj-1221135","label":"Bokhtariyon","lat":37.88176,"lon":68.7297,"type":"city"},{"id":"tj-1222107","label":"Boshkengash","lat":38.46613,"lon":68.80533,"type":"city"},{"id":"tj-1514913","label":"Buston","lat":40.52286,"lon":69.33307,"type":"city"},{"id":"tj-1538311","label":"Buston","lat":40.23417,"lon":69.69481,"type":"city"},{"id":"tj-1222007","label":"Chorbogh","lat":39.42621,"lon":67.76025,"type":"city"},{"id":"tj-1221997","label":"Chubek","lat":37.61453,"lon":69.70525,"type":"city"},{"id":"tj-1221970","label":"Dalyoni Bolo","lat":39.74897,"lon":68.99566,"type":"city"},{"id":"tj-1221965","label":"Danghara","lat":38.09578,"lon":69.33998,"type":"city"},{"id":"tj-1221874","label":"Dushanbe","lat":38.53575,"lon":68.77905,"type":"city"},{"id":"tj-1221871","label":"Dusti","lat":37.34812,"lon":68.66398,"type":"city"},{"id":"tj-1220826","label":"Farkhor","lat":37.49219,"lon":69.40356,"type":"city"},{"id":"tj-1221748","label":"Gharavuti","lat":37.56703,"lon":68.44668,"type":"city"},{"id":"tj-1221714","label":"Hisor","lat":38.52504,"lon":68.55124,"type":"city"},{"id":"tj-1220163","label":"Hulbuk","lat":37.80542,"lon":69.64516,"type":"city"},{"id":"tj-1514896","label":"Isfara","lat":40.12649,"lon":70.62526,"type":"city"},{"id":"tj-1221614","label":"Ishqoshim","lat":36.72484,"lon":71.61331,"type":"city"},{"id":"tj-1220253","label":"Istaravshan","lat":39.9142,"lon":69.00328,"type":"city"},{"id":"tj-1514829","label":"Istiqlol","lat":40.57017,"lon":69.64175,"type":"city"},{"id":"tj-1221808","label":"Jilikul","lat":37.49167,"lon":68.53106,"type":"city"},{"id":"tj-1221344","label":"Khodzha-Maston","lat":38.74457,"lon":68.62702,"type":"city"},{"id":"tj-1221328","label":"Khorugh","lat":37.49039,"lon":71.55337,"type":"city"},{"id":"tj-1514879","label":"Khujand","lat":40.28256,"lon":69.62216,"type":"city"},{"id":"tj-1221297","label":"Kirov","lat":37.81908,"lon":68.85905,"type":"city"},{"id":"tj-1221259","label":"Kolkhozobod","lat":37.58823,"lon":68.65886,"type":"city"},{"id":"tj-1514891","label":"Konibodom","lat":40.29414,"lon":70.43122,"type":"city"},{"id":"tj-1514889","label":"Konsoy","lat":40.49155,"lon":69.70245,"type":"city"},{"id":"tj-1221194","label":"Kulob","lat":37.91459,"lon":69.78454,"type":"city"},{"id":"tj-8416817","label":"Moskovskiy","lat":37.60931,"lon":68.58094,"type":"city"},{"id":"tj-1221091","label":"Mu'minobod","lat":38.10714,"lon":70.03213,"type":"city"},{"id":"tj-1220981","label":"Muchun","lat":39.88148,"lon":69.18219,"type":"city"},{"id":"tj-1220962","label":"Murghob","lat":38.17023,"lon":73.96674,"type":"city"},{"id":"tj-1220920","label":"Nijoni","lat":39.95943,"lon":68.92421,"type":"city"},{"id":"tj-1220905","label":"Norak","lat":38.38917,"lon":69.32272,"type":"city"},{"id":"tj-1514856","label":"Nov","lat":40.1522,"lon":69.37076,"type":"city"},{"id":"tj-1220936","label":"Novobod","lat":39.01084,"lon":70.15082,"type":"city"},{"id":"tj-1220888","label":"Obigarm","lat":38.71731,"lon":69.70885,"type":"city"},{"id":"tj-1220853","label":"Orzu","lat":37.5582,"lon":68.81952,"type":"city"},{"id":"tj-1514844","label":"Pakhtakoron","lat":40.15709,"lon":68.74659,"type":"city"},{"id":"tj-1220750","label":"Panj","lat":37.23634,"lon":69.09911,"type":"city"},{"id":"tj-1220798","label":"Panjakent","lat":39.49524,"lon":67.60931,"type":"city"},{"id":"tj-1220910","label":"Panji Poyon","lat":37.19443,"lon":68.57721,"type":"city"},{"id":"tj-1514839","label":"Proletar","lat":40.16713,"lon":69.50163,"type":"city"},{"id":"tj-1514883","label":"Qayroqqum","lat":40.26598,"lon":69.79585,"type":"city"},{"id":"tj-1221740","label":"Rasht","lat":39.02871,"lon":70.37446,"type":"city"},{"id":"tj-1220701","label":"Roghun","lat":38.78257,"lon":69.87081,"type":"city"},{"id":"tj-1220628","label":"Sarikhosor","lat":38.53852,"lon":69.83077,"type":"city"},{"id":"tj-1220566","label":"Shahrinav","lat":38.57085,"lon":68.33498,"type":"city"},{"id":"tj-1220571","label":"Shahriston","lat":39.77447,"lon":68.80929,"type":"city"},{"id":"tj-1220576","label":"Shahritus","lat":37.26206,"lon":68.13849,"type":"city"},{"id":"tj-1514921","label":"Shaydon","lat":40.66992,"lon":70.3502,"type":"city"},{"id":"tj-1220446","label":"Sovet","lat":38.0467,"lon":69.58822,"type":"city"},{"id":"tj-1220324","label":"Tavildara","lat":38.69529,"lon":70.48422,"type":"city"},{"id":"tj-1282601","label":"Tursunzoda","lat":38.51271,"lon":68.23163,"type":"city"},{"id":"tj-1220855","label":"Vahdat","lat":38.55632,"lon":69.01354,"type":"city"},{"id":"tj-1221802","label":"Vahdat","lat":39.21966,"lon":71.19155,"type":"city"},{"id":"tj-1220219","label":"Vakhsh","lat":37.71485,"lon":68.83456,"type":"city"},{"id":"tj-1220112","label":"Yovon","lat":38.31408,"lon":69.03784,"type":"city"},{"id":"tj-1222175","label":"Zarhalol","lat":37.46471,"lon":68.16947,"type":"city"}]