[{"id":"tl-1651816","label":"Aileu","lat":-8.72806,"lon":125.56639,"type":"city"},{"id":"tl-1651810","label":"Ainaro","lat":-8.99241,"lon":125.50816,"type":"city"},{"id":"tl-1635814","label":"Atauro","lat":-8.26667,"lon":125.60139,"type":"city"},{"id":"tl-1651079","label":"Atsabe","lat":-8.925,"lon":125.39806,"type":"city"},{"id":"tl-1649996","label":"Barique","lat":-8.83333,"lon":126.06667,"type":"city"},{"id":"tl-1649539","label":"Baukau","lat":-8.47572,"lon":126.45633,"type":"city"},{"id":"tl-1945206","label":"Bobonaro","lat":-9.03194,"lon":125.325,"type":"city"},{"id":"tl-1645457","label":"Dili","lat":-8.55861,"lon":125.57361,"type":"city"},{"id":"tl-1942811","label":"Gleno","lat":-8.72389,"lon":125.43611,"type":"city"},{"id":"tl-1643272","label":"Hatoudo","lat":-9.11946,"lon":125.59183,"type":"city"},{"id":"tl-1637730","label":"Likisa","lat":-8.5875,"lon":125.34194,"type":"city"},{"id":"tl-1937274","label":"Lospalos","lat":-8.52167,"lon":126.99833,"type":"city"},{"id":"tl-1636670","label":"Maliana","lat":-8.99167,"lon":125.21972,"type":"city"},{"id":"tl-1636526","label":"Manatutu","lat":-8.51139,"lon":126.01306,"type":"city"},{"id":"tl-1635826","label":"Maubara","lat":-8.61194,"lon":125.20611,"type":"city"},{"id":"tl-1632533","label":"Pante Makasar","lat":-9.2,"lon":124.38333,"type":"city"},{"id":"tl-1628926","label":"Same","lat":-9.00417,"lon":125.64861,"type":"city"},{"id":"tl-1626459","label":"Suai","lat":-9.31286,"lon":125.25648,"type":"city"},{"id":"tl-1623886","label":"Tilomar","lat":-9.34001,"lon":125.11278,"type":"city"},{"id":"tl-1943235","label":"Venilale","lat":-8.64306,"lon":126.37833,"type":"city"},{"id":"tl-1622471","label":"Viqueque","lat":-8.8575,"lon":126.36472,"type":"city"}]