[{"id":"ua-9112916","label":"Abakumova","lat":48.00222,"lon":37.59721,"type":"city"},{"id":"ua-13580325","label":"Akademmistechko","lat":50.46936,"lon":30.36216,"type":"city"},{"id":"ua-713716","label":"Alchevsk","lat":48.46906,"lon":38.79744,"type":"city"},{"id":"ua-713514","label":"Alupka","lat":44.41952,"lon":34.04489,"type":"city"},{"id":"ua-713513","label":"Alushta","lat":44.67728,"lon":34.4097,"type":"city"},{"id":"ua-713504","label":"Amvrosiivka","lat":47.79062,"lon":38.47851,"type":"city"},{"id":"ua-713500","label":"Ananyiv","lat":47.71975,"lon":29.95711,"type":"city"},{"id":"ua-713428","label":"Andriyivka","lat":49.53538,"lon":36.62635,"type":"city"},{"id":"ua-713389","label":"Andrushivka","lat":50.01922,"lon":29.01883,"type":"city"},{"id":"ua-713304","label":"Antonivka","lat":46.67666,"lon":32.73061,"type":"city"},{"id":"ua-713259","label":"Antratsyt","lat":48.11638,"lon":39.08863,"type":"city"},{"id":"ua-13580128","label":"Antyfiyivka","lat":50.48648,"lon":30.46975,"type":"city"},{"id":"ua-713245","label":"Apostolove","lat":47.65983,"lon":33.71952,"type":"city"},{"id":"ua-713222","label":"Arbuzynka","lat":47.90791,"lon":31.31701,"type":"city"},{"id":"ua-713203","label":"Armyansk","lat":46.10919,"lon":33.69206,"type":"city"},{"id":"ua-713195","label":"Arshyntseve","lat":45.30109,"lon":36.42687,"type":"city"},{"id":"ua-713163","label":"Artsyz","lat":45.98526,"lon":29.43286,"type":"city"},{"id":"ua-9983712","label":"Avanhard","lat":46.46871,"lon":30.61551,"type":"city"},{"id":"ua-713122","label":"Avdiyivka","lat":48.14019,"lon":37.75008,"type":"city"},{"id":"ua-713117","label":"Avdotyine","lat":47.91552,"lon":37.85034,"type":"city"},{"id":"ua-13580326","label":"Aviamistechko","lat":50.46369,"lon":30.38057,"type":"city"},{"id":"ua-12167218","label":"Avtozavodskyi","lat":49.09753,"lon":33.43206,"type":"city"},{"id":"ua-699311","label":"Aydar","lat":49.53316,"lon":39.11845,"type":"city"},{"id":"ua-713059","label":"Babayi","lat":49.89625,"lon":36.19309,"type":"city"},{"id":"ua-690312","label":"Bahacheve","lat":49.01198,"lon":31.04659,"type":"city"},{"id":"ua-712969","label":"Bakhchysaray","lat":44.75525,"lon":33.85782,"type":"city"},{"id":"ua-712967","label":"Bakhmach","lat":51.18144,"lon":32.83463,"type":"city"},{"id":"ua-713174","label":"Bakhmut","lat":48.59419,"lon":37.99886,"type":"city"},{"id":"ua-712934","label":"Balabyne","lat":47.73686,"lon":35.21361,"type":"city"},{"id":"ua-712930","label":"Balaklava","lat":44.51118,"lon":33.59942,"type":"city"},{"id":"ua-712926","label":"Balakliya","lat":49.45595,"lon":36.84433,"type":"city"},{"id":"ua-712895","label":"Balky","lat":47.38596,"lon":34.93132,"type":"city"},{"id":"ua-712886","label":"Balta","lat":47.93596,"lon":29.62225,"type":"city"},{"id":"ua-712861","label":"Bar","lat":49.07362,"lon":27.67404,"type":"city"},{"id":"ua-712839","label":"Baranivka","lat":50.29691,"lon":27.6622,"type":"city"},{"id":"ua-712796","label":"Barteniyivka","lat":44.63629,"lon":33.54797,"type":"city"},{"id":"ua-712794","label":"Barvinkove","lat":48.9052,"lon":37.02257,"type":"city"},{"id":"ua-712787","label":"Baryshivka","lat":50.35925,"lon":31.32005,"type":"city"},{"id":"ua-712775","label":"Bashtanka","lat":47.40528,"lon":32.43444,"type":"city"},{"id":"ua-712699","label":"Bedevlya","lat":48.00503,"lon":23.66431,"type":"city"},{"id":"ua-712451","label":"Berdyansk","lat":46.75578,"lon":36.78815,"type":"city"},{"id":"ua-712441","label":"Berdychiv","lat":49.89421,"lon":28.58236,"type":"city"},{"id":"ua-712430","label":"Berehomet","lat":48.17148,"lon":25.33032,"type":"city"},{"id":"ua-712423","label":"Berehove","lat":48.20514,"lon":22.64453,"type":"city"},{"id":"ua-13607658","label":"Berestovskyi","lat":48.04426,"lon":37.87654,"type":"city"},{"id":"ua-704388","label":"Berestyn","lat":49.3776,"lon":35.44485,"type":"city"},{"id":"ua-712389","label":"Berezan","lat":50.31073,"lon":31.46768,"type":"city"},{"id":"ua-712374","label":"Berezhany","lat":49.44578,"lon":24.93686,"type":"city"},{"id":"ua-712312","label":"Berezivka","lat":47.20037,"lon":30.90943,"type":"city"},{"id":"ua-712343","label":"Berezna","lat":51.57817,"lon":31.78738,"type":"city"},{"id":"ua-712332","label":"Berezne","lat":51.00343,"lon":26.74618,"type":"city"},{"id":"ua-712339","label":"Bereznehuvate","lat":47.30872,"lon":32.85098,"type":"city"},{"id":"ua-13580096","label":"Berezniaky","lat":50.42627,"lon":30.60218,"type":"city"},{"id":"ua-712250","label":"Bershad","lat":48.36354,"lon":29.51463,"type":"city"},{"id":"ua-712260","label":"Beryslav","lat":46.83851,"lon":33.42664,"type":"city"},{"id":"ua-691820","label":"Bessarabske","lat":46.18757,"lon":29.14635,"type":"city"},{"id":"ua-712200","label":"Bezliudivka","lat":49.86787,"lon":36.28347,"type":"city"},{"id":"ua-712165","label":"Bila Tserkva","lat":49.7994,"lon":30.1165,"type":"city"},{"id":"ua-712515","label":"Bile","lat":48.49523,"lon":39.05051,"type":"city"},{"id":"ua-712641","label":"Bilenke","lat":48.76589,"lon":37.63309,"type":"city"},{"id":"ua-712160","label":"Bilhorod-Dnistrovskyi","lat":46.19484,"lon":30.34827,"type":"city"},{"id":"ua-712602","label":"Bilky","lat":48.31415,"lon":23.13256,"type":"city"},{"id":"ua-703494","label":"Bilmak","lat":47.35914,"lon":36.65331,"type":"city"},{"id":"ua-712587","label":"Bilohirsk","lat":45.05679,"lon":34.60386,"type":"city"},{"id":"ua-712582","label":"Bilohirya","lat":49.99894,"lon":26.41442,"type":"city"},{"id":"ua-712590","label":"Bilohorodka","lat":50.3898,"lon":30.22726,"type":"city"},{"id":"ua-712569","label":"Bilokurakyne","lat":49.53306,"lon":38.72836,"type":"city"},{"id":"ua-712559","label":"Bilopillia","lat":51.14747,"lon":34.31079,"type":"city"},{"id":"ua-712521","label":"Bilovods'k","lat":49.20846,"lon":39.58975,"type":"city"},{"id":"ua-712508","label":"Bilozerka","lat":46.62651,"lon":32.44447,"type":"city"},{"id":"ua-712501","label":"Bilozerske","lat":48.53366,"lon":37.06272,"type":"city"},{"id":"ua-712500","label":"Bilozirya","lat":49.30105,"lon":31.89355,"type":"city"},{"id":"ua-712488","label":"Bilyayivka","lat":46.48427,"lon":30.2089,"type":"city"},{"id":"ua-13645607","label":"Bilyche Pole","lat":50.49251,"lon":30.43871,"type":"city"},{"id":"ua-712631","label":"Bilychi","lat":50.46544,"lon":30.34654,"type":"city"},{"id":"ua-712613","label":"Bilytske","lat":48.40642,"lon":37.18111,"type":"city"},{"id":"ua-698652","label":"Biyuk-Onlar","lat":45.28866,"lon":34.13521,"type":"city"},{"id":"ua-690713","label":"Blahovishchenske","lat":48.32822,"lon":30.23619,"type":"city"},{"id":"ua-711999","label":"Bobrovytsia","lat":50.74559,"lon":31.38205,"type":"city"},{"id":"ua-711989","label":"Bobrynets","lat":48.05674,"lon":32.1655,"type":"city"},{"id":"ua-711933","label":"Bohdanivka","lat":48.50188,"lon":36.12173,"type":"city"},{"id":"ua-711894","label":"Bohodukhiv","lat":50.16147,"lon":35.52367,"type":"city"},{"id":"ua-13561142","label":"Bohodukhivskyi","lat":47.96688,"lon":37.86255,"type":"city"},{"id":"ua-711887","label":"Bohorodchany","lat":48.80812,"lon":24.53728,"type":"city"},{"id":"ua-711874","label":"Bohuniya","lat":50.27691,"lon":28.60962,"type":"city"},{"id":"ua-711867","label":"Bohuslav","lat":49.54637,"lon":30.87407,"type":"city"},{"id":"ua-690524","label":"Bokovo-Khrustalne","lat":48.15124,"lon":38.78043,"type":"city"},{"id":"ua-711850","label":"Bolekhiv","lat":49.06479,"lon":23.85953,"type":"city"},{"id":"ua-711841","label":"Bolhrad","lat":45.67786,"lon":28.61811,"type":"city"},{"id":"ua-711597","label":"Borivske","lat":48.86863,"lon":38.567,"type":"city"},{"id":"ua-711635","label":"Borodianka","lat":50.64306,"lon":29.92329,"type":"city"},{"id":"ua-711621","label":"Borova","lat":50.17625,"lon":30.10429,"type":"city"},{"id":"ua-711623","label":"Borova","lat":49.38047,"lon":37.61931,"type":"city"},{"id":"ua-11778464","label":"Borshchahivka","lat":50.4316,"lon":30.3899,"type":"city"},{"id":"ua-711587","label":"Borshchiv","lat":48.80319,"lon":26.03171,"type":"city"},{"id":"ua-711562","label":"Bortnychi","lat":50.38489,"lon":30.69542,"type":"city"},{"id":"ua-711669","label":"Boryslav","lat":49.28998,"lon":23.42889,"type":"city"},{"id":"ua-711660","label":"Boryspil","lat":50.35051,"lon":30.95263,"type":"city"},{"id":"ua-711536","label":"Borzna","lat":51.25343,"lon":32.4269,"type":"city"},{"id":"ua-13561148","label":"Bosse","lat":47.95519,"lon":37.8003,"type":"city"},{"id":"ua-711515","label":"Boyarka","lat":50.31911,"lon":30.29728,"type":"city"},{"id":"ua-711460","label":"Bratske","lat":47.86664,"lon":31.57525,"type":"city"},{"id":"ua-711416","label":"Brody","lat":50.08854,"lon":25.14606,"type":"city"},{"id":"ua-711400","label":"Broshniv-Osada","lat":48.99759,"lon":24.19417,"type":"city"},{"id":"ua-711390","label":"Brovary","lat":50.51097,"lon":30.79106,"type":"city"},{"id":"ua-711369","label":"Bryanka","lat":48.511,"lon":38.67222,"type":"city"},{"id":"ua-711359","label":"Bryukhovychi","lat":49.90467,"lon":23.95969,"type":"city"},{"id":"ua-711350","label":"Bucha","lat":50.54741,"lon":30.20879,"type":"city"},{"id":"ua-711348","label":"Buchach","lat":49.06234,"lon":25.39496,"type":"city"},{"id":"ua-711268","label":"Budy","lat":49.89133,"lon":36.02096,"type":"city"},{"id":"ua-688073","label":"Bunhe","lat":48.2214,"lon":38.28365,"type":"city"},{"id":"ua-711134","label":"Burshtyn","lat":49.25193,"lon":24.63339,"type":"city"},{"id":"ua-711116","label":"Buryn","lat":51.19936,"lon":33.83338,"type":"city"},{"id":"ua-711105","label":"Bushtyno","lat":48.0473,"lon":23.48576,"type":"city"},{"id":"ua-711103","label":"Busk","lat":49.96548,"lon":24.61227,"type":"city"},{"id":"ua-711016","label":"Bylbasivka","lat":48.83929,"lon":37.50185,"type":"city"},{"id":"ua-8519952","label":"Chabany","lat":50.34128,"lon":30.42856,"type":"city"},{"id":"ua-710958","label":"Chahor","lat":48.2433,"lon":25.99392,"type":"city"},{"id":"ua-8519820","label":"Chaiky","lat":50.43034,"lon":30.28385,"type":"city"},{"id":"ua-710935","label":"Chaplynka","lat":46.36454,"lon":33.54087,"type":"city"},{"id":"ua-710915","label":"Chasiv Yar","lat":48.58768,"lon":37.83409,"type":"city"},{"id":"ua-710864","label":"Chemerivtsi","lat":49.00914,"lon":26.34002,"type":"city"},{"id":"ua-9983718","label":"Cheremushky","lat":46.43251,"lon":30.71151,"type":"city"},{"id":"ua-13535688","label":"Cherepanova Hora","lat":50.43455,"lon":30.52094,"type":"city"},{"id":"ua-710820","label":"Cherepkivtsi","lat":48.01557,"lon":25.9643,"type":"city"},{"id":"ua-710791","label":"Cherkasy","lat":49.44452,"lon":32.05738,"type":"city"},{"id":"ua-710663","label":"Cherniakhiv","lat":50.45412,"lon":28.66717,"type":"city"},{"id":"ua-710735","label":"Chernihiv","lat":51.50541,"lon":31.28656,"type":"city"},{"id":"ua-710739","label":"Chernihivka","lat":47.19451,"lon":36.21648,"type":"city"},{"id":"ua-710719","label":"Chernivtsi","lat":48.29045,"lon":25.93241,"type":"city"},{"id":"ua-710552","label":"Chervonohryhorivka","lat":47.61906,"lon":34.53778,"type":"city"},{"id":"ua-710454","label":"Chisten'koye","lat":44.88152,"lon":34.04716,"type":"city"},{"id":"ua-13580115","label":"Chokolivka","lat":50.42444,"lon":30.44732,"type":"city"},{"id":"ua-710409","label":"Chop","lat":48.4316,"lon":22.20446,"type":"city"},{"id":"ua-710715","label":"Chornobaivka","lat":46.69641,"lon":32.54507,"type":"city"},{"id":"ua-710716","label":"Chornobay","lat":49.67074,"lon":32.3236,"type":"city"},{"id":"ua-707688","label":"Chornomors'k","lat":46.29914,"lon":30.65529,"type":"city"},{"id":"ua-710687","label":"Chornomorske","lat":45.50657,"lon":32.69776,"type":"city"},{"id":"ua-9983688","label":"Chornomorske","lat":46.58405,"lon":30.93068,"type":"city"},{"id":"ua-710668","label":"Chornukhyne","lat":48.32281,"lon":38.51744,"type":"city"},{"id":"ua-710400","label":"Chortkiv","lat":49.01701,"lon":25.79808,"type":"city"},{"id":"ua-701294","label":"Chudei","lat":48.05095,"lon":25.62212,"type":"city"},{"id":"ua-710381","label":"Chudniv","lat":50.05255,"lon":28.12058,"type":"city"},{"id":"ua-710374","label":"Chuhuyiv","lat":49.83538,"lon":36.6865,"type":"city"},{"id":"ua-13561150","label":"Chumakivskyi","lat":47.95671,"lon":37.94194,"type":"city"},{"id":"ua-710342","label":"Chutove","lat":49.71414,"lon":35.15747,"type":"city"},{"id":"ua-710473","label":"Chyhyryn","lat":49.08045,"lon":32.66082,"type":"city"},{"id":"ua-710463","label":"Chynadiyovo","lat":48.48666,"lon":22.83368,"type":"city"},{"id":"ua-691374","label":"Chystyakove","lat":48.03876,"lon":38.59685,"type":"city"},{"id":"ua-707756","label":"Dachne","lat":46.58226,"lon":30.54747,"type":"city"},{"id":"ua-13580117","label":"Darnytskyi Masyv","lat":50.44311,"lon":30.62759,"type":"city"},{"id":"ua-13580095","label":"Darnytsya","lat":50.41596,"lon":30.69534,"type":"city"},{"id":"ua-13526729","label":"Darnytsya Car Repair Plant Microdistrict","lat":50.44953,"lon":30.67608,"type":"city"},{"id":"ua-710245","label":"Davydiv","lat":49.74688,"lon":24.13927,"type":"city"},{"id":"ua-710229","label":"Debaltseve","lat":48.33592,"lon":38.40261,"type":"city"},{"id":"ua-710202","label":"Deliatyn","lat":48.5248,"lon":24.62566,"type":"city"},{"id":"ua-11776362","label":"Demiyivka","lat":50.40206,"lon":30.51564,"type":"city"},{"id":"ua-710129","label":"Derazhnya","lat":49.26915,"lon":27.42909,"type":"city"},{"id":"ua-710098","label":"Derhachi","lat":50.10789,"lon":36.1209,"type":"city"},{"id":"ua-710071","label":"Desna","lat":50.92744,"lon":30.76678,"type":"city"},{"id":"ua-13546519","label":"Desna","lat":50.52207,"lon":30.68228,"type":"city"},{"id":"ua-13608465","label":"Desnyanskyi","lat":51.50631,"lon":31.3168,"type":"city"},{"id":"ua-709930","label":"Dnipro","lat":48.46664,"lon":35.04066,"type":"city"},{"id":"ua-709960","label":"Dniprorudne","lat":47.38993,"lon":35.00065,"type":"city"},{"id":"ua-709943","label":"Dniprovske","lat":48.59042,"lon":34.41394,"type":"city"},{"id":"ua-13546518","label":"Dniprovskyi","lat":50.45366,"lon":30.60146,"type":"city"},{"id":"ua-709900","label":"Dobropillia","lat":48.46674,"lon":37.08567,"type":"city"},{"id":"ua-705222","label":"Dobroslav","lat":46.82095,"lon":30.94518,"type":"city"},{"id":"ua-709892","label":"Dobrotvir","lat":50.20526,"lon":24.3835,"type":"city"},{"id":"ua-709888","label":"Dobrovelychkivka","lat":48.38939,"lon":31.18039,"type":"city"},{"id":"ua-709835","label":"Dokuchayevsk","lat":47.7522,"lon":37.67761,"type":"city"},{"id":"ua-812962","label":"Dokuchayevske","lat":49.89248,"lon":36.45158,"type":"city"},{"id":"ua-709755","label":"Dolyna","lat":48.97158,"lon":23.96558,"type":"city"},{"id":"ua-709782","label":"Dolynska","lat":48.11725,"lon":32.77691,"type":"city"},{"id":"ua-709740","label":"Domanivka","lat":47.62865,"lon":30.98648,"type":"city"},{"id":"ua-710523","label":"Donets","lat":49.50762,"lon":36.56595,"type":"city"},{"id":"ua-709717","label":"Donetsk","lat":48.023,"lon":37.80224,"type":"city"},{"id":"ua-709808","label":"Dovhe","lat":48.36651,"lon":23.28107,"type":"city"},{"id":"ua-692105","label":"Dovzhansk","lat":48.07615,"lon":39.64744,"type":"city"},{"id":"ua-709643","label":"Drabiv","lat":49.95891,"lon":32.15028,"type":"city"},{"id":"ua-709611","label":"Drohobych","lat":49.35196,"lon":23.51121,"type":"city"},{"id":"ua-616743","label":"Druzhkivka","lat":48.61995,"lon":37.52537,"type":"city"},{"id":"ua-709546","label":"Dubliany","lat":49.90411,"lon":24.08637,"type":"city"},{"id":"ua-709540","label":"Dubno","lat":50.40752,"lon":25.7624,"type":"city"},{"id":"ua-709516","label":"Dubove","lat":48.17473,"lon":23.88693,"type":"city"},{"id":"ua-709493","label":"Dubrovytsya","lat":51.57076,"lon":26.56369,"type":"city"},{"id":"ua-709429","label":"Dunayivtsi","lat":48.88697,"lon":26.84816,"type":"city"},{"id":"ua-710041","label":"Dykanka","lat":49.82586,"lon":34.522,"type":"city"},{"id":"ua-709373","label":"Dymer","lat":50.78579,"lon":30.30357,"type":"city"},{"id":"ua-709334","label":"Dzhankoy","lat":45.7131,"lon":34.39273,"type":"city"},{"id":"ua-709276","label":"Enerhodar","lat":47.49048,"lon":34.66199,"type":"city"},{"id":"ua-709270","label":"Eskhar","lat":49.79736,"lon":36.59025,"type":"city"},{"id":"ua-709248","label":"Fastiv","lat":50.07796,"lon":29.91963,"type":"city"},{"id":"ua-709161","label":"Feodosiya","lat":45.03199,"lon":35.38153,"type":"city"},{"id":"ua-709114","label":"Fontanka","lat":46.56864,"lon":30.85916,"type":"city"},{"id":"ua-13546531","label":"Fortechnyi","lat":48.49865,"lon":32.25365,"type":"city"},{"id":"ua-13580132","label":"Galagany","lat":50.45537,"lon":30.40233,"type":"city"},{"id":"ua-709054","label":"Hadyach","lat":50.36912,"lon":33.997,"type":"city"},{"id":"ua-709034","label":"Halych","lat":49.12374,"lon":24.72748,"type":"city"},{"id":"ua-708953","label":"Haspra","lat":44.43633,"lon":34.1125,"type":"city"},{"id":"ua-8354606","label":"Hatne","lat":50.35444,"lon":30.37497,"type":"city"},{"id":"ua-708901","label":"Haysyn","lat":48.81294,"lon":29.37917,"type":"city"},{"id":"ua-708898","label":"Hayvoron","lat":48.34323,"lon":29.86592,"type":"city"},{"id":"ua-708878","label":"Henichesk","lat":46.16824,"lon":34.80861,"type":"city"},{"id":"ua-708863","label":"Heorhiivka","lat":48.42278,"lon":39.25278,"type":"city"},{"id":"ua-708395","label":"Hirnyk","lat":48.05728,"lon":37.3716,"type":"city"},{"id":"ua-13607657","label":"Hirnytskyi","lat":48.0211,"lon":37.96914,"type":"city"},{"id":"ua-708273","label":"Hirske","lat":48.74046,"lon":38.49596,"type":"city"},{"id":"ua-13608551","label":"Hladkivka","lat":48.03556,"lon":37.81009,"type":"city"},{"id":"ua-708784","label":"Hlevakha","lat":50.2743,"lon":30.32531,"type":"city"},{"id":"ua-708753","label":"Hlobyne","lat":49.37894,"lon":33.27555,"type":"city"},{"id":"ua-707758","label":"Hlukhiv","lat":51.67982,"lon":33.91682,"type":"city"},{"id":"ua-707757","label":"Hlyboka","lat":48.08756,"lon":25.9284,"type":"city"},{"id":"ua-708730","label":"Hlybokyi Potik","lat":48.05774,"lon":23.89592,"type":"city"},{"id":"ua-708695","label":"Hnidyn","lat":50.32571,"lon":30.71474,"type":"city"},{"id":"ua-708663","label":"Hnivan","lat":49.0939,"lon":28.33785,"type":"city"},{"id":"ua-708632","label":"Hola Prystan","lat":46.52973,"lon":32.52408,"type":"city"},{"id":"ua-708614","label":"Holmivskyi","lat":48.40394,"lon":38.08203,"type":"city"},{"id":"ua-13535744","label":"Holosiyiv","lat":50.34433,"lon":30.55178,"type":"city"},{"id":"ua-708585","label":"Holovanivsk","lat":48.3874,"lon":30.45947,"type":"city"},{"id":"ua-705809","label":"Holubivka","lat":48.63751,"lon":38.6428,"type":"city"},{"id":"ua-8516167","label":"Horenka","lat":50.55731,"lon":30.33217,"type":"city"},{"id":"ua-6559559","label":"Horishni Plavni","lat":49.00835,"lon":33.62926,"type":"city"},{"id":"ua-707753","label":"Horlivka","lat":48.29986,"lon":38.01709,"type":"city"},{"id":"ua-708403","label":"Hornostayivka","lat":47.01171,"lon":33.72987,"type":"city"},{"id":"ua-708380","label":"Horodenka","lat":48.669,"lon":25.5033,"type":"city"},{"id":"ua-708320","label":"Horodnia","lat":51.89129,"lon":31.59632,"type":"city"},{"id":"ua-708330","label":"Horodnye","lat":45.89203,"lon":28.84946,"type":"city"},{"id":"ua-708324","label":"Horodnytsia","lat":50.80664,"lon":27.31423,"type":"city"},{"id":"ua-707752","label":"Horodok","lat":49.17209,"lon":26.56357,"type":"city"},{"id":"ua-708313","label":"Horodok","lat":49.78476,"lon":23.6481,"type":"city"},{"id":"ua-708366","label":"Horodyshche","lat":49.29114,"lon":31.44035,"type":"city"},{"id":"ua-708296","label":"Horokhiv","lat":50.50224,"lon":24.75681,"type":"city"},{"id":"ua-708257","label":"Hoshcha","lat":50.60246,"lon":26.68097,"type":"city"},{"id":"ua-708251","label":"Hostomel","lat":50.56841,"lon":30.2651,"type":"city"},{"id":"ua-708210","label":"Hradyzk","lat":49.23943,"lon":33.13941,"type":"city"},{"id":"ua-708181","label":"Hrebinka","lat":50.12017,"lon":32.42966,"type":"city"},{"id":"ua-708140","label":"Hresivskyi","lat":45.00804,"lon":34.02657,"type":"city"},{"id":"ua-13580131","label":"Hrushky","lat":50.45305,"lon":30.42741,"type":"city"},{"id":"ua-707993","label":"Hrushovo","lat":48.00677,"lon":23.77426,"type":"city"},{"id":"ua-13607656","label":"Hruzkyi","lat":48.0651,"lon":37.93619,"type":"city"},{"id":"ua-707928","label":"Hubynykha","lat":48.808,"lon":35.25829,"type":"city"},{"id":"ua-707898","label":"Hulyaypole","lat":47.66685,"lon":36.25576,"type":"city"},{"id":"ua-707860","label":"Hurzuf","lat":44.55082,"lon":34.29091,"type":"city"},{"id":"ua-707840","label":"Husiatyn","lat":49.07123,"lon":26.20464,"type":"city"},{"id":"ua-707777","label":"Hvardiyske","lat":45.11692,"lon":34.02188,"type":"city"},{"id":"ua-693062","label":"Ichki","lat":45.34267,"lon":34.92463,"type":"city"},{"id":"ua-707744","label":"Ichnia","lat":50.85908,"lon":32.39129,"type":"city"},{"id":"ua-698709","label":"Ihren","lat":48.47614,"lon":35.15842,"type":"city"},{"id":"ua-707695","label":"Illintsi","lat":49.10544,"lon":29.20589,"type":"city"},{"id":"ua-707681","label":"Ilnytsia","lat":48.35662,"lon":23.07616,"type":"city"},{"id":"ua-707679","label":"Ilovays'k","lat":47.92498,"lon":38.20235,"type":"city"},{"id":"ua-707601","label":"Inhulets","lat":47.7301,"lon":33.25189,"type":"city"},{"id":"ua-712576","label":"Inkerman","lat":44.61391,"lon":33.6098,"type":"city"},{"id":"ua-691705","label":"Irmino","lat":48.59905,"lon":38.58824,"type":"city"},{"id":"ua-707565","label":"Irpin","lat":50.52201,"lon":30.24037,"type":"city"},{"id":"ua-707560","label":"Irshansk","lat":50.75317,"lon":28.72119,"type":"city"},{"id":"ua-707559","label":"Irshava","lat":48.31227,"lon":23.04065,"type":"city"},{"id":"ua-705799","label":"Islyam-Terek","lat":45.22967,"lon":35.19987,"type":"city"},{"id":"ua-707529","label":"Ispas","lat":48.29881,"lon":25.26941,"type":"city"},{"id":"ua-707414","label":"Ivanivka","lat":48.24306,"lon":38.945,"type":"city"},{"id":"ua-707489","label":"Ivankiv","lat":50.93953,"lon":29.90205,"type":"city"},{"id":"ua-707471","label":"Ivano-Frankivsk","lat":48.92312,"lon":24.71248,"type":"city"},{"id":"ua-686762","label":"Ivano-Frankove","lat":49.92167,"lon":23.72495,"type":"city"},{"id":"ua-707317","label":"Iza","lat":48.21525,"lon":23.32867,"type":"city"},{"id":"ua-707296","label":"Iziaslav","lat":50.11978,"lon":26.82475,"type":"city"},{"id":"ua-707308","label":"Izmayil","lat":45.35058,"lon":28.83751,"type":"city"},{"id":"ua-707292","label":"Izyum","lat":49.20697,"lon":37.27679,"type":"city"},{"id":"ua-13645612","label":"Kadetskyi Hay","lat":50.43855,"lon":30.44686,"type":"city"},{"id":"ua-692975","label":"Kadiyivka","lat":48.56818,"lon":38.64352,"type":"city"},{"id":"ua-707251","label":"Kaharlyk","lat":49.859,"lon":30.82327,"type":"city"},{"id":"ua-707244","label":"Kakhovka","lat":46.81601,"lon":33.47862,"type":"city"},{"id":"ua-705186","label":"Kal'mius'ke","lat":47.6639,"lon":38.07753,"type":"city"},{"id":"ua-707232","label":"Kalanchak","lat":46.25495,"lon":33.29061,"type":"city"},{"id":"ua-13607723","label":"Kalmiuskyi","lat":47.11046,"lon":37.54375,"type":"city"},{"id":"ua-707099","label":"Kalush","lat":49.02398,"lon":24.37206,"type":"city"},{"id":"ua-707155","label":"Kalynivka","lat":49.46129,"lon":28.51541,"type":"city"},{"id":"ua-13561144","label":"Kalynivskyi","lat":48.00741,"lon":37.85378,"type":"city"},{"id":"ua-707127","label":"Kalyny","lat":48.14403,"lon":23.87386,"type":"city"},{"id":"ua-707025","label":"Kamin-Kashyrskyi","lat":51.62514,"lon":24.96276,"type":"city"},{"id":"ua-706950","label":"Kamyanets-Podilskyi","lat":48.67882,"lon":26.58516,"type":"city"},{"id":"ua-707052","label":"Kamyanka","lat":49.03955,"lon":32.10174,"type":"city"},{"id":"ua-707058","label":"Kamyanka","lat":48.02786,"lon":25.89964,"type":"city"},{"id":"ua-707027","label":"Kamyanka-Buzka","lat":50.10655,"lon":24.34451,"type":"city"},{"id":"ua-707026","label":"Kamyanka-Dniprovska","lat":47.49629,"lon":34.41026,"type":"city"},{"id":"ua-13607662","label":"Kamyanobridskyi","lat":48.5865,"lon":39.28092,"type":"city"},{"id":"ua-709932","label":"Kamyanske","lat":48.51716,"lon":34.60617,"type":"city"},{"id":"ua-706900","label":"Kaniv","lat":49.75187,"lon":31.47003,"type":"city"},{"id":"ua-13645613","label":"Karavayevi Dachi","lat":50.43044,"lon":30.43659,"type":"city"},{"id":"ua-706749","label":"Karlivka","lat":49.45548,"lon":35.13493,"type":"city"},{"id":"ua-706736","label":"Karnaukhivka","lat":48.47542,"lon":34.73631,"type":"city"},{"id":"ua-688089","label":"Katerynivka","lat":48.55586,"lon":39.18277,"type":"city"},{"id":"ua-706634","label":"Katerynopil","lat":48.94563,"lon":30.97187,"type":"city"},{"id":"ua-706580","label":"Kazanka","lat":47.82691,"lon":32.83057,"type":"city"},{"id":"ua-706546","label":"Kehychivka","lat":49.28656,"lon":35.76153,"type":"city"},{"id":"ua-706536","label":"Kelmentsi","lat":48.4664,"lon":26.83277,"type":"city"},{"id":"ua-706524","label":"Kerch","lat":45.35675,"lon":36.47542,"type":"city"},{"id":"ua-13607655","label":"Khanzhonkivskyi","lat":48.09512,"lon":38.04202,"type":"city"},{"id":"ua-706488","label":"Khanzhonkove","lat":48.0945,"lon":38.07553,"type":"city"},{"id":"ua-706483","label":"Kharkiv","lat":49.98177,"lon":36.25475,"type":"city"},{"id":"ua-13580317","label":"Kharkivskyi Masyv","lat":50.40848,"lon":30.66006,"type":"city"},{"id":"ua-706466","label":"Khartsyzk","lat":48.04277,"lon":38.14025,"type":"city"},{"id":"ua-706448","label":"Kherson","lat":46.63695,"lon":32.61458,"type":"city"},{"id":"ua-706369","label":"Khmelnytskyi","lat":49.41835,"lon":26.97936,"type":"city"},{"id":"ua-706380","label":"Khmilnyk","lat":49.5581,"lon":27.95682,"type":"city"},{"id":"ua-706352","label":"Khodoriv","lat":49.40738,"lon":24.31294,"type":"city"},{"id":"ua-706289","label":"Khorol","lat":49.78286,"lon":33.27184,"type":"city"},{"id":"ua-11778463","label":"Khoroshiv","lat":50.59484,"lon":28.44489,"type":"city"},{"id":"ua-706271","label":"Khorostkiv","lat":49.21385,"lon":25.91964,"type":"city"},{"id":"ua-706244","label":"Khotyn","lat":48.50555,"lon":26.48978,"type":"city"},{"id":"ua-13535689","label":"Khreshchatyi Yar","lat":50.4547,"lon":30.52917,"type":"city"},{"id":"ua-705797","label":"Khrestivka","lat":48.14969,"lon":38.35941,"type":"city"},{"id":"ua-704202","label":"Khrustalnyi","lat":48.14241,"lon":38.92369,"type":"city"},{"id":"ua-706200","label":"Khrystynivka","lat":48.81282,"lon":29.96885,"type":"city"},{"id":"ua-706165","label":"Khust","lat":48.17193,"lon":23.29791,"type":"city"},{"id":"ua-709584","label":"Khutir-Mykhaylivskyi","lat":52.04769,"lon":33.94534,"type":"city"},{"id":"ua-705883","label":"Kiliya","lat":45.44445,"lon":29.26396,"type":"city"},{"id":"ua-13607720","label":"Kindrativskyi","lat":48.30282,"lon":38.05475,"type":"city"},{"id":"ua-705735","label":"Kitsman","lat":48.43867,"lon":25.76111,"type":"city"},{"id":"ua-705730","label":"Kivertsi","lat":50.83516,"lon":25.45596,"type":"city"},{"id":"ua-704608","label":"Kivsharivka","lat":49.63026,"lon":37.6775,"type":"city"},{"id":"ua-705626","label":"Klishkivtsi","lat":48.42342,"lon":26.25229,"type":"city"},{"id":"ua-13580319","label":"Klov","lat":50.4349,"lon":30.53807,"type":"city"},{"id":"ua-12519211","label":"Knyahynyn","lat":48.93561,"lon":24.71307,"type":"city"},{"id":"ua-705560","label":"Knyazhichi","lat":50.46275,"lon":30.78369,"type":"city"},{"id":"ua-705544","label":"Kobelyaky","lat":49.14936,"lon":34.20193,"type":"city"},{"id":"ua-705493","label":"Kodyma","lat":48.10306,"lon":29.12598,"type":"city"},{"id":"ua-705459","label":"Kolinkivtsy","lat":48.41254,"lon":26.12462,"type":"city"},{"id":"ua-705392","label":"Kolomyia","lat":48.52496,"lon":25.03712,"type":"city"},{"id":"ua-706945","label":"Komyshany","lat":46.63995,"lon":32.50343,"type":"city"},{"id":"ua-706925","label":"Komyshova Bukhta","lat":44.58442,"lon":33.44095,"type":"city"},{"id":"ua-706941","label":"Komyshuvakha","lat":47.71491,"lon":35.52405,"type":"city"},{"id":"ua-705135","label":"Konotop","lat":51.23251,"lon":33.2004,"type":"city"},{"id":"ua-705016","label":"Kopychyntsi","lat":49.103,"lon":25.91164,"type":"city"},{"id":"ua-13580122","label":"Korchuvate","lat":50.36347,"lon":30.55502,"type":"city"},{"id":"ua-704968","label":"Korets","lat":50.61921,"lon":27.15795,"type":"city"},{"id":"ua-704972","label":"Koreyiz","lat":44.43149,"lon":34.08404,"type":"city"},{"id":"ua-704920","label":"Korolevo","lat":48.15731,"lon":23.13769,"type":"city"},{"id":"ua-13609094","label":"Korolyov","lat":50.24487,"lon":28.70013,"type":"city"},{"id":"ua-704915","label":"Korop","lat":51.56666,"lon":32.95217,"type":"city"},{"id":"ua-704901","label":"Korosten","lat":50.9512,"lon":28.63859,"type":"city"},{"id":"ua-704885","label":"Korostyshiv","lat":50.31686,"lon":29.05774,"type":"city"},{"id":"ua-704858","label":"Korsun-Shevchenkivskyi","lat":49.41822,"lon":31.25174,"type":"city"},{"id":"ua-704839","label":"Koryukivka","lat":51.7746,"lon":32.24747,"type":"city"},{"id":"ua-704764","label":"Kosiv","lat":48.32051,"lon":25.09109,"type":"city"},{"id":"ua-704773","label":"Kosmach","lat":48.33113,"lon":24.81417,"type":"city"},{"id":"ua-704737","label":"Kostopil","lat":50.87732,"lon":26.44797,"type":"city"},{"id":"ua-705104","label":"Kostyantynivka","lat":48.52728,"lon":37.70594,"type":"city"},{"id":"ua-705115","label":"Kostyantynivka","lat":46.81778,"lon":35.42424,"type":"city"},{"id":"ua-704705","label":"Kotelva","lat":50.06849,"lon":34.74697,"type":"city"},{"id":"ua-704670","label":"Kotsyubynske","lat":50.48836,"lon":30.32957,"type":"city"},{"id":"ua-704617","label":"Kovel","lat":51.21548,"lon":24.70077,"type":"city"},{"id":"ua-13607717","label":"Kovpakivskyi","lat":50.92508,"lon":34.79484,"type":"city"},{"id":"ua-704573","label":"Kozelets","lat":50.91211,"lon":31.11664,"type":"city"},{"id":"ua-704525","label":"Kozova","lat":49.43206,"lon":25.14547,"type":"city"},{"id":"ua-706571","label":"Kozyatyn","lat":49.7164,"lon":28.83858,"type":"city"},{"id":"ua-704508","label":"Kramatorsk","lat":48.73106,"lon":37.56779,"type":"city"},{"id":"ua-704277","label":"Krasne","lat":49.91401,"lon":24.61487,"type":"city"},{"id":"ua-13645595","label":"Krasnohirka","lat":48.70505,"lon":37.56188,"type":"city"},{"id":"ua-704393","label":"Krasnohorivka","lat":48.00462,"lon":37.50692,"type":"city"},{"id":"ua-704376","label":"Krasnokutsk","lat":50.06602,"lon":35.16275,"type":"city"},{"id":"ua-704363","label":"Krasnopavlivka","lat":49.13699,"lon":36.3201,"type":"city"},{"id":"ua-704343","label":"Krasnopillya","lat":50.77389,"lon":35.25633,"type":"city"},{"id":"ua-704337","label":"Krasnorichenske","lat":49.21909,"lon":38.20965,"type":"city"},{"id":"ua-704335","label":"Krasnosilka","lat":46.62292,"lon":30.76974,"type":"city"},{"id":"ua-704379","label":"Krasnoyilsk","lat":48.01865,"lon":25.56004,"type":"city"},{"id":"ua-704492","label":"Krasyliv","lat":49.65376,"lon":26.97211,"type":"city"},{"id":"ua-704147","label":"Kremenchuk","lat":49.06253,"lon":33.40484,"type":"city"},{"id":"ua-704143","label":"Kremenets","lat":50.09864,"lon":25.72787,"type":"city"},{"id":"ua-704138","label":"Kreminna","lat":49.04811,"lon":38.21552,"type":"city"},{"id":"ua-704118","label":"Kripenskyi","lat":48.07709,"lon":39.058,"type":"city"},{"id":"ua-704000","label":"Krolevets","lat":51.55181,"lon":33.38044,"type":"city"},{"id":"ua-705812","label":"Kropyvnytskyi","lat":48.50834,"lon":32.26618,"type":"city"},{"id":"ua-703853","label":"Kryukiv","lat":49.02894,"lon":33.43847,"type":"city"},{"id":"ua-704010","label":"Kryve Ozero","lat":47.94763,"lon":30.34701,"type":"city"},{"id":"ua-703845","label":"Kryvyy Rih","lat":47.90572,"lon":33.39404,"type":"city"},{"id":"ua-703840","label":"Kryzhopil","lat":48.3821,"lon":28.86766,"type":"city"},{"id":"ua-710560","label":"Kubey","lat":45.79131,"lon":28.74455,"type":"city"},{"id":"ua-13631374","label":"Kulbakyne","lat":46.91472,"lon":32.07968,"type":"city"},{"id":"ua-13608478","label":"Kulykove","lat":50.49216,"lon":30.61559,"type":"city"},{"id":"ua-703652","label":"Kupiansk-Vuzlovyi","lat":49.67061,"lon":37.64319,"type":"city"},{"id":"ua-703656","label":"Kupyansk","lat":49.71003,"lon":37.61581,"type":"city"},{"id":"ua-695357","label":"Kurakhove","lat":47.9847,"lon":37.28069,"type":"city"},{"id":"ua-13580127","label":"Kurenivka","lat":50.49371,"lon":30.47104,"type":"city"},{"id":"ua-704381","label":"Kurman","lat":45.50271,"lon":34.30134,"type":"city"},{"id":"ua-703555","label":"Kushuhum","lat":47.70963,"lon":35.21644,"type":"city"},{"id":"ua-703460","label":"Kvasyliv","lat":50.5623,"lon":26.25943,"type":"city"},{"id":"ua-13580322","label":"Kybalchych","lat":50.49288,"lon":30.59756,"type":"city"},{"id":"ua-703448","label":"Kyiv","lat":50.45466,"lon":30.5238,"type":"city"},{"id":"ua-13561145","label":"Kyivskyi","lat":48.04646,"lon":37.77571,"type":"city"},{"id":"ua-13561778","label":"Kyivskyi","lat":49.60902,"lon":34.52933,"type":"city"},{"id":"ua-713175","label":"Kypuche","lat":48.44061,"lon":38.732,"type":"city"},{"id":"ua-703438","label":"Ladan","lat":50.51826,"lon":32.58417,"type":"city"},{"id":"ua-703428","label":"Ladyzhyn","lat":48.68437,"lon":29.23636,"type":"city"},{"id":"ua-703410","label":"Lanchyn","lat":48.55173,"lon":24.74923,"type":"city"},{"id":"ua-703397","label":"Lanivtsi","lat":49.86103,"lon":26.09052,"type":"city"},{"id":"ua-13535742","label":"Lazurnyi","lat":48.25838,"lon":37.18305,"type":"city"},{"id":"ua-13645596","label":"Lazurnyi","lat":48.7481,"lon":37.62088,"type":"city"},{"id":"ua-613273","label":"Lebedyn","lat":50.58228,"lon":34.48258,"type":"city"},{"id":"ua-703142","label":"Letychiv","lat":49.3801,"lon":27.61889,"type":"city"},{"id":"ua-13561774","label":"Levada","lat":49.5692,"lon":34.58061,"type":"city"},{"id":"ua-9644145","label":"Lidiyivka","lat":47.98902,"lon":37.67695,"type":"city"},{"id":"ua-13580119","label":"Lisovyi Masyv","lat":50.4725,"lon":30.63113,"type":"city"},{"id":"ua-702931","label":"Lityn","lat":49.32711,"lon":28.08698,"type":"city"},{"id":"ua-702469","label":"Liubeshiv","lat":51.76505,"lon":25.51317,"type":"city"},{"id":"ua-702421","label":"Liuboml","lat":51.22536,"lon":24.03225,"type":"city"},{"id":"ua-702417","label":"Liubotyn","lat":49.94691,"lon":35.92907,"type":"city"},{"id":"ua-13607724","label":"Livoberezhnyi","lat":47.1093,"lon":37.64306,"type":"city"},{"id":"ua-13580118","label":"Livoberezhnyi Masyv","lat":50.45544,"lon":30.58969,"type":"city"},{"id":"ua-702874","label":"Lokhvytsya","lat":50.36444,"lon":33.27153,"type":"city"},{"id":"ua-9113068","label":"Lozivskyi","lat":48.01854,"lon":37.71952,"type":"city"},{"id":"ua-702760","label":"Lozova","lat":48.89066,"lon":36.31412,"type":"city"},{"id":"ua-702774","label":"Lozuvatka","lat":48.06014,"lon":33.28138,"type":"city"},{"id":"ua-702723","label":"Lubny","lat":50.01413,"lon":32.99975,"type":"city"},{"id":"ua-702658","label":"Luhansk","lat":48.56814,"lon":39.30553,"type":"city"},{"id":"ua-13580135","label":"Lukyanivka","lat":50.46642,"lon":30.47591,"type":"city"},{"id":"ua-702569","label":"Lutsk","lat":50.75784,"lon":25.35024,"type":"city"},{"id":"ua-702563","label":"Lutuhyne","lat":48.40433,"lon":39.21302,"type":"city"},{"id":"ua-702560","label":"Luzanivka","lat":46.55729,"lon":30.76876,"type":"city"},{"id":"ua-702550","label":"Lviv","lat":49.83826,"lon":24.02324,"type":"city"},{"id":"ua-704204","label":"Lyman","lat":48.99012,"lon":37.80843,"type":"city"},{"id":"ua-698003","label":"Lymanivka","lat":48.93765,"lon":36.27721,"type":"city"},{"id":"ua-9983758","label":"Lymanka","lat":46.38564,"lon":30.67736,"type":"city"},{"id":"ua-703061","label":"Lymanske","lat":46.67952,"lon":29.97231,"type":"city"},{"id":"ua-13580102","label":"Lypky","lat":50.44296,"lon":30.53039,"type":"city"},{"id":"ua-703015","label":"Lypova Dolyna","lat":50.56292,"lon":33.79154,"type":"city"},{"id":"ua-703013","label":"Lypovets","lat":49.22776,"lon":29.05669,"type":"city"},{"id":"ua-702491","label":"Lysyanka","lat":49.25045,"lon":30.82782,"type":"city"},{"id":"ua-702972","label":"Lysychansk","lat":48.91211,"lon":38.42088,"type":"city"},{"id":"ua-702898","label":"Lyubashivka","lat":47.83387,"lon":30.25209,"type":"city"},{"id":"ua-702459","label":"Lyubymivka","lat":46.81048,"lon":33.56845,"type":"city"},{"id":"ua-709352","label":"Lyubymivka","lat":48.04638,"lon":39.43855,"type":"city"},{"id":"ua-702365","label":"Mahala","lat":48.29408,"lon":26.04252,"type":"city"},{"id":"ua-702356","label":"Mahdalynivka","lat":48.91204,"lon":34.91395,"type":"city"},{"id":"ua-702337","label":"Makariv","lat":50.45735,"lon":29.81455,"type":"city"},{"id":"ua-702302","label":"Makiv","lat":48.7946,"lon":26.68143,"type":"city"},{"id":"ua-702320","label":"Makiyivka","lat":48.04782,"lon":37.92576,"type":"city"},{"id":"ua-702246","label":"Mala Bilozerka","lat":47.24419,"lon":34.93073,"type":"city"},{"id":"ua-702231","label":"Mala Danylivka","lat":50.06198,"lon":36.16787,"type":"city"},{"id":"ua-702148","label":"Mala Verhunka","lat":48.58429,"lon":39.38396,"type":"city"},{"id":"ua-702147","label":"Mala Vyska","lat":48.64694,"lon":31.63231,"type":"city"},{"id":"ua-702116","label":"Malyn","lat":50.76756,"lon":29.24225,"type":"city"},{"id":"ua-793657","label":"Malynivka","lat":49.81667,"lon":36.73333,"type":"city"},{"id":"ua-699259","label":"Mamayvtsi","lat":48.34722,"lon":25.8275,"type":"city"},{"id":"ua-701906","label":"Manevychi","lat":51.29385,"lon":25.53063,"type":"city"},{"id":"ua-697613","label":"Manhush","lat":47.05625,"lon":37.31193,"type":"city"},{"id":"ua-701894","label":"Mankivka","lat":48.96391,"lon":30.33626,"type":"city"},{"id":"ua-701845","label":"Mar'yinka","lat":47.94527,"lon":37.50544,"type":"city"},{"id":"ua-701855","label":"Marhanets","lat":47.63088,"lon":34.6245,"type":"city"},{"id":"ua-701822","label":"Mariupol","lat":47.09514,"lon":37.54131,"type":"city"},{"id":"ua-701792","label":"Markivka","lat":49.52503,"lon":39.56999,"type":"city"},{"id":"ua-701768","label":"Marshyntsi","lat":48.21191,"lon":26.29934,"type":"city"},{"id":"ua-701619","label":"Masandra","lat":44.51518,"lon":34.18443,"type":"city"},{"id":"ua-701643","label":"Masany","lat":51.53316,"lon":31.2313,"type":"city"},{"id":"ua-701561","label":"Mayaky","lat":46.41253,"lon":30.26717,"type":"city"},{"id":"ua-701404","label":"Melitopol","lat":46.84735,"lon":35.38196,"type":"city"},{"id":"ua-701372","label":"Mena","lat":51.52205,"lon":32.21364,"type":"city"},{"id":"ua-701347","label":"Merefa","lat":49.82107,"lon":36.0567,"type":"city"},{"id":"ua-701305","label":"Mezhova","lat":48.25418,"lon":36.73178,"type":"city"},{"id":"ua-701104","label":"Milove","lat":49.37615,"lon":40.13647,"type":"city"},{"id":"ua-13607610","label":"Minskyi Masyv","lat":50.51815,"lon":30.46238,"type":"city"},{"id":"ua-707240","label":"Mirnoye","lat":44.9833,"lon":34.0616,"type":"city"},{"id":"ua-701327","label":"Mishkovo-Pohorilove","lat":46.9946,"lon":32.1099,"type":"city"},{"id":"ua-701299","label":"Mizhhirya","lat":48.52435,"lon":23.50091,"type":"city"},{"id":"ua-700964","label":"Mlyniv","lat":50.51026,"lon":25.61719,"type":"city"},{"id":"ua-700918","label":"Mohyliv-Podilskyy","lat":48.44278,"lon":27.79975,"type":"city"},{"id":"ua-700848","label":"Molochansk","lat":47.20405,"lon":35.59789,"type":"city"},{"id":"ua-11139621","label":"Molodizhne","lat":49.1504,"lon":33.4305,"type":"city"},{"id":"ua-700835","label":"Molodyozhnoye","lat":45.00354,"lon":34.05634,"type":"city"},{"id":"ua-700796","label":"Monastyryshche","lat":48.99494,"lon":29.80992,"type":"city"},{"id":"ua-700793","label":"Monastyryska","lat":49.09063,"lon":25.17149,"type":"city"},{"id":"ua-700753","label":"Morshyn","lat":49.15524,"lon":23.87061,"type":"city"},{"id":"ua-700700","label":"Mospyne","lat":47.89012,"lon":38.06381,"type":"city"},{"id":"ua-700696","label":"Mostyska","lat":49.79467,"lon":23.15077,"type":"city"},{"id":"ua-13580125","label":"Mostytskyi Masyv","lat":50.50231,"lon":30.44121,"type":"city"},{"id":"ua-700646","label":"Mukachevo","lat":48.44248,"lon":22.718,"type":"city"},{"id":"ua-700606","label":"Murovani Kurylivtsi","lat":48.71813,"lon":27.53084,"type":"city"},{"id":"ua-701233","label":"Mykhaylivka","lat":47.26863,"lon":35.22207,"type":"city"},{"id":"ua-13580316","label":"Mykilska Borshchahivka","lat":50.42638,"lon":30.37442,"type":"city"},{"id":"ua-700119","label":"Mykolaivka","lat":48.86193,"lon":37.76835,"type":"city"},{"id":"ua-700568","label":"Mykolayiv","lat":49.5255,"lon":23.9779,"type":"city"},{"id":"ua-700569","label":"Mykolayiv","lat":46.97625,"lon":31.99296,"type":"city"},{"id":"ua-701122","label":"Mykulychyn","lat":48.409,"lon":24.609,"type":"city"},{"id":"ua-13607721","label":"Mykytivskyi","lat":48.31421,"lon":38.00378,"type":"city"},{"id":"ua-701075","label":"Myrhorod","lat":49.96464,"lon":33.60861,"type":"city"},{"id":"ua-710035","label":"Myrnohrad","lat":48.3099,"lon":37.26513,"type":"city"},{"id":"ua-11125112","label":"Myrnyi","lat":48.38919,"lon":35.00277,"type":"city"},{"id":"ua-701031","label":"Myronivka","lat":49.66007,"lon":30.98225,"type":"city"},{"id":"ua-700507","label":"Nadvirna","lat":48.63659,"lon":24.5714,"type":"city"},{"id":"ua-700371","label":"Nedryhailiv","lat":50.83587,"lon":33.87848,"type":"city"},{"id":"ua-700335","label":"Nemishaieve","lat":50.55939,"lon":30.08665,"type":"city"},{"id":"ua-700322","label":"Nemyriv","lat":48.97002,"lon":28.83781,"type":"city"},{"id":"ua-700292","label":"Nerubayske","lat":46.54445,"lon":30.62921,"type":"city"},{"id":"ua-700261","label":"Netishyn","lat":50.32863,"lon":26.64872,"type":"city"},{"id":"ua-689151","label":"Nikol's'ke","lat":47.20533,"lon":37.32139,"type":"city"},{"id":"ua-700051","label":"Nikopol","lat":47.56826,"lon":34.39126,"type":"city"},{"id":"ua-699751","label":"Niu-York","lat":48.33027,"lon":37.84114,"type":"city"},{"id":"ua-700019","label":"Nizhnegorskiy","lat":45.44789,"lon":34.73839,"type":"city"},{"id":"ua-699942","label":"Nizhyn","lat":51.04772,"lon":31.88844,"type":"city"},{"id":"ua-699917","label":"Nosivka","lat":50.93799,"lon":31.58031,"type":"city"},{"id":"ua-699882","label":"Nova Borova","lat":50.69106,"lon":28.63189,"type":"city"},{"id":"ua-699871","label":"Nova Darnytsya","lat":50.42405,"lon":30.6558,"type":"city"},{"id":"ua-699839","label":"Nova Kakhovka","lat":46.75966,"lon":33.35591,"type":"city"},{"id":"ua-699823","label":"Nova Mayachka","lat":46.59938,"lon":33.22429,"type":"city"},{"id":"ua-699811","label":"Nova Odesa","lat":47.31268,"lon":31.76972,"type":"city"},{"id":"ua-699802","label":"Nova Praha","lat":48.56868,"lon":32.90431,"type":"city"},{"id":"ua-699777","label":"Nova Vodolaha","lat":49.71875,"lon":35.8601,"type":"city"},{"id":"ua-13645623","label":"Nova Zabudova","lat":50.42811,"lon":30.5153,"type":"city"},{"id":"ua-699769","label":"Nova Zburivka","lat":46.45456,"lon":32.45277,"type":"city"},{"id":"ua-11183753","label":"Nove","lat":48.52725,"lon":32.12223,"type":"city"},{"id":"ua-699753","label":"Novhorod-Siverskyi","lat":52.00684,"lon":33.2634,"type":"city"},{"id":"ua-699756","label":"Novhorodka","lat":48.36089,"lon":32.65469,"type":"city"},{"id":"ua-698944","label":"Novi Basy","lat":50.86324,"lon":34.88002,"type":"city"},{"id":"ua-12359330","label":"Novi Kodaky","lat":48.48667,"lon":34.95639,"type":"city"},{"id":"ua-698929","label":"Novi Petrivtsi","lat":50.62677,"lon":30.44281,"type":"city"},{"id":"ua-698927","label":"Novi Sanzhary","lat":49.33379,"lon":34.31496,"type":"city"},{"id":"ua-699677","label":"Novoaidar","lat":48.96288,"lon":39.00376,"type":"city"},{"id":"ua-699680","label":"Novoarkhanhelsk","lat":48.66187,"lon":30.80705,"type":"city"},{"id":"ua-699675","label":"Novoazovs'k","lat":47.11389,"lon":38.08599,"type":"city"},{"id":"ua-13645622","label":"Novobilychi","lat":50.47611,"lon":30.34669,"type":"city"},{"id":"ua-699620","label":"Novodnistrovsk","lat":48.58321,"lon":27.43658,"type":"city"},{"id":"ua-699617","label":"Novodonetske","lat":48.63512,"lon":36.98276,"type":"city"},{"id":"ua-699615","label":"Novodruzhesk","lat":48.96351,"lon":38.35201,"type":"city"},{"id":"ua-699607","label":"Novofedorivka","lat":46.17477,"lon":32.31765,"type":"city"},{"id":"ua-7039154","label":"Novofedorovka","lat":45.09473,"lon":33.57211,"type":"city"},{"id":"ua-699557","label":"Novohrodivka","lat":48.20052,"lon":37.33883,"type":"city"},{"id":"ua-699554","label":"Novohuivynske","lat":50.2069,"lon":28.69208,"type":"city"},{"id":"ua-699413","label":"Novomykolayivka","lat":47.97362,"lon":35.89806,"type":"city"},{"id":"ua-699453","label":"Novomyrhorod","lat":48.81692,"lon":31.64985,"type":"city"},{"id":"ua-699706","label":"Novooleksiyivka","lat":46.22995,"lon":34.64576,"type":"city"},{"id":"ua-7025405","label":"Novoozerne","lat":45.38388,"lon":33.11713,"type":"city"},{"id":"ua-699285","label":"Novoselytsya","lat":48.21812,"lon":26.26766,"type":"city"},{"id":"ua-699238","label":"Novosilky","lat":50.31219,"lon":30.07539,"type":"city"},{"id":"ua-699100","label":"Novotroyitske","lat":46.35088,"lon":34.33245,"type":"city"},{"id":"ua-699078","label":"Novoukrayinka","lat":48.31661,"lon":31.52355,"type":"city"},{"id":"ua-699035","label":"Novovolynsk","lat":50.72949,"lon":24.15976,"type":"city"},{"id":"ua-699034","label":"Novovorontsovka","lat":47.50499,"lon":33.92317,"type":"city"},{"id":"ua-8468760","label":"Novoyavorivs'k","lat":49.93023,"lon":23.57357,"type":"city"},{"id":"ua-13608468","label":"Novozavodskyi","lat":51.4893,"lon":31.25634,"type":"city"},{"id":"ua-698953","label":"Novyi Buh","lat":47.69057,"lon":32.51214,"type":"city"},{"id":"ua-13546540","label":"Novyi Lviv","lat":49.81519,"lon":24.03171,"type":"city"},{"id":"ua-10951593","label":"Novyi Melitopol","lat":46.84998,"lon":35.32805,"type":"city"},{"id":"ua-698874","label":"Novyi Rozdil","lat":49.47136,"lon":24.13352,"type":"city"},{"id":"ua-698861","label":"Novyi Svit","lat":47.80669,"lon":38.02102,"type":"city"},{"id":"ua-13645597","label":"Novyi Svit","lat":48.71751,"lon":37.57666,"type":"city"},{"id":"ua-13580041","label":"Nyvky","lat":50.46461,"lon":30.40593,"type":"city"},{"id":"ua-709505","label":"Nyzhnia Apsha","lat":48.00365,"lon":23.83286,"type":"city"},{"id":"ua-700022","label":"Nyzhnodniprovsk","lat":48.47546,"lon":35.1167,"type":"city"},{"id":"ua-699956","label":"Nyzhnya Krynka","lat":48.11376,"lon":38.15962,"type":"city"},{"id":"ua-13631571","label":"Nyzhnya Telychka","lat":50.38809,"lon":30.57487,"type":"city"},{"id":"ua-698803","label":"Obolon","lat":49.60405,"lon":32.87445,"type":"city"},{"id":"ua-8519916","label":"Obolon","lat":50.5132,"lon":30.5055,"type":"city"},{"id":"ua-698782","label":"Obukhiv","lat":50.11632,"lon":30.63329,"type":"city"},{"id":"ua-705796","label":"Obukhivka","lat":48.54884,"lon":34.85387,"type":"city"},{"id":"ua-698770","label":"Ochakiv","lat":46.61472,"lon":31.54505,"type":"city"},{"id":"ua-698740","label":"Odesa","lat":46.48572,"lon":30.74383,"type":"city"},{"id":"ua-713749","label":"Okhtyrka","lat":50.30852,"lon":34.89468,"type":"city"},{"id":"ua-860012","label":"Okny","lat":47.54293,"lon":29.45586,"type":"city"},{"id":"ua-698627","label":"Oleksandrivka","lat":48.968,"lon":32.23968,"type":"city"},{"id":"ua-713633","label":"Oleksandrivka","lat":48.70744,"lon":36.9127,"type":"city"},{"id":"ua-713652","label":"Oleksandrivka","lat":47.92073,"lon":37.57872,"type":"city"},{"id":"ua-713658","label":"Oleksandrivka","lat":47.69009,"lon":31.27756,"type":"city"},{"id":"ua-713683","label":"Oleksandrivka","lat":46.32868,"lon":30.63562,"type":"city"},{"id":"ua-713588","label":"Oleksandrivsk","lat":48.58611,"lon":39.18946,"type":"city"},{"id":"ua-13580114","label":"Oleksandrivska Slobidka","lat":50.41827,"lon":30.47807,"type":"city"},{"id":"ua-13561149","label":"Oleksandrivskyi","lat":47.96788,"lon":37.80335,"type":"city"},{"id":"ua-698625","label":"Oleksandriya","lat":48.67466,"lon":33.11761,"type":"city"},{"id":"ua-713544","label":"Oleksiyevo-Druzhkivka","lat":48.57909,"lon":37.60941,"type":"city"},{"id":"ua-12500938","label":"Oleksiyivka","lat":50.04516,"lon":36.19322,"type":"city"},{"id":"ua-691037","label":"Oleshky","lat":46.62553,"lon":32.72426,"type":"city"},{"id":"ua-698597","label":"Olevsk","lat":51.22482,"lon":27.65228,"type":"city"},{"id":"ua-698462","label":"Opishnya","lat":49.95948,"lon":34.60634,"type":"city"},{"id":"ua-698461","label":"Oprysheny","lat":48.05334,"lon":26.02699,"type":"city"},{"id":"ua-698428","label":"Orikhiv","lat":47.57613,"lon":35.78333,"type":"city"},{"id":"ua-698247","label":"Oster","lat":50.94966,"lon":30.87735,"type":"city"},{"id":"ua-698232","label":"Ostroh","lat":50.32897,"lon":26.52113,"type":"city"},{"id":"ua-700829","label":"Otamanivka","lat":48.34586,"lon":39.65233,"type":"city"},{"id":"ua-698142","label":"Otyniia","lat":48.73792,"lon":24.86115,"type":"city"},{"id":"ua-698138","label":"Ovidiopol","lat":46.24721,"lon":30.43746,"type":"city"},{"id":"ua-698131","label":"Ovruch","lat":51.3274,"lon":28.80165,"type":"city"},{"id":"ua-698102","label":"Ozerne","lat":50.17816,"lon":28.73384,"type":"city"},{"id":"ua-698107","label":"Ozerne","lat":45.40559,"lon":28.66861,"type":"city"},{"id":"ua-698006","label":"Panteleymonivka","lat":48.20155,"lon":37.97394,"type":"city"},{"id":"ua-709075","label":"Partenit","lat":44.578,"lon":34.34464,"type":"city"},{"id":"ua-697889","label":"Pavlohrad","lat":48.53214,"lon":35.86878,"type":"city"},{"id":"ua-697803","label":"Pechenihy","lat":49.86931,"lon":36.9386,"type":"city"},{"id":"ua-697802","label":"Pechenizhyn","lat":48.51668,"lon":24.88317,"type":"city"},{"id":"ua-13535745","label":"Pechersk","lat":50.44441,"lon":30.52348,"type":"city"},{"id":"ua-697771","label":"Pelahiivka","lat":48.10752,"lon":38.61338,"type":"city"},{"id":"ua-697750","label":"Perechyn","lat":48.73494,"lon":22.47718,"type":"city"},{"id":"ua-697741","label":"Perehinske","lat":48.81118,"lon":24.19196,"type":"city"},{"id":"ua-697637","label":"Pereiaslav","lat":50.06739,"lon":31.44969,"type":"city"},{"id":"ua-697692","label":"Peremyshliany","lat":49.66929,"lon":24.55759,"type":"city"},{"id":"ua-697671","label":"Pereshchepyne","lat":49.02512,"lon":35.36885,"type":"city"},{"id":"ua-697676","label":"Peresichna","lat":50.02452,"lon":35.97871,"type":"city"},{"id":"ua-697657","label":"Peresyp","lat":46.53492,"lon":30.72664,"type":"city"},{"id":"ua-697650","label":"Perevalsk","lat":48.43921,"lon":38.82839,"type":"city"},{"id":"ua-697593","label":"Pervomaysk","lat":48.04478,"lon":30.84784,"type":"city"},{"id":"ua-697568","label":"Pervomayske","lat":45.71744,"lon":33.85596,"type":"city"},{"id":"ua-697423","label":"Petropavlivka","lat":48.46353,"lon":36.43061,"type":"city"},{"id":"ua-697418","label":"Petropavlivska Borshchahivka","lat":50.43379,"lon":30.32871,"type":"city"},{"id":"ua-697325","label":"Petrove","lat":48.33809,"lon":33.2653,"type":"city"},{"id":"ua-697396","label":"Petrovka","lat":45.49776,"lon":34.28816,"type":"city"},{"id":"ua-697276","label":"Petrovo-Krasnosillya","lat":48.29662,"lon":38.87892,"type":"city"},{"id":"ua-696943","label":"Pidhorodnye","lat":48.57422,"lon":35.09702,"type":"city"},{"id":"ua-696823","label":"Pidvolochysk","lat":49.53131,"lon":26.14401,"type":"city"},{"id":"ua-697203","label":"Pionerskoye","lat":44.88083,"lon":34.20194,"type":"city"},{"id":"ua-697537","label":"Pishchanka","lat":48.21249,"lon":28.88056,"type":"city"},{"id":"ua-697489","label":"Piskivka","lat":50.69415,"lon":29.62175,"type":"city"},{"id":"ua-697488","label":"Pisochyn","lat":49.9516,"lon":36.10262,"type":"city"},{"id":"ua-13645618","label":"Pivdenna Borshchahivka","lat":50.41059,"lon":30.40396,"type":"city"},{"id":"ua-687997","label":"Pivdenne","lat":46.62472,"lon":31.10182,"type":"city"},{"id":"ua-697135","label":"Pivdenne","lat":49.88134,"lon":36.06807,"type":"city"},{"id":"ua-7525990","label":"Pivdennoukrainsk","lat":47.82879,"lon":31.17513,"type":"city"},{"id":"ua-13546047","label":"Pivdennyi","lat":48.65831,"lon":33.13201,"type":"city"},{"id":"ua-698900","label":"Pivdennyi Hirnycho-Zbahachuvalnyi Kombinat","lat":47.83981,"lon":33.343,"type":"city"},{"id":"ua-6723024","label":"Pivnichna Saltivka","lat":50.04512,"lon":36.35905,"type":"city"},{"id":"ua-705821","label":"Pivnichne","lat":48.39785,"lon":37.90935,"type":"city"},{"id":"ua-13580318","label":"Pivnichni Osokorky","lat":50.3932,"lon":30.61304,"type":"city"},{"id":"ua-13580323","label":"Pivnichno-Brovarskyi Masyv","lat":50.46304,"lon":30.61697,"type":"city"},{"id":"ua-697126","label":"Plakhtiyivka","lat":46.095,"lon":29.7189,"type":"city"},{"id":"ua-697018","label":"Pobuzke","lat":48.1595,"lon":30.59247,"type":"city"},{"id":"ua-697006","label":"Pochayiv","lat":50.00412,"lon":25.5093,"type":"city"},{"id":"ua-696877","label":"Podil","lat":50.46936,"lon":30.51627,"type":"city"},{"id":"ua-13561777","label":"Podil","lat":49.6039,"lon":34.59443,"type":"city"},{"id":"ua-704679","label":"Podilsk","lat":47.74988,"lon":29.53074,"type":"city"},{"id":"ua-13546532","label":"Podilskyi","lat":48.50357,"lon":32.28035,"type":"city"},{"id":"ua-812802","label":"Podvirky","lat":49.97987,"lon":36.09238,"type":"city"},{"id":"ua-696771","label":"Pohrebyshche","lat":49.48508,"lon":29.25988,"type":"city"},{"id":"ua-696743","label":"Pokotylivka","lat":49.91343,"lon":36.17511,"type":"city"},{"id":"ua-698436","label":"Pokrov","lat":47.65361,"lon":34.11488,"type":"city"},{"id":"ua-704422","label":"Pokrovsk","lat":48.28014,"lon":37.17706,"type":"city"},{"id":"ua-696720","label":"Pokrovske","lat":47.98126,"lon":36.23446,"type":"city"},{"id":"ua-696677","label":"Polohy","lat":47.47865,"lon":36.25463,"type":"city"},{"id":"ua-696660","label":"Polonne","lat":50.11944,"lon":27.50856,"type":"city"},{"id":"ua-696643","label":"Poltava","lat":49.58925,"lon":34.55367,"type":"city"},{"id":"ua-696581","label":"Pomichna","lat":48.23975,"lon":31.40865,"type":"city"},{"id":"ua-696576","label":"Poninka","lat":50.18413,"lon":27.52817,"type":"city"},{"id":"ua-696566","label":"Popasna","lat":48.63168,"lon":38.37104,"type":"city"},{"id":"ua-696557","label":"Popilnia","lat":49.9532,"lon":29.45265,"type":"city"},{"id":"ua-13580104","label":"Post-Volynskyi","lat":50.41691,"lon":30.42795,"type":"city"},{"id":"ua-13580094","label":"Pozniaky","lat":50.40259,"lon":30.62352,"type":"city"},{"id":"ua-13580034","label":"Pravyi Bereh","lat":47.11498,"lon":37.58519,"type":"city"},{"id":"ua-696291","label":"Primorskyi","lat":45.11201,"lon":35.4786,"type":"city"},{"id":"ua-13580124","label":"Priorka","lat":50.50977,"lon":30.45773,"type":"city"},{"id":"ua-696332","label":"Pryazovske","lat":46.73123,"lon":35.64082,"type":"city"},{"id":"ua-696317","label":"Prydniprovsk","lat":48.41302,"lon":35.12995,"type":"city"},{"id":"ua-696108","label":"Pryluky","lat":50.59525,"lon":32.38382,"type":"city"},{"id":"ua-696292","label":"Prymorsk","lat":46.73415,"lon":36.34599,"type":"city"},{"id":"ua-13607725","label":"Prymorskyi","lat":47.07098,"lon":37.49973,"type":"city"},{"id":"ua-696218","label":"Pryvillia","lat":49.00556,"lon":38.29883,"type":"city"},{"id":"ua-710556","label":"Pulyny","lat":50.46745,"lon":28.27,"type":"city"},{"id":"ua-696032","label":"Pustomyty","lat":49.71687,"lon":23.90677,"type":"city"},{"id":"ua-696010","label":"Putylivka","lat":48.06035,"lon":37.79295,"type":"city"},{"id":"ua-696008","label":"Putyvl","lat":51.33529,"lon":33.86885,"type":"city"},{"id":"ua-695965","label":"Pyatykhatky","lat":48.40821,"lon":33.70919,"type":"city"},{"id":"ua-697183","label":"Pyryatyn","lat":50.24388,"lon":32.5203,"type":"city"},{"id":"ua-695935","label":"Radekhiv","lat":50.28086,"lon":24.63836,"type":"city"},{"id":"ua-695912","label":"Radomyshl","lat":50.4962,"lon":29.23003,"type":"city"},{"id":"ua-710565","label":"Radyvyliv","lat":50.13041,"lon":25.25181,"type":"city"},{"id":"ua-695859","label":"Rakhiv","lat":48.05472,"lon":24.20314,"type":"city"},{"id":"ua-13545883","label":"Rakivka","lat":49.02446,"lon":33.46398,"type":"city"},{"id":"ua-13631378","label":"Rakove","lat":49.39556,"lon":27.06009,"type":"city"},{"id":"ua-695789","label":"Ratne","lat":51.66919,"lon":24.52644,"type":"city"},{"id":"ua-695781","label":"Rava-Ruska","lat":50.23249,"lon":23.62175,"type":"city"},{"id":"ua-13580121","label":"Rayduzhnyi Masyv","lat":50.48551,"lon":30.58571,"type":"city"},{"id":"ua-13561808","label":"Rayon KTZ","lat":49.94349,"lon":36.36959,"type":"city"},{"id":"ua-13645627","label":"Rembaza","lat":50.42045,"lon":30.69581,"type":"city"},{"id":"ua-12129128","label":"Reni","lat":45.45421,"lon":28.27731,"type":"city"},{"id":"ua-695643","label":"Reshetylivka","lat":49.563,"lon":34.07896,"type":"city"},{"id":"ua-695653","label":"Ripky","lat":51.80165,"lon":31.08578,"type":"city"},{"id":"ua-695365","label":"Rivne","lat":48.24274,"lon":31.75808,"type":"city"},{"id":"ua-695594","label":"Rivne","lat":50.62036,"lon":26.23695,"type":"city"},{"id":"ua-695585","label":"Rodakove","lat":48.55888,"lon":39.02525,"type":"city"},{"id":"ua-695581","label":"Rodynske","lat":48.35415,"lon":37.20641,"type":"city"},{"id":"ua-695559","label":"Rohatyn","lat":49.41043,"lon":24.61103,"type":"city"},{"id":"ua-695516","label":"Rokytne","lat":51.27891,"lon":27.21705,"type":"city"},{"id":"ua-709353","label":"Romaniv","lat":50.14733,"lon":27.9314,"type":"city"},{"id":"ua-695505","label":"Romankivtsi","lat":48.48421,"lon":27.2141,"type":"city"},{"id":"ua-695464","label":"Romny","lat":50.74025,"lon":33.4952,"type":"city"},{"id":"ua-695379","label":"Rovenky","lat":48.08277,"lon":39.37696,"type":"city"},{"id":"ua-695344","label":"Rozdilna","lat":46.85479,"lon":30.07091,"type":"city"},{"id":"ua-695740","label":"Rozdolne","lat":45.77019,"lon":33.49092,"type":"city"},{"id":"ua-695320","label":"Rozhniv","lat":48.36501,"lon":25.22838,"type":"city"},{"id":"ua-695326","label":"Rozhyshche","lat":50.91632,"lon":25.27121,"type":"city"},{"id":"ua-695441","label":"Rozkishne","lat":48.48959,"lon":39.27881,"type":"city"},{"id":"ua-11114903","label":"Rozsoshentsi","lat":49.54094,"lon":34.50565,"type":"city"},{"id":"ua-695274","label":"Rubizhne","lat":49.00849,"lon":38.37972,"type":"city"},{"id":"ua-695221","label":"Rudky","lat":49.65349,"lon":23.48669,"type":"city"},{"id":"ua-695205","label":"Rudne","lat":49.83333,"lon":23.9,"type":"city"},{"id":"ua-13580324","label":"Rusanivka","lat":50.43996,"lon":30.59682,"type":"city"},{"id":"ua-695106","label":"Ruska Lozova","lat":50.14213,"lon":36.28612,"type":"city"},{"id":"ua-695104","label":"Ruska Poliana","lat":49.417,"lon":31.92009,"type":"city"},{"id":"ua-695099","label":"Ruske Pole","lat":48.05734,"lon":23.53513,"type":"city"},{"id":"ua-13561146","label":"Rutchenkivskyi","lat":47.97597,"lon":37.69677,"type":"city"},{"id":"ua-694992","label":"Rzhyshchiv","lat":49.96934,"lon":31.0424,"type":"city"},{"id":"ua-694919","label":"Sakhnovshchyna","lat":49.15022,"lon":35.87268,"type":"city"},{"id":"ua-694910","label":"Saki","lat":45.13424,"lon":33.59996,"type":"city"},{"id":"ua-6722148","label":"Saltivka","lat":50.02207,"lon":36.34901,"type":"city"},{"id":"ua-699445","label":"Samar","lat":48.62893,"lon":35.2589,"type":"city"},{"id":"ua-694864","label":"Sambir","lat":49.51624,"lon":23.20133,"type":"city"},{"id":"ua-13589474","label":"Saperna Slobidka","lat":50.40077,"lon":30.5349,"type":"city"},{"id":"ua-694792","label":"Sarny","lat":51.33898,"lon":26.60693,"type":"city"},{"id":"ua-696280","label":"Sartana","lat":47.17523,"lon":37.69184,"type":"city"},{"id":"ua-694745","label":"Savran","lat":48.1293,"lon":30.0833,"type":"city"},{"id":"ua-694752","label":"Savyntsi","lat":49.40035,"lon":37.05134,"type":"city"},{"id":"ua-694677","label":"Selydove","lat":48.1465,"lon":37.3022,"type":"city"},{"id":"ua-694590","label":"Semenivka","lat":52.1786,"lon":32.58181,"type":"city"},{"id":"ua-694603","label":"Semenivka","lat":49.59655,"lon":33.17943,"type":"city"},{"id":"ua-693001","label":"Serednie Vodiane","lat":47.98293,"lon":23.90904,"type":"city"},{"id":"ua-694491","label":"Seredyna-Buda","lat":52.18886,"lon":34.03613,"type":"city"},{"id":"ua-694467","label":"Serhiyivka","lat":46.0251,"lon":30.36826,"type":"city"},{"id":"ua-694423","label":"Sevastopol","lat":44.60795,"lon":33.52134,"type":"city"},{"id":"ua-694392","label":"Shabo","lat":46.12657,"lon":30.38567,"type":"city"},{"id":"ua-694382","label":"Shakhtarsk","lat":48.05657,"lon":38.43826,"type":"city"},{"id":"ua-697616","label":"Shakhtarske","lat":48.3479,"lon":36.39637,"type":"city"},{"id":"ua-694350","label":"Sharhorod","lat":48.73562,"lon":28.08459,"type":"city"},{"id":"ua-694333","label":"Shatsk","lat":51.49929,"lon":23.93589,"type":"city"},{"id":"ua-8524552","label":"Shchaslyve","lat":50.3784,"lon":30.79108,"type":"city"},{"id":"ua-694725","label":"Shchastya","lat":48.73784,"lon":39.23047,"type":"city"},{"id":"ua-12522778","label":"Shchemylivka","lat":49.07551,"lon":33.39964,"type":"city"},{"id":"ua-700551","label":"Shcholkine","lat":45.42985,"lon":35.8225,"type":"city"},{"id":"ua-694278","label":"Shchyrets","lat":49.65254,"lon":23.85793,"type":"city"},{"id":"ua-694216","label":"Shepetivka","lat":50.18118,"lon":27.06517,"type":"city"},{"id":"ua-710554","label":"Sheptytskyi","lat":50.39403,"lon":24.23935,"type":"city"},{"id":"ua-8519917","label":"Shevchenka","lat":50.51891,"lon":30.4352,"type":"city"},{"id":"ua-13546521","label":"Shevchenkivskyi","lat":50.46408,"lon":30.46576,"type":"city"},{"id":"ua-13607659","label":"Shevchenkivskyi","lat":48.56346,"lon":39.33216,"type":"city"},{"id":"ua-13561779","label":"Shevchenko","lat":49.5645,"lon":34.53873,"type":"city"},{"id":"ua-694137","label":"Shevchenkove","lat":49.6951,"lon":37.17625,"type":"city"},{"id":"ua-694152","label":"Shevchenkove","lat":45.55487,"lon":29.33354,"type":"city"},{"id":"ua-693995","label":"Shklo","lat":49.95675,"lon":23.54408,"type":"city"},{"id":"ua-693942","label":"Shostka","lat":51.86434,"lon":33.47283,"type":"city"},{"id":"ua-693920","label":"Shpola","lat":49.01291,"lon":31.3926,"type":"city"},{"id":"ua-13580130","label":"Shulyavka","lat":50.45356,"lon":30.4531,"type":"city"},{"id":"ua-693870","label":"Shumsk","lat":50.11775,"lon":26.11792,"type":"city"},{"id":"ua-694025","label":"Shyroke","lat":47.6855,"lon":33.26147,"type":"city"},{"id":"ua-694016","label":"Shyryayeve","lat":47.38483,"lon":30.19065,"type":"city"},{"id":"ua-693805","label":"Simferopol","lat":44.95719,"lon":34.11079,"type":"city"},{"id":"ua-694403","label":"Siversk","lat":48.86476,"lon":38.09683,"type":"city"},{"id":"ua-691999","label":"Siverskodonetsk","lat":48.94414,"lon":38.48754,"type":"city"},{"id":"ua-693709","label":"Skadovsk","lat":46.11313,"lon":32.90978,"type":"city"},{"id":"ua-13645605","label":"Skhidni Kvartaly","lat":48.56622,"lon":39.38256,"type":"city"},{"id":"ua-693658","label":"Skole","lat":49.03767,"lon":23.51359,"type":"city"},{"id":"ua-693615","label":"Skvyra","lat":49.73401,"lon":29.66353,"type":"city"},{"id":"ua-693598","label":"Slatyne","lat":50.21041,"lon":36.15376,"type":"city"},{"id":"ua-693581","label":"Slavuta","lat":50.29609,"lon":26.86613,"type":"city"},{"id":"ua-6930327","label":"Slavutych","lat":51.5225,"lon":30.71806,"type":"city"},{"id":"ua-710587","label":"Sloboda","lat":49.37281,"lon":32.15742,"type":"city"},{"id":"ua-705183","label":"Slobozhanske","lat":49.59054,"lon":36.52172,"type":"city"},{"id":"ua-9533118","label":"Slobozhanske","lat":48.53201,"lon":35.07147,"type":"city"},{"id":"ua-693469","label":"Slov`yanoserbsk","lat":48.69779,"lon":38.98133,"type":"city"},{"id":"ua-693468","label":"Slovyansk","lat":48.84974,"lon":37.59739,"type":"city"},{"id":"ua-693457","label":"Smila","lat":49.23295,"lon":31.88427,"type":"city"},{"id":"ua-693426","label":"Smoline","lat":48.60127,"lon":31.31292,"type":"city"},{"id":"ua-13607653","label":"Smolyanskyi","lat":48.01435,"lon":37.73586,"type":"city"},{"id":"ua-693365","label":"Sniatyn","lat":48.44883,"lon":25.55994,"type":"city"},{"id":"ua-693379","label":"Snihurivka","lat":47.07651,"lon":32.8197,"type":"city"},{"id":"ua-693381","label":"Snizhne","lat":48.02328,"lon":38.76205,"type":"city"},{"id":"ua-694273","label":"Snovsk","lat":51.81674,"lon":31.94245,"type":"city"},{"id":"ua-13513215","label":"Sofiivska Borschahivka","lat":50.40931,"lon":30.35908,"type":"city"},{"id":"ua-693325","label":"Sofiyivka","lat":48.04734,"lon":33.87237,"type":"city"},{"id":"ua-706756","label":"Sofiyivka","lat":48.2638,"lon":38.15928,"type":"city"},{"id":"ua-8504651","label":"Sofiyivska Borschagivka","lat":50.41005,"lon":30.36724,"type":"city"},{"id":"ua-693301","label":"Sokal","lat":50.47452,"lon":24.28088,"type":"city"},{"id":"ua-693292","label":"Sokilnyky","lat":49.7816,"lon":23.98152,"type":"city"},{"id":"ua-697592","label":"Sokolohirsk","lat":48.6279,"lon":38.52389,"type":"city"},{"id":"ua-693284","label":"Sokyryany","lat":48.44913,"lon":27.41138,"type":"city"},{"id":"ua-706757","label":"Soledar","lat":48.6921,"lon":38.07098,"type":"city"},{"id":"ua-13546520","label":"Solomyanka","lat":50.42838,"lon":30.45211,"type":"city"},{"id":"ua-693231","label":"Solone","lat":48.20907,"lon":34.87585,"type":"city"},{"id":"ua-693194","label":"Solonytsivka","lat":49.99682,"lon":36.03464,"type":"city"},{"id":"ua-693176","label":"Solotvyno","lat":47.94728,"lon":23.87433,"type":"city"},{"id":"ua-13645588","label":"Sonyachnyi","lat":48.72284,"lon":37.5981,"type":"city"},{"id":"ua-704403","label":"Sorokyne","lat":48.29329,"lon":39.73327,"type":"city"},{"id":"ua-693086","label":"Sosnivka","lat":50.2897,"lon":24.25139,"type":"city"},{"id":"ua-693100","label":"Sosnytsia","lat":51.52387,"lon":32.49985,"type":"city"},{"id":"ua-693065","label":"Sotsmisto","lat":48.73663,"lon":37.59075,"type":"city"},{"id":"ua-692953","label":"Stanytsya-Luhanska","lat":48.66247,"lon":39.48358,"type":"city"},{"id":"ua-692909","label":"Stara Darnytsya","lat":50.43333,"lon":30.63333,"type":"city"},{"id":"ua-692866","label":"Stara Synyava","lat":49.59709,"lon":27.615,"type":"city"},{"id":"ua-692856","label":"Stara Vyzhivka","lat":51.43661,"lon":24.43958,"type":"city"},{"id":"ua-13580099","label":"Stare Misto","lat":50.44759,"lon":30.52635,"type":"city"},{"id":"ua-13645589","label":"Stare Misto","lat":48.72593,"lon":37.54696,"type":"city"},{"id":"ua-692742","label":"Stari Kuty","lat":48.27943,"lon":25.163,"type":"city"},{"id":"ua-692829","label":"Starobesheve","lat":47.75068,"lon":38.03039,"type":"city"},{"id":"ua-692832","label":"Starobilsk","lat":49.27881,"lon":38.9075,"type":"city"},{"id":"ua-692818","label":"Starokostyantyniv","lat":49.75522,"lon":27.21229,"type":"city"},{"id":"ua-692819","label":"Starokozache","lat":46.33583,"lon":29.98876,"type":"city"},{"id":"ua-692810","label":"Staromykhailivka","lat":47.99265,"lon":37.58581,"type":"city"},{"id":"ua-692714","label":"Stary Krym","lat":45.02887,"lon":35.09174,"type":"city"},{"id":"ua-692713","label":"Staryi Krym","lat":47.16105,"lon":37.48808,"type":"city"},{"id":"ua-692702","label":"Staryi Sambir","lat":49.43997,"lon":23.00078,"type":"city"},{"id":"ua-692674","label":"Stavyshche","lat":49.3915,"lon":30.19102,"type":"city"},{"id":"ua-692632","label":"Stebnyk","lat":49.30098,"lon":23.55197,"type":"city"},{"id":"ua-692487","label":"Storozhynets","lat":48.15938,"lon":25.72144,"type":"city"},{"id":"ua-692372","label":"Stryi","lat":49.26103,"lon":23.84845,"type":"city"},{"id":"ua-692416","label":"Stryzhavka","lat":49.30955,"lon":28.47208,"type":"city"},{"id":"ua-692315","label":"Sudak","lat":44.84924,"lon":34.97471,"type":"city"},{"id":"ua-692301","label":"Sudova Vyshnia","lat":49.7868,"lon":23.37403,"type":"city"},{"id":"ua-692254","label":"Sukhodilsk","lat":48.35083,"lon":39.72573,"type":"city"},{"id":"ua-692194","label":"Sumy","lat":50.91741,"lon":34.79906,"type":"city"},{"id":"ua-692146","label":"Sutysky","lat":49.03901,"lon":28.41956,"type":"city"},{"id":"ua-692129","label":"Svalyava","lat":48.54735,"lon":22.98673,"type":"city"},{"id":"ua-692118","label":"Svatove","lat":49.40926,"lon":38.15534,"type":"city"},{"id":"ua-692102","label":"Svesa","lat":51.95131,"lon":33.93383,"type":"city"},{"id":"ua-692093","label":"Svetlodarsk","lat":48.43374,"lon":38.22331,"type":"city"},{"id":"ua-692087","label":"Svitlovodsk","lat":49.06287,"lon":33.2458,"type":"city"},{"id":"ua-8354605","label":"Svyatopetrivske","lat":50.38214,"lon":30.32278,"type":"city"},{"id":"ua-13535747","label":"Svyatoshyn","lat":50.46341,"lon":30.34612,"type":"city"},{"id":"ua-693821","label":"Sykhiv","lat":49.79427,"lon":24.06284,"type":"city"},{"id":"ua-693796","label":"Synelnykove","lat":48.32362,"lon":35.52612,"type":"city"},{"id":"ua-13645628","label":"Synyoozernyi Masyv","lat":50.51076,"lon":30.4052,"type":"city"},{"id":"ua-13580126","label":"Syrets","lat":50.47955,"lon":30.44491,"type":"city"},{"id":"ua-691942","label":"Talalaivka","lat":50.95783,"lon":31.92085,"type":"city"},{"id":"ua-691943","label":"Talalaivka","lat":50.84287,"lon":33.14173,"type":"city"},{"id":"ua-691936","label":"Talne","lat":48.88891,"lon":30.6965,"type":"city"},{"id":"ua-691904","label":"Tarashcha","lat":49.55719,"lon":30.49615,"type":"city"},{"id":"ua-11817987","label":"Tarasivtsi","lat":48.20557,"lon":26.36444,"type":"city"},{"id":"ua-691832","label":"Taromske","lat":48.44278,"lon":34.78852,"type":"city"},{"id":"ua-691803","label":"Tatarbunary","lat":45.83861,"lon":29.61123,"type":"city"},{"id":"ua-13580129","label":"Tatarka","lat":50.46941,"lon":30.48649,"type":"city"},{"id":"ua-865729","label":"Tavriysk","lat":46.75432,"lon":33.41665,"type":"city"},{"id":"ua-13561228","label":"Tekstylnyk","lat":47.94594,"lon":37.69848,"type":"city"},{"id":"ua-691743","label":"Telychka","lat":50.4,"lon":30.56667,"type":"city"},{"id":"ua-691715","label":"Teofipol","lat":49.83892,"lon":26.4204,"type":"city"},{"id":"ua-704402","label":"Teple","lat":48.31245,"lon":39.56284,"type":"city"},{"id":"ua-865087","label":"Teplodar","lat":46.50196,"lon":30.32256,"type":"city"},{"id":"ua-691708","label":"Teplyk","lat":48.66538,"lon":29.74482,"type":"city"},{"id":"ua-691693","label":"Terebovlia","lat":49.29967,"lon":25.68886,"type":"city"},{"id":"ua-13580112","label":"Teremky","lat":50.37053,"lon":30.45881,"type":"city"},{"id":"ua-13580109","label":"Teremky-I","lat":50.3666,"lon":30.45858,"type":"city"},{"id":"ua-13580111","label":"Teremky-II","lat":50.38067,"lon":30.45249,"type":"city"},{"id":"ua-691663","label":"Teresva","lat":47.99769,"lon":23.69904,"type":"city"},{"id":"ua-691628","label":"Ternivka","lat":48.52656,"lon":36.07051,"type":"city"},{"id":"ua-691650","label":"Ternopil","lat":49.55404,"lon":25.59067,"type":"city"},{"id":"ua-691605","label":"Terny","lat":48.14512,"lon":33.55832,"type":"city"},{"id":"ua-691578","label":"Tetiiv","lat":49.37019,"lon":29.66933,"type":"city"},{"id":"ua-691497","label":"Tlumach","lat":48.86519,"lon":25.00385,"type":"city"},{"id":"ua-691469","label":"Tokmak","lat":47.25554,"lon":35.70836,"type":"city"},{"id":"ua-691435","label":"Tomakivka","lat":47.81081,"lon":34.74324,"type":"city"},{"id":"ua-691422","label":"Tomashpil","lat":48.53695,"lon":28.51295,"type":"city"},{"id":"ua-709354","label":"Toretsk","lat":48.39477,"lon":37.8478,"type":"city"},{"id":"ua-691336","label":"Trebukhiv","lat":50.48432,"lon":30.90304,"type":"city"},{"id":"ua-691279","label":"Troitske","lat":49.91202,"lon":38.28421,"type":"city"},{"id":"ua-691255","label":"Trostyanets","lat":50.48478,"lon":34.96567,"type":"city"},{"id":"ua-691264","label":"Trostyanets","lat":48.50915,"lon":29.22742,"type":"city"},{"id":"ua-691291","label":"Troyitske","lat":46.54168,"lon":30.02346,"type":"city"},{"id":"ua-705962","label":"Trudivskyi","lat":47.94699,"lon":37.55806,"type":"city"},{"id":"ua-691179","label":"Truskavets","lat":49.28067,"lon":23.50365,"type":"city"},{"id":"ua-691155","label":"Tsarychanka","lat":48.94186,"lon":34.48601,"type":"city"},{"id":"ua-13607654","label":"Tsentralno-Miskyi","lat":48.06167,"lon":37.97157,"type":"city"},{"id":"ua-13607719","label":"Tsentralno-Miskyi","lat":48.30237,"lon":38.03165,"type":"city"},{"id":"ua-13607722","label":"Tsentralnyi","lat":47.09833,"lon":37.54838,"type":"city"},{"id":"ua-691084","label":"Tsyrkuny","lat":50.08438,"lon":36.38724,"type":"city"},{"id":"ua-691016","label":"Tulchyn","lat":48.67397,"lon":28.86848,"type":"city"},{"id":"ua-690985","label":"Turbiv","lat":49.34078,"lon":28.71831,"type":"city"},{"id":"ua-690963","label":"Turiisk","lat":51.08724,"lon":24.5262,"type":"city"},{"id":"ua-690960","label":"Turka","lat":49.15355,"lon":23.02934,"type":"city"},{"id":"ua-690906","label":"Tyachiv","lat":48.01092,"lon":23.57168,"type":"city"},{"id":"ua-690873","label":"Tysmenytsia","lat":48.9036,"lon":24.84695,"type":"city"},{"id":"ua-690773","label":"Ukrayinka","lat":50.14317,"lon":30.74612,"type":"city"},{"id":"ua-690771","label":"Ukrayinsk","lat":48.09777,"lon":37.36526,"type":"city"},{"id":"ua-690688","label":"Uman","lat":48.7501,"lon":30.21944,"type":"city"},{"id":"ua-690648","label":"Usatove","lat":46.52893,"lon":30.64951,"type":"city"},{"id":"ua-690629","label":"Uspenka","lat":48.39077,"lon":39.16284,"type":"city"},{"id":"ua-690548","label":"Uzhhorod","lat":48.6242,"lon":22.2947,"type":"city"},{"id":"ua-690545","label":"Uzyn","lat":49.82482,"lon":30.42487,"type":"city"},{"id":"ua-690509","label":"Valky","lat":49.83701,"lon":35.61393,"type":"city"},{"id":"ua-690485","label":"Vapnyarka","lat":48.5311,"lon":28.747,"type":"city"},{"id":"ua-8341919","label":"Varash","lat":51.34038,"lon":25.85547,"type":"city"},{"id":"ua-690469","label":"Varva","lat":50.49858,"lon":32.72274,"type":"city"},{"id":"ua-690428","label":"Vashkivtsi","lat":48.38386,"lon":25.51751,"type":"city"},{"id":"ua-686729","label":"Vasylivka","lat":47.44218,"lon":35.28213,"type":"city"},{"id":"ua-690412","label":"Vasylkiv","lat":50.18023,"lon":30.31189,"type":"city"},{"id":"ua-690335","label":"Vasyshcheve","lat":49.83465,"lon":36.33123,"type":"city"},{"id":"ua-690285","label":"Velyka Bahachka","lat":49.79819,"lon":33.72013,"type":"city"},{"id":"ua-690279","label":"Velyka Berezovytsya","lat":49.49869,"lon":25.61231,"type":"city"},{"id":"ua-690281","label":"Velyka Bilozerka","lat":47.27572,"lon":34.68457,"type":"city"},{"id":"ua-690267","label":"Velyka Dobron","lat":48.41979,"lon":22.38857,"type":"city"},{"id":"ua-690266","label":"Velyka Dymerka","lat":50.59107,"lon":30.901,"type":"city"},{"id":"ua-690247","label":"Velyka Lepetykha","lat":47.17138,"lon":33.93147,"type":"city"},{"id":"ua-690038","label":"Velyka Mykhaylivka","lat":47.07847,"lon":29.85253,"type":"city"},{"id":"ua-690237","label":"Velyka Novosilka","lat":47.84281,"lon":36.83627,"type":"city"},{"id":"ua-690288","label":"Velyka Oleksandrivka","lat":47.31888,"lon":33.29059,"type":"city"},{"id":"ua-690230","label":"Velyka Pysarivka","lat":50.42335,"lon":35.48299,"type":"city"},{"id":"ua-711778","label":"Velyka Verhunka","lat":48.60966,"lon":39.38031,"type":"city"},{"id":"ua-690203","label":"Velyka Znamianka","lat":47.44536,"lon":34.35081,"type":"city"},{"id":"ua-690166","label":"Velyki Komiaty","lat":48.23741,"lon":22.97717,"type":"city"},{"id":"ua-690165","label":"Velyki Kopani","lat":46.48935,"lon":32.97207,"type":"city"},{"id":"ua-690158","label":"Velyki Luchky","lat":48.41706,"lon":22.57257,"type":"city"},{"id":"ua-690155","label":"Velyki Mosty","lat":50.24318,"lon":24.14004,"type":"city"},{"id":"ua-690082","label":"Velykodolynske","lat":46.34642,"lon":30.57902,"type":"city"},{"id":"ua-690189","label":"Velykyi Dalnyk","lat":46.47212,"lon":30.56285,"type":"city"},{"id":"ua-690197","label":"Velykyy Bereznyy","lat":48.8934,"lon":22.46121,"type":"city"},{"id":"ua-690040","label":"Velykyy Bychkiv","lat":47.96821,"lon":24.01061,"type":"city"},{"id":"ua-13607660","label":"Verhunskyi","lat":48.58573,"lon":39.37158,"type":"city"},{"id":"ua-689808","label":"Verkhivtseve","lat":48.48127,"lon":34.24003,"type":"city"},{"id":"ua-689868","label":"Verkhniy Rohachyk","lat":47.25208,"lon":34.33557,"type":"city"},{"id":"ua-689916","label":"Verkhnodniprovsk","lat":48.65557,"lon":34.3262,"type":"city"},{"id":"ua-13631570","label":"Verkhnya Telychka","lat":50.40414,"lon":30.57296,"type":"city"},{"id":"ua-689891","label":"Verkhnye Vodyane","lat":48.00384,"lon":23.9599,"type":"city"},{"id":"ua-689817","label":"Verkhovyna","lat":48.15536,"lon":24.82986,"type":"city"},{"id":"ua-13645603","label":"Verstatobud","lat":48.76359,"lon":37.59094,"type":"city"},{"id":"ua-689736","label":"Vesele","lat":47.00973,"lon":34.91843,"type":"city"},{"id":"ua-689717","label":"Veselynove","lat":47.35688,"lon":31.23219,"type":"city"},{"id":"ua-13580113","label":"Vidradnyi","lat":50.43194,"lon":30.42231,"type":"city"},{"id":"ua-689595","label":"Vilino","lat":44.8456,"lon":33.67161,"type":"city"},{"id":"ua-13607661","label":"Vilkhivskyi","lat":48.54327,"lon":39.28201,"type":"city"},{"id":"ua-689190","label":"Vilne","lat":47.63788,"lon":34.81667,"type":"city"},{"id":"ua-689200","label":"Vilnohirsk","lat":48.48416,"lon":34.01708,"type":"city"},{"id":"ua-689584","label":"Vilnyansk","lat":47.94768,"lon":35.44034,"type":"city"},{"id":"ua-698506","label":"Vilshany","lat":50.0544,"lon":35.88233,"type":"city"},{"id":"ua-689567","label":"Vinkivtsi","lat":49.03403,"lon":27.23135,"type":"city"},{"id":"ua-711764","label":"Vinnytski Khutory","lat":49.20689,"lon":28.55482,"type":"city"},{"id":"ua-689558","label":"Vinnytsya","lat":49.2322,"lon":28.46871,"type":"city"},{"id":"ua-803770","label":"Vitka","lat":48.03778,"lon":37.79167,"type":"city"},{"id":"ua-13645608","label":"Vitryani Hory","lat":50.51138,"lon":30.43657,"type":"city"},{"id":"ua-689363","label":"Vlasivka","lat":49.11832,"lon":33.27971,"type":"city"},{"id":"ua-689321","label":"Vodiane","lat":47.48674,"lon":34.50246,"type":"city"},{"id":"ua-689198","label":"Volnovakha","lat":47.6008,"lon":37.49358,"type":"city"},{"id":"ua-689159","label":"Volochysk","lat":49.53606,"lon":26.20681,"type":"city"},{"id":"ua-689157","label":"Volodarka","lat":49.52501,"lon":29.91023,"type":"city"},{"id":"ua-689378","label":"Volodymyr-Volynskyi","lat":50.85033,"lon":24.32119,"type":"city"},{"id":"ua-689428","label":"Volodymyrets","lat":51.41909,"lon":26.14353,"type":"city"},{"id":"ua-689401","label":"Volodymyrivka","lat":47.73391,"lon":37.3882,"type":"city"},{"id":"ua-689106","label":"Volovets","lat":48.7109,"lon":23.1851,"type":"city"},{"id":"ua-689025","label":"Voronizh","lat":51.77572,"lon":33.45944,"type":"city"},{"id":"ua-689003","label":"Voronovytsya","lat":49.10903,"lon":28.68681,"type":"city"},{"id":"ua-688961","label":"Vorozhba","lat":51.17316,"lon":34.22665,"type":"city"},{"id":"ua-688956","label":"Vorzel","lat":50.5444,"lon":30.15305,"type":"city"},{"id":"ua-13580098","label":"Voskresenka","lat":50.48481,"lon":30.6032,"type":"city"},{"id":"ua-689304","label":"Vovchansk","lat":50.29078,"lon":36.94108,"type":"city"},{"id":"ua-710548","label":"Voznesenivka","lat":48.07613,"lon":39.79618,"type":"city"},{"id":"ua-688860","label":"Voznesensk","lat":47.56218,"lon":31.33602,"type":"city"},{"id":"ua-697302","label":"Voznesenskyi","lat":47.93161,"lon":37.62971,"type":"city"},{"id":"ua-688846","label":"Vradiyivka","lat":47.86425,"lon":30.58881,"type":"city"},{"id":"ua-690823","label":"Vuhledar","lat":47.77973,"lon":37.24999,"type":"city"},{"id":"ua-690822","label":"Vuhlehirsk","lat":48.31488,"lon":38.27179,"type":"city"},{"id":"ua-688758","label":"Vyhurivshchyna-Troyeshchyna","lat":50.51137,"lon":30.60251,"type":"city"},{"id":"ua-688750","label":"Vylkove","lat":45.40279,"lon":29.5869,"type":"city"},{"id":"ua-689564","label":"Vynnyky","lat":49.81672,"lon":24.14417,"type":"city"},{"id":"ua-13580103","label":"Vynohradar","lat":50.51429,"lon":30.42452,"type":"city"},{"id":"ua-688746","label":"Vynohradiv","lat":48.14126,"lon":23.03623,"type":"city"},{"id":"ua-688744","label":"Vypasne","lat":46.19092,"lon":30.25615,"type":"city"},{"id":"ua-688723","label":"Vyshhorod","lat":50.58312,"lon":30.48566,"type":"city"},{"id":"ua-13580123","label":"Vyshhorodskyi Masyv","lat":50.50978,"lon":30.45355,"type":"city"},{"id":"ua-688717","label":"Vyshkovo","lat":48.04885,"lon":23.41986,"type":"city"},{"id":"ua-689487","label":"Vyshneve","lat":50.38834,"lon":30.36809,"type":"city"},{"id":"ua-688696","label":"Vysokyi","lat":49.89419,"lon":36.12384,"type":"city"},{"id":"ua-688587","label":"Yahotyn","lat":50.27535,"lon":31.76343,"type":"city"},{"id":"ua-713743","label":"Yakymivka","lat":46.7011,"lon":35.16334,"type":"city"},{"id":"ua-688532","label":"Yalta","lat":46.96098,"lon":37.27446,"type":"city"},{"id":"ua-688533","label":"Yalta","lat":44.50218,"lon":34.16624,"type":"city"},{"id":"ua-693020","label":"Yampil","lat":48.24056,"lon":28.28141,"type":"city"},{"id":"ua-688501","label":"Yampil'","lat":51.94765,"lon":33.78759,"type":"city"},{"id":"ua-704362","label":"Yany Kapu","lat":45.95547,"lon":33.79261,"type":"city"},{"id":"ua-709701","label":"Yaremche","lat":48.44886,"lon":24.55335,"type":"city"},{"id":"ua-688440","label":"Yarmolyntsi","lat":49.19271,"lon":26.83437,"type":"city"},{"id":"ua-688365","label":"Yasinya","lat":48.2726,"lon":24.36029,"type":"city"},{"id":"ua-688345","label":"Yasnohirka","lat":48.77369,"lon":37.55401,"type":"city"},{"id":"ua-688373","label":"Yasynuvata","lat":48.12678,"lon":37.85924,"type":"city"},{"id":"ua-688288","label":"Yavoriv","lat":49.93774,"lon":23.38355,"type":"city"},{"id":"ua-707689","label":"Yavornytske","lat":48.40458,"lon":35.27933,"type":"city"},{"id":"ua-703261","label":"Yedy-Kuyu","lat":45.29857,"lon":35.77708,"type":"city"},{"id":"ua-688154","label":"Yemilchyne","lat":50.87185,"lon":27.80198,"type":"city"},{"id":"ua-688148","label":"Yenakiyeve","lat":48.23857,"lon":38.20403,"type":"city"},{"id":"ua-688105","label":"Yevpatoriya","lat":45.20091,"lon":33.36655,"type":"city"},{"id":"ua-707313","label":"Yizhivtsi","lat":48.02526,"lon":25.64626,"type":"city"},{"id":"ua-13561143","label":"Yuzivskyi","lat":48,"lon":37.80006,"type":"city"},{"id":"ua-709071","label":"Zakharivka","lat":47.33134,"lon":29.754,"type":"city"},{"id":"ua-687826","label":"Zalishchyky","lat":48.64098,"lon":25.7317,"type":"city"},{"id":"ua-687700","label":"Zaporizhzhya","lat":47.85167,"lon":35.11714,"type":"city"},{"id":"ua-13645696","label":"Zaporizhzhya-Live","lat":47.86944,"lon":35.21111,"type":"city"},{"id":"ua-687652","label":"Zarichne","lat":51.81385,"lon":26.13085,"type":"city"},{"id":"ua-707775","label":"Zarichne","lat":48.73251,"lon":35.30929,"type":"city"},{"id":"ua-13607718","label":"Zarichnyi","lat":50.90376,"lon":34.80933,"type":"city"},{"id":"ua-687578","label":"Zastavna","lat":48.52137,"lon":25.8426,"type":"city"},{"id":"ua-710532","label":"Zavodske","lat":50.40065,"lon":33.40118,"type":"city"},{"id":"ua-687455","label":"Zbarazh","lat":49.66157,"lon":25.77925,"type":"city"},{"id":"ua-687449","label":"Zboriv","lat":49.66493,"lon":25.14019,"type":"city"},{"id":"ua-687432","label":"Zdolbuniv","lat":50.52205,"lon":26.24823,"type":"city"},{"id":"ua-687383","label":"Zelenivka","lat":46.71717,"lon":32.65697,"type":"city"},{"id":"ua-687392","label":"Zelenodolsk","lat":47.55498,"lon":33.65905,"type":"city"},{"id":"ua-687245","label":"Zhashkiv","lat":49.2459,"lon":30.09888,"type":"city"},{"id":"ua-687237","label":"Zhdanivka","lat":48.1532,"lon":38.25692,"type":"city"},{"id":"ua-687116","label":"Zhmerynka","lat":49.03523,"lon":28.11405,"type":"city"},{"id":"ua-687093","label":"Zhovkva","lat":50.05751,"lon":23.97346,"type":"city"},{"id":"ua-687196","label":"Zhovti Vody","lat":48.34518,"lon":33.49743,"type":"city"},{"id":"ua-13645598","label":"Zhovtneve","lat":48.72704,"lon":37.5216,"type":"city"},{"id":"ua-13546522","label":"Zhulyany","lat":50.39428,"lon":30.44057,"type":"city"},{"id":"ua-6723020","label":"Zhuravlivka","lat":50.0125,"lon":36.27214,"type":"city"},{"id":"ua-618835","label":"Zhydachiv","lat":49.3832,"lon":24.13918,"type":"city"},{"id":"ua-686967","label":"Zhytomyr","lat":50.26235,"lon":28.67913,"type":"city"},{"id":"ua-687292","label":"Zinkiv","lat":50.20987,"lon":34.35952,"type":"city"},{"id":"ua-697576","label":"Zlatopil","lat":49.37646,"lon":36.21848,"type":"city"},{"id":"ua-686928","label":"Zmiiv","lat":49.69689,"lon":36.36207,"type":"city"},{"id":"ua-686919","label":"Znamyanka","lat":48.72066,"lon":32.65822,"type":"city"},{"id":"ua-686915","label":"Znamyanka Druha","lat":48.71157,"lon":32.59655,"type":"city"},{"id":"ua-686895","label":"Zolochiv","lat":50.27331,"lon":35.97755,"type":"city"},{"id":"ua-686896","label":"Zolochiv","lat":49.8074,"lon":24.90376,"type":"city"},{"id":"ua-686868","label":"Zolote","lat":48.69516,"lon":38.51512,"type":"city"},{"id":"ua-686875","label":"Zolotonosha","lat":49.66926,"lon":32.03637,"type":"city"},{"id":"ua-687602","label":"Zorya","lat":45.99124,"lon":29.69234,"type":"city"},{"id":"ua-686852","label":"Zorynsk","lat":48.41194,"lon":38.62361,"type":"city"},{"id":"ua-686818","label":"Zuhres","lat":48.01428,"lon":38.26599,"type":"city"},{"id":"ua-13631346","label":"Zuhres-2","lat":48.01957,"lon":38.29797,"type":"city"},{"id":"ua-686812","label":"Zuya","lat":45.05418,"lon":34.32152,"type":"city"},{"id":"ua-686803","label":"Zvenyhorodka","lat":49.07765,"lon":30.96074,"type":"city"},{"id":"ua-699553","label":"Zvyahel","lat":50.59141,"lon":27.60884,"type":"city"},{"id":"ua-686961","label":"Zymna Voda","lat":49.82625,"lon":23.88222,"type":"city"},{"id":"ua-686956","label":"Zymohiria","lat":48.58528,"lon":38.9375,"type":"city"}]