[{"id":"ve-3649833","label":"Acarigua","lat":9.55451,"lon":-69.19564,"type":"city"},{"id":"ve-3649810","label":"Achaguas","lat":7.77917,"lon":-68.22373,"type":"city"},{"id":"ve-3649408","label":"Altagracia de Orituco","lat":9.86005,"lon":-66.38139,"type":"city"},{"id":"ve-3487903","label":"Alto Barinas","lat":8.5931,"lon":-70.2261,"type":"city"},{"id":"ve-3486270","label":"Anaco","lat":9.42958,"lon":-64.46428,"type":"city"},{"id":"ve-3649100","label":"Aragua de Barcelona","lat":9.45588,"lon":-64.82928,"type":"city"},{"id":"ve-3649017","label":"Araure","lat":9.58144,"lon":-69.23851,"type":"city"},{"id":"ve-3649005","label":"Araya","lat":10.57998,"lon":-64.25548,"type":"city"},{"id":"ve-3648972","label":"Arenas","lat":10.27931,"lon":-63.93725,"type":"city"},{"id":"ve-3648915","label":"Aricagua","lat":10.23861,"lon":-63.89761,"type":"city"},{"id":"ve-3648873","label":"Aroa","lat":10.43949,"lon":-68.89496,"type":"city"},{"id":"ve-3648685","label":"Bailadores","lat":8.25347,"lon":-71.82818,"type":"city"},{"id":"ve-3648559","label":"Barcelona","lat":10.1384,"lon":-64.68769,"type":"city"},{"id":"ve-3648546","label":"Barinas","lat":8.62064,"lon":-70.23105,"type":"city"},{"id":"ve-3648540","label":"Barinitas","lat":8.76171,"lon":-70.41199,"type":"city"},{"id":"ve-3648522","label":"Barquisimeto","lat":10.0647,"lon":-69.35703,"type":"city"},{"id":"ve-3648506","label":"Barrancas","lat":8.76962,"lon":-70.11086,"type":"city"},{"id":"ve-3648507","label":"Barrancas","lat":8.6989,"lon":-62.19656,"type":"city"},{"id":"ve-3648439","label":"Baruta","lat":10.43424,"lon":-66.87558,"type":"city"},{"id":"ve-3648386","label":"Bejuma","lat":10.17383,"lon":-68.25892,"type":"city"},{"id":"ve-3648279","label":"Biruaca","lat":7.84483,"lon":-67.51679,"type":"city"},{"id":"ve-3648231","label":"Bobures","lat":9.24173,"lon":-71.17506,"type":"city"},{"id":"ve-3648215","label":"Boca de Aroa","lat":10.68229,"lon":-68.29829,"type":"city"},{"id":"ve-3648163","label":"Boca de Uchire","lat":10.13191,"lon":-65.42236,"type":"city"},{"id":"ve-3648132","label":"Bocono","lat":9.25385,"lon":-70.25105,"type":"city"},{"id":"ve-3648127","label":"Boconoito","lat":8.84659,"lon":-69.98032,"type":"city"},{"id":"ve-3648042","label":"Boraure","lat":10.24752,"lon":-68.76966,"type":"city"},{"id":"ve-3647651","label":"Cabimas","lat":10.39907,"lon":-71.45206,"type":"city"},{"id":"ve-3647637","label":"Cabudare","lat":10.02658,"lon":-69.26203,"type":"city"},{"id":"ve-3647549","label":"Cagua","lat":10.18634,"lon":-67.45935,"type":"city"},{"id":"ve-3647535","label":"Caicara","lat":9.81755,"lon":-63.61331,"type":"city"},{"id":"ve-3647537","label":"Caicara del Orinoco","lat":7.63501,"lon":-66.16815,"type":"city"},{"id":"ve-3647462","label":"Caja Seca","lat":9.14151,"lon":-71.06741,"type":"city"},{"id":"ve-3647444","label":"Calabozo","lat":8.92416,"lon":-67.42929,"type":"city"},{"id":"ve-3647400","label":"Camaguan","lat":8.10732,"lon":-67.60738,"type":"city"},{"id":"ve-3646869","label":"Cantaura","lat":9.30571,"lon":-64.35841,"type":"city"},{"id":"ve-3795218","label":"Capacho Nuevo","lat":7.82472,"lon":-72.3084,"type":"city"},{"id":"ve-3646767","label":"Caraballeda","lat":10.61216,"lon":-66.85192,"type":"city"},{"id":"ve-3646738","label":"Caracas","lat":10.48801,"lon":-66.87919,"type":"city"},{"id":"ve-3646581","label":"Cariaco","lat":10.49682,"lon":-63.55286,"type":"city"},{"id":"ve-3646534","label":"Caripito","lat":10.11135,"lon":-63.09985,"type":"city"},{"id":"ve-3646487","label":"Carora","lat":10.17283,"lon":-70.081,"type":"city"},{"id":"ve-3646451","label":"Carrizal","lat":10.34985,"lon":-66.98632,"type":"city"},{"id":"ve-3646382","label":"Carupano","lat":10.66516,"lon":-63.25387,"type":"city"},{"id":"ve-3646316","label":"Casanay","lat":10.5042,"lon":-63.41729,"type":"city"},{"id":"ve-3646296","label":"Casigua El Cubo","lat":8.74602,"lon":-72.51889,"type":"city"},{"id":"ve-3646190","label":"Catia La Mar","lat":10.60545,"lon":-67.03238,"type":"city"},{"id":"ve-3646175","label":"Caucagua","lat":10.2831,"lon":-66.37591,"type":"city"},{"id":"ve-3646169","label":"Caucagueito","lat":10.48666,"lon":-66.73799,"type":"city"},{"id":"ve-3645981","label":"Chacao","lat":10.49581,"lon":-66.85367,"type":"city"},{"id":"ve-3645944","label":"Chaguaramas","lat":9.33754,"lon":-66.25282,"type":"city"},{"id":"ve-3645854","label":"Charallave","lat":10.24247,"lon":-66.85723,"type":"city"},{"id":"ve-3645806","label":"Chichiriviche","lat":10.92872,"lon":-68.27283,"type":"city"},{"id":"ve-3645727","label":"Chiquinquira","lat":10.44333,"lon":-71.64722,"type":"city"},{"id":"ve-3645671","label":"Chivacoa","lat":10.15951,"lon":-68.89453,"type":"city"},{"id":"ve-3645532","label":"Ciudad Bolivar","lat":8.12366,"lon":-63.54694,"type":"city"},{"id":"ve-3645531","label":"Ciudad Bolivia","lat":8.35304,"lon":-70.57121,"type":"city"},{"id":"ve-3645528","label":"Ciudad Guayana","lat":8.35122,"lon":-62.64102,"type":"city"},{"id":"ve-3645527","label":"Ciudad Ojeda","lat":10.20161,"lon":-71.3148,"type":"city"},{"id":"ve-3645525","label":"Ciudad Piar","lat":7.45209,"lon":-63.31992,"type":"city"},{"id":"ve-3645522","label":"Clarines","lat":9.93991,"lon":-65.16517,"type":"city"},{"id":"ve-3645469","label":"Cocorote","lat":10.31954,"lon":-68.78298,"type":"city"},{"id":"ve-3628060","label":"Colon","lat":8.03125,"lon":-72.26053,"type":"city"},{"id":"ve-3645360","label":"Coloncito","lat":8.32611,"lon":-72.08742,"type":"city"},{"id":"ve-3638374","label":"Concepcion","lat":10.4119,"lon":-71.68919,"type":"city"},{"id":"ve-3645213","label":"Coro","lat":11.40769,"lon":-69.67822,"type":"city"},{"id":"ve-3644918","label":"Cua","lat":10.16245,"lon":-66.88248,"type":"city"},{"id":"ve-3644768","label":"Cumana","lat":10.4639,"lon":-64.17859,"type":"city"},{"id":"ve-3644767","label":"Cumanacoa","lat":10.25056,"lon":-63.91938,"type":"city"},{"id":"ve-3644571","label":"Dabajuro","lat":11.02273,"lon":-70.67769,"type":"city"},{"id":"ve-3644440","label":"Duaca","lat":10.28554,"lon":-69.16244,"type":"city"},{"id":"ve-3644417","label":"Ejido","lat":8.54665,"lon":-71.24087,"type":"city"},{"id":"ve-3644163","label":"El Baul","lat":8.96225,"lon":-68.29511,"type":"city"},{"id":"ve-3803449","label":"El Cafetal","lat":10.46541,"lon":-66.82951,"type":"city"},{"id":"ve-3643361","label":"El Dividive","lat":9.4751,"lon":-70.73493,"type":"city"},{"id":"ve-3643353","label":"El Dorado","lat":6.71581,"lon":-61.63738,"type":"city"},{"id":"ve-3643031","label":"El Hatillo","lat":10.42411,"lon":-66.82581,"type":"city"},{"id":"ve-3642833","label":"El Limon","lat":10.30589,"lon":-67.63212,"type":"city"},{"id":"ve-3642260","label":"El Pao","lat":9.63926,"lon":-68.12917,"type":"city"},{"id":"ve-3641440","label":"El Sombrero","lat":9.3863,"lon":-67.05818,"type":"city"},{"id":"ve-3641351","label":"El Tigre","lat":8.88902,"lon":-64.2527,"type":"city"},{"id":"ve-3641275","label":"El Tocuyo","lat":9.78709,"lon":-69.79294,"type":"city"},{"id":"ve-3641099","label":"El Vigia","lat":8.6135,"lon":-71.65702,"type":"city"},{"id":"ve-3642390","label":"Elorza","lat":7.06088,"lon":-69.49765,"type":"city"},{"id":"ve-3641008","label":"Encontrados","lat":9.05983,"lon":-72.2346,"type":"city"},{"id":"ve-3640956","label":"Escuque","lat":9.29687,"lon":-70.67189,"type":"city"},{"id":"ve-3640465","label":"Guacara","lat":10.22609,"lon":-67.877,"type":"city"},{"id":"ve-3640324","label":"Guama","lat":10.26638,"lon":-68.81986,"type":"city"},{"id":"ve-3640226","label":"Guanare","lat":9.03934,"lon":-69.73364,"type":"city"},{"id":"ve-3640215","label":"Guanarito","lat":8.69625,"lon":-69.20832,"type":"city"},{"id":"ve-3640049","label":"Guarenas","lat":10.47027,"lon":-66.61934,"type":"city"},{"id":"ve-3804949","label":"Guasdualito","lat":7.24241,"lon":-70.73235,"type":"city"},{"id":"ve-3639922","label":"Guasipati","lat":7.47702,"lon":-61.89666,"type":"city"},{"id":"ve-3639898","label":"Guatire","lat":10.474,"lon":-66.54241,"type":"city"},{"id":"ve-3639747","label":"Gueiguee","lat":10.08344,"lon":-67.77799,"type":"city"},{"id":"ve-3639725","label":"Gueiria","lat":10.57721,"lon":-62.29841,"type":"city"},{"id":"ve-3639526","label":"Higuerote","lat":10.48287,"lon":-66.10096,"type":"city"},{"id":"ve-3639107","label":"Juan Griego","lat":11.08172,"lon":-63.96549,"type":"city"},{"id":"ve-3639086","label":"Judibana","lat":11.75908,"lon":-70.18418,"type":"city"},{"id":"ve-3785489","label":"La Aguada","lat":11.27667,"lon":-67.46444,"type":"city"},{"id":"ve-3480908","label":"La Asuncion","lat":11.03333,"lon":-63.86278,"type":"city"},{"id":"ve-3638904","label":"La Azulita","lat":8.71364,"lon":-71.44421,"type":"city"},{"id":"ve-3638371","label":"La Concepcion","lat":10.61919,"lon":-71.83814,"type":"city"},{"id":"ve-3803651","label":"La Dolorita","lat":10.4883,"lon":-66.78608,"type":"city"},{"id":"ve-3795152","label":"La Fria","lat":8.21523,"lon":-72.24888,"type":"city"},{"id":"ve-3795170","label":"La Grita","lat":8.13316,"lon":-71.9839,"type":"city"},{"id":"ve-3637721","label":"La Guaira","lat":10.60156,"lon":-66.93293,"type":"city"},{"id":"ve-3480899","label":"La Guardia","lat":10.99742,"lon":-64.0181,"type":"city"},{"id":"ve-3636861","label":"La Paragua","lat":6.83333,"lon":-63.33333,"type":"city"},{"id":"ve-3634965","label":"La Vela de Coro","lat":11.46077,"lon":-69.5657,"type":"city"},{"id":"ve-3634922","label":"La Victoria","lat":10.22677,"lon":-67.33122,"type":"city"},{"id":"ve-3628966","label":"La Villa del Rosario","lat":10.3258,"lon":-72.31343,"type":"city"},{"id":"ve-3637623","label":"Lagunillas","lat":10.13008,"lon":-71.25946,"type":"city"},{"id":"ve-3637624","label":"Lagunillas","lat":8.50457,"lon":-71.3894,"type":"city"},{"id":"ve-3637012","label":"Lander","lat":10.18333,"lon":-66.7,"type":"city"},{"id":"ve-3635325","label":"Las Tejerias","lat":10.25416,"lon":-67.17333,"type":"city"},{"id":"ve-3635260","label":"Las Vegas","lat":9.53724,"lon":-68.63022,"type":"city"},{"id":"ve-3642497","label":"Lecherias","lat":10.19167,"lon":-64.69207,"type":"city"},{"id":"ve-3634761","label":"Libertad","lat":8.32709,"lon":-69.63093,"type":"city"},{"id":"ve-3634696","label":"Lobatera","lat":7.93005,"lon":-72.24679,"type":"city"},{"id":"ve-3634184","label":"Los Dos Caminos","lat":10.49389,"lon":-66.82863,"type":"city"},{"id":"ve-3649417","label":"Los Puertos de Altagracia","lat":10.71492,"lon":-71.52168,"type":"city"},{"id":"ve-3633677","label":"Los Rastrojos","lat":10.02588,"lon":-69.24166,"type":"city"},{"id":"ve-3633622","label":"Los Teques","lat":10.34954,"lon":-67.04266,"type":"city"},{"id":"ve-3633444","label":"Machiques","lat":10.06077,"lon":-72.55212,"type":"city"},{"id":"ve-3633341","label":"Maiquetia","lat":10.5945,"lon":-66.95624,"type":"city"},{"id":"ve-3633248","label":"Mamporal","lat":10.36556,"lon":-66.13391,"type":"city"},{"id":"ve-3633009","label":"Maracaibo","lat":10.64232,"lon":-71.61089,"type":"city"},{"id":"ve-3632998","label":"Maracay","lat":10.24972,"lon":-67.59475,"type":"city"},{"id":"ve-3632929","label":"Mariara","lat":10.29532,"lon":-67.7177,"type":"city"},{"id":"ve-3778045","label":"Maturin","lat":9.74569,"lon":-63.18323,"type":"city"},{"id":"ve-3632401","label":"Mene de Mauroa","lat":10.68091,"lon":-71.03609,"type":"city"},{"id":"ve-3632399","label":"Mene Grande","lat":9.84639,"lon":-70.92655,"type":"city"},{"id":"ve-3632308","label":"Merida","lat":8.57899,"lon":-71.16922,"type":"city"},{"id":"ve-3632260","label":"Michelena","lat":7.95642,"lon":-72.24235,"type":"city"},{"id":"ve-3632198","label":"Miranda","lat":10.15077,"lon":-68.39325,"type":"city"},{"id":"ve-3632072","label":"Montalban","lat":10.21313,"lon":-68.32669,"type":"city"},{"id":"ve-3631878","label":"Moron","lat":10.48715,"lon":-68.20078,"type":"city"},{"id":"ve-3631791","label":"Motatan","lat":9.39182,"lon":-70.59061,"type":"city"},{"id":"ve-3631752","label":"Mucuchies","lat":8.74921,"lon":-70.91978,"type":"city"},{"id":"ve-3631507","label":"Nirgua","lat":10.15039,"lon":-68.56478,"type":"city"},{"id":"ve-3631465","label":"Nueva Bolivia","lat":9.14007,"lon":-71.09143,"type":"city"},{"id":"ve-3631431","label":"Obispos","lat":8.60701,"lon":-70.10489,"type":"city"},{"id":"ve-3631412","label":"Ocumare del Tuy","lat":10.1182,"lon":-66.77513,"type":"city"},{"id":"ve-3631208","label":"Ospino","lat":9.29572,"lon":-69.45434,"type":"city"},{"id":"ve-3630982","label":"Palmira","lat":7.8375,"lon":-72.22794,"type":"city"},{"id":"ve-3630932","label":"Palo Negro","lat":10.17389,"lon":-67.54194,"type":"city"},{"id":"ve-3630896","label":"Pampan","lat":9.44519,"lon":-70.47556,"type":"city"},{"id":"ve-3630894","label":"Pampanito","lat":9.41037,"lon":-70.50116,"type":"city"},{"id":"ve-3630893","label":"Pampatar","lat":11.00085,"lon":-63.79298,"type":"city"},{"id":"ve-3630687","label":"Pariaguan","lat":8.84357,"lon":-64.71053,"type":"city"},{"id":"ve-3630297","label":"Petare","lat":10.47679,"lon":-66.80786,"type":"city"},{"id":"ve-3630089","label":"Piritu","lat":9.37083,"lon":-69.21028,"type":"city"},{"id":"ve-3629965","label":"Porlamar","lat":10.95771,"lon":-63.86971,"type":"city"},{"id":"ve-3629768","label":"Pueblo Nuevo","lat":11.94788,"lon":-69.92306,"type":"city"},{"id":"ve-3629790","label":"Pueblo Nuevo El Chivo","lat":8.96249,"lon":-71.60754,"type":"city"},{"id":"ve-3629710","label":"Puerto Ayacucho","lat":5.66049,"lon":-67.58343,"type":"city"},{"id":"ve-3629706","label":"Puerto Cabello","lat":10.47306,"lon":-68.0125,"type":"city"},{"id":"ve-3629696","label":"Puerto Cumarebo","lat":11.48614,"lon":-69.35319,"type":"city"},{"id":"ve-3629672","label":"Puerto La Cruz","lat":10.21382,"lon":-64.6328,"type":"city"},{"id":"ve-3629653","label":"Puerto Piritu","lat":10.05896,"lon":-65.03698,"type":"city"},{"id":"ve-3629614","label":"Punta Cardon","lat":11.65806,"lon":-70.215,"type":"city"},{"id":"ve-3629606","label":"Punta de Mata","lat":9.69131,"lon":-63.60921,"type":"city"},{"id":"ve-3629601","label":"Punta de Piedras","lat":10.90123,"lon":-64.0969,"type":"city"},{"id":"ve-3629593","label":"Punta Gorda","lat":10.33407,"lon":-71.41352,"type":"city"},{"id":"ve-3629576","label":"Punto Fijo","lat":11.69152,"lon":-70.19918,"type":"city"},{"id":"ve-3629419","label":"Quibor","lat":9.92866,"lon":-69.6201,"type":"city"},{"id":"ve-3629102","label":"Rio Chico","lat":10.31899,"lon":-65.97751,"type":"city"},{"id":"ve-3628952","label":"Rubio","lat":7.70156,"lon":-72.35551,"type":"city"},{"id":"ve-3628921","label":"Sabana de Mendoza","lat":9.43494,"lon":-70.77495,"type":"city"},{"id":"ve-3628918","label":"Sabana de Parra","lat":10.12111,"lon":-69.03639,"type":"city"},{"id":"ve-3628853","label":"Sabaneta","lat":8.75234,"lon":-69.93351,"type":"city"},{"id":"ve-3628619","label":"San Antonio","lat":10.11914,"lon":-63.72535,"type":"city"},{"id":"ve-3628550","label":"San Antonio de Los Altos","lat":10.38853,"lon":-66.95179,"type":"city"},{"id":"ve-3628549","label":"San Antonio del Tachira","lat":7.8112,"lon":-72.44437,"type":"city"},{"id":"ve-3628503","label":"San Carlos","lat":9.66415,"lon":-68.58659,"type":"city"},{"id":"ve-3628489","label":"San Carlos del Zulia","lat":9.00098,"lon":-71.92683,"type":"city"},{"id":"ve-3628473","label":"San Cristobal","lat":7.76593,"lon":-72.23576,"type":"city"},{"id":"ve-3628423","label":"San Felipe","lat":10.3401,"lon":-68.74297,"type":"city"},{"id":"ve-3805673","label":"San Fernando de Apure","lat":7.88963,"lon":-67.47181,"type":"city"},{"id":"ve-3628394","label":"San Fernando de Atabapo","lat":4.04564,"lon":-67.69934,"type":"city"},{"id":"ve-3628267","label":"San Joaquin","lat":10.26061,"lon":-67.79348,"type":"city"},{"id":"ve-3628129","label":"San Jose de Barlovento","lat":10.30125,"lon":-65.99053,"type":"city"},{"id":"ve-3628142","label":"San Jose de Guanipa","lat":8.88724,"lon":-64.16512,"type":"city"},{"id":"ve-3758764","label":"San Josecito","lat":7.66106,"lon":-72.22009,"type":"city"},{"id":"ve-3628066","label":"San Juan Bautista","lat":11.01243,"lon":-63.94412,"type":"city"},{"id":"ve-3628053","label":"San Juan de los Morros","lat":9.91246,"lon":-67.35398,"type":"city"},{"id":"ve-3628025","label":"San Lorenzo","lat":10.22301,"lon":-63.92452,"type":"city"},{"id":"ve-3627968","label":"San Mateo","lat":10.21302,"lon":-67.42365,"type":"city"},{"id":"ve-3627969","label":"San Mateo","lat":9.74004,"lon":-64.54937,"type":"city"},{"id":"ve-3627798","label":"San Pedro de Coche","lat":10.78153,"lon":-63.99636,"type":"city"},{"id":"ve-3627713","label":"San Rafael","lat":10.96205,"lon":-71.73034,"type":"city"},{"id":"ve-3627680","label":"San Rafael de Onoto","lat":9.67813,"lon":-68.97278,"type":"city"},{"id":"ve-3627034","label":"San Timoteo","lat":9.7901,"lon":-71.07084,"type":"city"},{"id":"ve-3628545","label":"Sanare","lat":9.75209,"lon":-69.6524,"type":"city"},{"id":"ve-3627593","label":"Santa Ana","lat":11.06831,"lon":-63.92256,"type":"city"},{"id":"ve-3627614","label":"Santa Ana","lat":7.6429,"lon":-72.27636,"type":"city"},{"id":"ve-3627561","label":"Santa Barbara","lat":7.81348,"lon":-71.17788,"type":"city"},{"id":"ve-7909705","label":"Santa Cruz de los Taques","lat":11.8235,"lon":-70.25637,"type":"city"},{"id":"ve-3627420","label":"Santa Cruz de Mara","lat":10.79269,"lon":-71.68505,"type":"city"},{"id":"ve-3627418","label":"Santa Cruz de Mora","lat":8.39925,"lon":-71.64082,"type":"city"},{"id":"ve-3627382","label":"Santa Elena de Uairen","lat":4.60226,"lon":-61.11025,"type":"city"},{"id":"ve-3627186","label":"Santa Rita","lat":10.53642,"lon":-71.51104,"type":"city"},{"id":"ve-3627047","label":"Santa Teresa del Tuy","lat":10.23291,"lon":-66.66474,"type":"city"},{"id":"ve-3626764","label":"Socopo","lat":8.23062,"lon":-70.82198,"type":"city"},{"id":"ve-3626741","label":"Soledad","lat":8.16206,"lon":-63.5654,"type":"city"},{"id":"ve-3626595","label":"Tabay","lat":8.6317,"lon":-71.07833,"type":"city"},{"id":"ve-3646062","label":"Tacarigua","lat":10.08621,"lon":-67.91982,"type":"city"},{"id":"ve-3626402","label":"Tariba","lat":7.82117,"lon":-72.22329,"type":"city"},{"id":"ve-3626352","label":"Temblador","lat":9.00525,"lon":-62.64493,"type":"city"},{"id":"ve-3626302","label":"Tia Juana","lat":10.25927,"lon":-71.36343,"type":"city"},{"id":"ve-3626237","label":"Timotes","lat":8.98224,"lon":-70.73926,"type":"city"},{"id":"ve-3626235","label":"Tinaco","lat":9.69894,"lon":-68.43273,"type":"city"},{"id":"ve-3626219","label":"Tinaquillo","lat":9.91861,"lon":-68.30472,"type":"city"},{"id":"ve-3626150","label":"Tocuyo de La Costa","lat":11.0357,"lon":-68.37448,"type":"city"},{"id":"ve-3626047","label":"Tovar","lat":8.33015,"lon":-71.75277,"type":"city"},{"id":"ve-3625979","label":"Trujillo","lat":9.36587,"lon":-70.43659,"type":"city"},{"id":"ve-3625965","label":"Tucacas","lat":10.79006,"lon":-68.32564,"type":"city"},{"id":"ve-3625963","label":"Tucani","lat":8.97003,"lon":-71.27277,"type":"city"},{"id":"ve-3625944","label":"Tucupido","lat":9.27304,"lon":-65.77153,"type":"city"},{"id":"ve-3625929","label":"Tucupita","lat":9.06263,"lon":-62.05208,"type":"city"},{"id":"ve-3625892","label":"Tumeremo","lat":7.29861,"lon":-61.50497,"type":"city"},{"id":"ve-3625829","label":"Turmero","lat":10.22856,"lon":-67.47421,"type":"city"},{"id":"ve-3625710","label":"Upata","lat":8.0162,"lon":-62.40561,"type":"city"},{"id":"ve-3625696","label":"Urachiche","lat":10.15847,"lon":-69.00782,"type":"city"},{"id":"ve-3625655","label":"Urena","lat":7.92162,"lon":-72.44396,"type":"city"},{"id":"ve-3625549","label":"Valencia","lat":10.16153,"lon":-68.00044,"type":"city"},{"id":"ve-3625542","label":"Valera","lat":9.31778,"lon":-70.60361,"type":"city"},{"id":"ve-3625519","label":"Valle de Guanape","lat":9.90999,"lon":-65.67405,"type":"city"},{"id":"ve-3625515","label":"Valle de La Pascua","lat":9.21554,"lon":-66.00734,"type":"city"},{"id":"ve-3625346","label":"Villa Bruzual","lat":9.33186,"lon":-69.11968,"type":"city"},{"id":"ve-3625341","label":"Villa de Cura","lat":10.03863,"lon":-67.48938,"type":"city"},{"id":"ve-3625239","label":"Yaguaraparo","lat":10.56839,"lon":-62.82628,"type":"city"},{"id":"ve-3625207","label":"Yaritagua","lat":10.08081,"lon":-69.1242,"type":"city"},{"id":"ve-3625155","label":"Yumare","lat":10.59703,"lon":-68.67328,"type":"city"},{"id":"ve-3625066","label":"Zaraza","lat":9.35029,"lon":-65.32452,"type":"city"},{"id":"ve-3625051","label":"Zea","lat":8.37706,"lon":-71.78398,"type":"city"}]