[{"id":"xk-791580","label":"Decan","lat":42.54018,"lon":20.28793,"type":"city"},{"id":"xk-791122","label":"Dragash","lat":42.0265,"lon":20.65333,"type":"city"},{"id":"xk-784759","label":"Ferizaj","lat":42.37056,"lon":21.15528,"type":"city"},{"id":"xk-791646","label":"Gjakove","lat":42.38028,"lon":20.43083,"type":"city"},{"id":"xk-790674","label":"Gjilan","lat":42.46045,"lon":21.46986,"type":"city"},{"id":"xk-790701","label":"Glogovac","lat":42.62833,"lon":20.89389,"type":"city"},{"id":"xk-791539","label":"Hani i Elezit","lat":42.15,"lon":21.29667,"type":"city"},{"id":"xk-790002","label":"Isniq","lat":42.5575,"lon":20.30278,"type":"city"},{"id":"xk-789996","label":"Istok","lat":42.78083,"lon":20.4875,"type":"city"},{"id":"xk-789721","label":"Kacanik","lat":42.23194,"lon":21.25944,"type":"city"},{"id":"xk-789227","label":"Kamenica","lat":42.57806,"lon":21.58028,"type":"city"},{"id":"xk-789455","label":"Klina","lat":42.62167,"lon":20.57778,"type":"city"},{"id":"xk-789228","label":"Kosovo Polje","lat":42.66394,"lon":21.09611,"type":"city"},{"id":"xk-788731","label":"Leposaviq","lat":43.10389,"lon":20.80278,"type":"city"},{"id":"xk-788652","label":"Lipljan","lat":42.52167,"lon":21.12583,"type":"city"},{"id":"xk-788470","label":"Llazice","lat":42.55528,"lon":20.76333,"type":"city"},{"id":"xk-788187","label":"Mamusa","lat":42.33083,"lon":20.72694,"type":"city"},{"id":"xk-789225","label":"Mitrovice","lat":42.88333,"lon":20.86667,"type":"city"},{"id":"xk-787589","label":"Novo Brdo","lat":42.6159,"lon":21.43405,"type":"city"},{"id":"xk-787534","label":"Obiliq","lat":42.68694,"lon":21.07028,"type":"city"},{"id":"xk-787456","label":"Orahovac","lat":42.39944,"lon":20.65472,"type":"city"},{"id":"xk-787157","label":"Peje","lat":42.65913,"lon":20.28828,"type":"city"},{"id":"xk-786950","label":"Podujeva","lat":42.91056,"lon":21.19306,"type":"city"},{"id":"xk-786714","label":"Pristina","lat":42.67272,"lon":21.16688,"type":"city"},{"id":"xk-786712","label":"Prizren","lat":42.21389,"lon":20.73972,"type":"city"},{"id":"xk-785485","label":"Shtime","lat":42.43306,"lon":21.03972,"type":"city"},{"id":"xk-785642","label":"Srbica","lat":42.74667,"lon":20.78861,"type":"city"},{"id":"xk-790354","label":"Strellc i Eperm","lat":42.57843,"lon":20.29398,"type":"city"},{"id":"xk-785388","label":"Strpce","lat":42.23944,"lon":21.02722,"type":"city"},{"id":"xk-785238","label":"Suva Reka","lat":42.35861,"lon":20.825,"type":"city"},{"id":"xk-784372","label":"Vitina","lat":42.32139,"lon":21.35833,"type":"city"},{"id":"xk-784097","label":"Vushtrri","lat":42.82306,"lon":20.9675,"type":"city"},{"id":"xk-791207","label":"Zhabari i Ulte","lat":42.87139,"lon":20.84111,"type":"city"},{"id":"xk-783802","label":"Zubin Potok","lat":42.91444,"lon":20.68972,"type":"city"},{"id":"xk-783770","label":"Zvecan","lat":42.9075,"lon":20.84028,"type":"city"}]