[{"id":"zm-921028","label":"Chadiza","lat":-14.06779,"lon":32.43917,"type":"city"},{"id":"zm-13132720","label":"Chalimbana","lat":-15.38546,"lon":28.70085,"type":"city"},{"id":"zm-920901","label":"Chama","lat":-11.21303,"lon":33.1521,"type":"city"},{"id":"zm-920820","label":"Chambishi","lat":-12.63247,"lon":28.05367,"type":"city"},{"id":"zm-920470","label":"Chavuma","lat":-13.06667,"lon":22.68333,"type":"city"},{"id":"zm-177748","label":"Chiengi","lat":-8.66043,"lon":29.16142,"type":"city"},{"id":"zm-7932530","label":"Chilanga Township","lat":-15.57079,"lon":28.2701,"type":"city"},{"id":"zm-919544","label":"Chililabombwe","lat":-12.36475,"lon":27.82286,"type":"city"},{"id":"zm-13132721","label":"Chilongolo","lat":-15.49236,"lon":28.16456,"type":"city"},{"id":"zm-13132722","label":"Chilubi","lat":-11.11459,"lon":29.94634,"type":"city"},{"id":"zm-919009","label":"Chingola","lat":-12.52897,"lon":27.88382,"type":"city"},{"id":"zm-13132723","label":"Chinkuli","lat":-15.29973,"lon":28.41596,"type":"city"},{"id":"zm-918905","label":"Chinsali","lat":-10.54142,"lon":32.08162,"type":"city"},{"id":"zm-918702","label":"Chipata","lat":-13.63333,"lon":32.65,"type":"city"},{"id":"zm-918488","label":"Chirundu","lat":-16.03577,"lon":28.84311,"type":"city"},{"id":"zm-13132724","label":"Chisankane","lat":-15.48211,"lon":28.35099,"type":"city"},{"id":"zm-918398","label":"Chisasa","lat":-12.10932,"lon":25.49613,"type":"city"},{"id":"zm-917748","label":"Choma","lat":-16.80889,"lon":26.9875,"type":"city"},{"id":"zm-917688","label":"Chongwe","lat":-15.32916,"lon":28.68204,"type":"city"},{"id":"zm-13132725","label":"Chunga","lat":-15.31737,"lon":28.26868,"type":"city"},{"id":"zm-916938","label":"Ibenga","lat":-13.36667,"lon":28.43333,"type":"city"},{"id":"zm-916668","label":"Isoka","lat":-10.16062,"lon":32.63353,"type":"city"},{"id":"zm-6695527","label":"Itezhi-Tezhi","lat":-15.73691,"lon":26.04155,"type":"city"},{"id":"zm-916246","label":"Kabompo","lat":-13.59268,"lon":24.20081,"type":"city"},{"id":"zm-916095","label":"Kabwe","lat":-14.4469,"lon":28.44644,"type":"city"},{"id":"zm-915883","label":"Kafue","lat":-15.76911,"lon":28.18136,"type":"city"},{"id":"zm-915471","label":"Kalabo","lat":-14.99307,"lon":22.67926,"type":"city"},{"id":"zm-915285","label":"Kalengwa","lat":-13.46586,"lon":25.00271,"type":"city"},{"id":"zm-915086","label":"Kalomo","lat":-17.02581,"lon":26.48369,"type":"city"},{"id":"zm-914959","label":"Kalulushi","lat":-12.84151,"lon":28.09479,"type":"city"},{"id":"zm-913613","label":"Kansanshi","lat":-12.09514,"lon":26.42727,"type":"city"},{"id":"zm-913323","label":"Kaoma","lat":-14.78333,"lon":24.8,"type":"city"},{"id":"zm-913029","label":"Kapiri Mposhi","lat":-13.97147,"lon":28.66985,"type":"city"},{"id":"zm-176758","label":"Kaputa","lat":-8.46887,"lon":29.66193,"type":"city"},{"id":"zm-912764","label":"Kasama","lat":-10.21289,"lon":31.18084,"type":"city"},{"id":"zm-912628","label":"Kasempa","lat":-13.45836,"lon":25.8338,"type":"city"},{"id":"zm-912226","label":"Kataba","lat":-11.88333,"lon":29.78333,"type":"city"},{"id":"zm-912072","label":"Katete","lat":-14.05,"lon":32.08333,"type":"city"},{"id":"zm-176555","label":"Kawambwa","lat":-9.7915,"lon":29.07913,"type":"city"},{"id":"zm-911300","label":"Kazungula","lat":-17.79356,"lon":25.27473,"type":"city"},{"id":"zm-911148","label":"Kitwe","lat":-12.80243,"lon":28.21323,"type":"city"},{"id":"zm-910361","label":"Limulunga","lat":-15.09691,"lon":23.13757,"type":"city"},{"id":"zm-910111","label":"Livingstone","lat":-17.84194,"lon":25.85425,"type":"city"},{"id":"zm-909887","label":"Luangwa","lat":-15.61667,"lon":30.41667,"type":"city"},{"id":"zm-909863","label":"Luanshya","lat":-13.13667,"lon":28.41661,"type":"city"},{"id":"zm-909752","label":"Lubombo","lat":-15.86698,"lon":27.87632,"type":"city"},{"id":"zm-909722","label":"Lubwe","lat":-11.11654,"lon":29.64619,"type":"city"},{"id":"zm-909488","label":"Lukulu","lat":-14.37067,"lon":23.24196,"type":"city"},{"id":"zm-909299","label":"Lundazi","lat":-12.29292,"lon":33.1782,"type":"city"},{"id":"zm-909137","label":"Lusaka","lat":-15.40669,"lon":28.28713,"type":"city"},{"id":"zm-13132726","label":"Lusaka West","lat":-15.31864,"lon":28.11026,"type":"city"},{"id":"zm-908913","label":"Luwingu","lat":-10.2621,"lon":29.92712,"type":"city"},{"id":"zm-908718","label":"Maamba","lat":-17.36667,"lon":27.15,"type":"city"},{"id":"zm-13132727","label":"Madido","lat":-15.35454,"lon":28.37416,"type":"city"},{"id":"zm-907770","label":"Mansa","lat":-11.19976,"lon":28.89431,"type":"city"},{"id":"zm-13132728","label":"Manyama","lat":-12.31477,"lon":25.84862,"type":"city"},{"id":"zm-907705","label":"Manyinga","lat":-13.41646,"lon":24.33532,"type":"city"},{"id":"zm-13132729","label":"Mapalo","lat":-12.93688,"lon":28.67206,"type":"city"},{"id":"zm-907111","label":"Mazabuka","lat":-15.85601,"lon":27.748,"type":"city"},{"id":"zm-176146","label":"Mbala","lat":-8.84024,"lon":31.36587,"type":"city"},{"id":"zm-906221","label":"Mkushi","lat":-13.62015,"lon":29.3939,"type":"city"},{"id":"zm-906054","label":"Mongu","lat":-15.24835,"lon":23.12741,"type":"city"},{"id":"zm-906043","label":"Monze","lat":-16.27149,"lon":27.47724,"type":"city"},{"id":"zm-905846","label":"Mpika","lat":-11.83431,"lon":31.45287,"type":"city"},{"id":"zm-905789","label":"Mpongwe","lat":-13.50914,"lon":28.15504,"type":"city"},{"id":"zm-175967","label":"Mporokoso","lat":-9.37273,"lon":30.12501,"type":"city"},{"id":"zm-175961","label":"Mpulungu","lat":-8.76234,"lon":31.11405,"type":"city"},{"id":"zm-905395","label":"Mufulira","lat":-12.54982,"lon":28.24071,"type":"city"},{"id":"zm-905382","label":"Mufumbwe","lat":-13.68333,"lon":24.8,"type":"city"},{"id":"zm-13132730","label":"Mufumbwe","lat":-13.13701,"lon":25.00653,"type":"city"},{"id":"zm-904422","label":"Mumbwa","lat":-14.98293,"lon":27.0619,"type":"city"},{"id":"zm-904241","label":"Mungwi","lat":-10.1732,"lon":31.36942,"type":"city"},{"id":"zm-175808","label":"Mununga","lat":-9.04865,"lon":29.04265,"type":"city"},{"id":"zm-13132731","label":"Mwansabombwe","lat":-9.82202,"lon":28.76038,"type":"city"},{"id":"zm-902620","label":"Mwinilunga","lat":-11.73584,"lon":24.42926,"type":"city"},{"id":"zm-902344","label":"Nakambala","lat":-15.83244,"lon":27.77994,"type":"city"},{"id":"zm-175555","label":"Nakonde","lat":-9.34213,"lon":32.745,"type":"city"},{"id":"zm-13132732","label":"Namalombwe","lat":-15.39053,"lon":28.18986,"type":"city"},{"id":"zm-8298600","label":"Nampundwe","lat":-15.50819,"lon":27.92441,"type":"city"},{"id":"zm-901766","label":"Namwala","lat":-15.75042,"lon":26.43839,"type":"city"},{"id":"zm-175499","label":"Nchelenge","lat":-9.34506,"lon":28.73396,"type":"city"},{"id":"zm-901344","label":"Ndola","lat":-12.95867,"lon":28.63659,"type":"city"},{"id":"zm-13132733","label":"Ntandabale","lat":-15.38958,"lon":28.42201,"type":"city"},{"id":"zm-900056","label":"Nyimba","lat":-14.55656,"lon":30.8149,"type":"city"},{"id":"zm-13132734","label":"Palabana","lat":-15.44623,"lon":28.53436,"type":"city"},{"id":"zm-899825","label":"Petauke","lat":-14.24117,"lon":31.31975,"type":"city"},{"id":"zm-899274","label":"Samfya","lat":-11.36491,"lon":29.55652,"type":"city"},{"id":"zm-898947","label":"Senanga","lat":-16.11667,"lon":23.26667,"type":"city"},{"id":"zm-898912","label":"Serenje","lat":-13.23251,"lon":30.23522,"type":"city"},{"id":"zm-898905","label":"Sesheke","lat":-17.47593,"lon":24.29684,"type":"city"},{"id":"zm-898188","label":"Siavonga","lat":-16.53818,"lon":28.70876,"type":"city"},{"id":"zm-897456","label":"Sinazongwe","lat":-17.2614,"lon":27.46179,"type":"city"},{"id":"zm-897454","label":"Sinda","lat":-14.21004,"lon":31.7629,"type":"city"},{"id":"zm-897045","label":"Solwezi","lat":-12.1688,"lon":26.38938,"type":"city"},{"id":"zm-895953","label":"Zambezi","lat":-13.54323,"lon":23.10467,"type":"city"}]