[{"id":"ai-3573496","label":"Blowing Point Village","lat":18.17648,"lon":-63.09375,"type":"city"},{"id":"ai-3573473","label":"East End Village","lat":18.23333,"lon":-63,"type":"city"},{"id":"ai-3573378","label":"Farrington","lat":18.215,"lon":-63.02238,"type":"city"},{"id":"ai-3573466","label":"George Hill","lat":18.19939,"lon":-63.0665,"type":"city"},{"id":"ai-3573456","label":"Island Harbour","lat":18.25601,"lon":-63.0102,"type":"city"},{"id":"ai-3573420","label":"North Hill Village","lat":18.20542,"lon":-63.07847,"type":"city"},{"id":"ai-3573418","label":"North Side","lat":18.22919,"lon":-63.04401,"type":"city"},{"id":"ai-3573407","label":"Sandy Ground Village","lat":18.20118,"lon":-63.08998,"type":"city"},{"id":"ai-11205445","label":"Sandy Hill","lat":18.22104,"lon":-63.01329,"type":"city"},{"id":"ai-3573385","label":"South Hill Village","lat":18.19201,"lon":-63.08779,"type":"city"},{"id":"ai-3573380","label":"Stoney Ground","lat":18.22026,"lon":-63.04607,"type":"city"},{"id":"ai-3573375","label":"The Quarter","lat":18.20799,"lon":-63.04178,"type":"city"},{"id":"ai-3573374","label":"The Valley","lat":18.21704,"lon":-63.05783,"type":"city"},{"id":"ai-3573364","label":"West End Village","lat":18.17191,"lon":-63.14941,"type":"city"}]