[{"id":"au-2178377","label":"Abbotsford","lat":-33.84889,"lon":151.12801,"type":"city"},{"id":"au-2178378","label":"Abbotsford","lat":-37.8,"lon":145,"type":"city"},{"id":"au-9973147","label":"Aberfoyle Park","lat":-35.0768,"lon":138.59163,"type":"city"},{"id":"au-2178354","label":"Aberglasslyn","lat":-32.7,"lon":151.53333,"type":"city"},{"id":"au-2178321","label":"Acacia Ridge","lat":-27.58333,"lon":153.03333,"type":"city"},{"id":"au-8348418","label":"Adamstown","lat":-32.93824,"lon":151.72541,"type":"city"},{"id":"au-8347693","label":"Adamstown Heights","lat":-32.94906,"lon":151.71009,"type":"city"},{"id":"au-2078025","label":"Adelaide","lat":-34.92866,"lon":138.59863,"type":"city"},{"id":"au-11523825","label":"Adelaide city centre","lat":-34.92873,"lon":138.60334,"type":"city"},{"id":"au-7302628","label":"Adelaide Hills","lat":-34.91119,"lon":138.70735,"type":"city"},{"id":"au-8348552","label":"Ainslie","lat":-35.26255,"lon":149.1437,"type":"city"},{"id":"au-12217997","label":"Aintree","lat":-37.72253,"lon":144.66765,"type":"city"},{"id":"au-6290236","label":"Airport West","lat":-37.7247,"lon":144.88126,"type":"city"},{"id":"au-8348786","label":"Albanvale","lat":-37.74609,"lon":144.76856,"type":"city"},{"id":"au-2077963","label":"Albany","lat":-35.02692,"lon":117.88369,"type":"city"},{"id":"au-2178208","label":"Albany Creek","lat":-27.35364,"lon":152.96848,"type":"city"},{"id":"au-8348850","label":"Albert Park","lat":-37.84107,"lon":144.95198,"type":"city"},{"id":"au-2178179","label":"Albion Park","lat":-34.57132,"lon":150.77568,"type":"city"},{"id":"au-10108696","label":"Albion Park Rail","lat":-34.56634,"lon":150.79177,"type":"city"},{"id":"au-2178174","label":"Albury","lat":-36.07482,"lon":146.92401,"type":"city"},{"id":"au-8348606","label":"Alderley","lat":-27.42553,"lon":153.00102,"type":"city"},{"id":"au-8539243","label":"Aldinga Beach","lat":-35.27826,"lon":138.45802,"type":"city"},{"id":"au-8348266","label":"Alexander Heights","lat":-31.82758,"lon":115.86501,"type":"city"},{"id":"au-8348615","label":"Alexandra Hills","lat":-27.53221,"lon":153.22889,"type":"city"},{"id":"au-2178136","label":"Alexandria","lat":-33.89989,"lon":151.19951,"type":"city"},{"id":"au-2178126","label":"Alfredton","lat":-37.56667,"lon":143.81667,"type":"city"},{"id":"au-8348977","label":"Algester","lat":-27.61279,"lon":153.03239,"type":"city"},{"id":"au-2077895","label":"Alice Springs","lat":-23.69748,"lon":133.88362,"type":"city"},{"id":"au-9973430","label":"Alkimos","lat":-31.63039,"lon":115.68638,"type":"city"},{"id":"au-9972597","label":"Allambie Heights","lat":-33.76655,"lon":151.24981,"type":"city"},{"id":"au-8348413","label":"Allawah","lat":-33.97257,"lon":151.1144,"type":"city"},{"id":"au-2178005","label":"Alphington","lat":-37.78333,"lon":145.03333,"type":"city"},{"id":"au-2177999","label":"Alstonville","lat":-28.84186,"lon":153.44022,"type":"city"},{"id":"au-2177992","label":"Altona","lat":-37.86964,"lon":144.83036,"type":"city"},{"id":"au-9972579","label":"Altona Meadows","lat":-37.88413,"lon":144.78367,"type":"city"},{"id":"au-8298607","label":"Altona North","lat":-37.83487,"lon":144.84735,"type":"city"},{"id":"au-8349331","label":"Amaroo","lat":-35.16959,"lon":149.12802,"type":"city"},{"id":"au-8348417","label":"Ambarvale","lat":-34.08942,"lon":150.79656,"type":"city"},{"id":"au-2177914","label":"Andergrove","lat":-21.08333,"lon":149.18333,"type":"city"},{"id":"au-8348194","label":"Andrews Farm","lat":-34.67632,"lon":138.66197,"type":"city"},{"id":"au-2177854","label":"Annandale","lat":-33.88333,"lon":151.16667,"type":"city"},{"id":"au-8348341","label":"Annandale","lat":-19.31503,"lon":146.79069,"type":"city"},{"id":"au-8348815","label":"Annerley","lat":-27.51228,"lon":153.03248,"type":"city"},{"id":"au-2077641","label":"Applecross","lat":-32.01667,"lon":115.83333,"type":"city"},{"id":"au-9958149","label":"Arana Hills","lat":-27.39808,"lon":152.95797,"type":"city"},{"id":"au-2177756","label":"Ararat","lat":-37.28542,"lon":142.92728,"type":"city"},{"id":"au-2077579","label":"Armadale","lat":-32.14607,"lon":116.0093,"type":"city"},{"id":"au-2177678","label":"Armadale","lat":-37.85544,"lon":145.02052,"type":"city"},{"id":"au-2177671","label":"Armidale","lat":-30.50123,"lon":151.66553,"type":"city"},{"id":"au-6695559","label":"Arncliffe","lat":-33.93627,"lon":151.14819,"type":"city"},{"id":"au-2177626","label":"Artarmon","lat":-33.81667,"lon":151.18333,"type":"city"},{"id":"au-8348473","label":"Arundel","lat":-27.93768,"lon":153.36302,"type":"city"},{"id":"au-9883890","label":"Ascot","lat":-27.43154,"lon":153.058,"type":"city"},{"id":"au-2177576","label":"Ascot Vale","lat":-37.77988,"lon":144.92276,"type":"city"},{"id":"au-2177571","label":"Ashburton","lat":-37.86667,"lon":145.08333,"type":"city"},{"id":"au-2177565","label":"Ashfield","lat":-33.88834,"lon":151.12274,"type":"city"},{"id":"au-2177560","label":"Ashgrove","lat":-27.44552,"lon":152.992,"type":"city"},{"id":"au-8348495","label":"Ashmore","lat":-27.98883,"lon":153.37647,"type":"city"},{"id":"au-7932611","label":"Ashwood","lat":-37.86659,"lon":145.10553,"type":"city"},{"id":"au-2177547","label":"Aspendale","lat":-38.02913,"lon":145.10266,"type":"city"},{"id":"au-7932653","label":"Aspendale Gardens","lat":-38.02277,"lon":145.11798,"type":"city"},{"id":"au-2177546","label":"Aspley","lat":-27.36667,"lon":153.01667,"type":"city"},{"id":"au-6943474","label":"Athelstone","lat":-34.87019,"lon":138.6999,"type":"city"},{"id":"au-2177541","label":"Atherton","lat":-17.26864,"lon":145.47522,"type":"city"},{"id":"au-2078908","label":"Attadale","lat":-32.02489,"lon":115.802,"type":"city"},{"id":"au-8348275","label":"Atwell","lat":-32.14346,"lon":115.86528,"type":"city"},{"id":"au-8348783","label":"Aubin Grove","lat":-32.16714,"lon":115.86264,"type":"city"},{"id":"au-2177513","label":"Auburn","lat":-33.85,"lon":151.03333,"type":"city"},{"id":"au-6943571","label":"Auchenflower","lat":-27.47443,"lon":152.99213,"type":"city"},{"id":"au-2077454","label":"Australind","lat":-33.2792,"lon":115.71504,"type":"city"},{"id":"au-8348276","label":"Aveley","lat":-31.78132,"lon":115.98959,"type":"city"},{"id":"au-8347981","label":"Avondale Heights","lat":-37.76155,"lon":144.86261,"type":"city"},{"id":"au-2177413","label":"Ayr","lat":-19.57393,"lon":147.40666,"type":"city"},{"id":"au-2177394","label":"Bacchus Marsh","lat":-37.67268,"lon":144.43829,"type":"city"},{"id":"au-2177233","label":"Bairnsdale","lat":-37.82289,"lon":147.61041,"type":"city"},{"id":"au-2177207","label":"Balaclava","lat":-37.86667,"lon":145,"type":"city"},{"id":"au-8299269","label":"Balcatta","lat":-31.87501,"lon":115.82839,"type":"city"},{"id":"au-8556202","label":"Bald Hills","lat":-27.32112,"lon":153.00857,"type":"city"},{"id":"au-8349017","label":"Baldivis","lat":-32.32889,"lon":115.83047,"type":"city"},{"id":"au-8348286","label":"Balga","lat":-31.85497,"lon":115.83986,"type":"city"},{"id":"au-2177114","label":"Balgowlah","lat":-33.79494,"lon":151.2572,"type":"city"},{"id":"au-2177113","label":"Balgownie","lat":-34.39505,"lon":150.88051,"type":"city"},{"id":"au-8348081","label":"Ballajura","lat":-31.84062,"lon":115.89549,"type":"city"},{"id":"au-2177091","label":"Ballarat","lat":-37.56622,"lon":143.84957,"type":"city"},{"id":"au-8014922","label":"Ballarat Central","lat":-37.56206,"lon":143.85082,"type":"city"},{"id":"au-2177090","label":"Ballarat East","lat":-37.56667,"lon":143.86667,"type":"city"},{"id":"au-2177069","label":"Ballina","lat":-28.86414,"lon":153.56541,"type":"city"},{"id":"au-2177052","label":"Balmain","lat":-33.85481,"lon":151.1833,"type":"city"},{"id":"au-2177026","label":"Balwyn","lat":-37.80914,"lon":145.0789,"type":"city"},{"id":"au-7932629","label":"Balwyn North","lat":-37.79086,"lon":145.09386,"type":"city"},{"id":"au-2205982","label":"Bangor","lat":-34.01667,"lon":151.03333,"type":"city"},{"id":"au-8348502","label":"Banksia Beach","lat":-27.04027,"lon":153.1439,"type":"city"},{"id":"au-8348061","label":"Banksia Grove","lat":-31.69615,"lon":115.80501,"type":"city"},{"id":"au-2176947","label":"Bankstown","lat":-33.91667,"lon":151.03333,"type":"city"},{"id":"au-2176938","label":"Bannockburn","lat":-38.04894,"lon":144.16882,"type":"city"},{"id":"au-2176934","label":"Banora Point","lat":-28.21298,"lon":153.53634,"type":"city"},{"id":"au-6943553","label":"Banyo","lat":-27.38236,"lon":153.07903,"type":"city"},{"id":"au-8348537","label":"Bardon","lat":-27.461,"lon":152.9792,"type":"city"},{"id":"au-2176868","label":"Bargara","lat":-24.81476,"lon":152.46257,"type":"city"},{"id":"au-10108731","label":"Barrack Heights","lat":-34.56464,"lon":150.85692,"type":"city"},{"id":"au-2176648","label":"Bass Hill","lat":-33.89863,"lon":150.99541,"type":"city"},{"id":"au-2077030","label":"Bassendean","lat":-31.90906,"lon":115.9437,"type":"city"},{"id":"au-8310668","label":"Bateau Bay","lat":-33.38334,"lon":151.46671,"type":"city"},{"id":"au-2176639","label":"Batemans Bay","lat":-35.70658,"lon":150.17541,"type":"city"},{"id":"au-2176632","label":"Bathurst","lat":-33.41665,"lon":149.5806,"type":"city"},{"id":"au-11523845","label":"Bathurst city centre","lat":-33.41816,"lon":149.57621,"type":"city"},{"id":"au-2176592","label":"Baulkham Hills","lat":-33.75881,"lon":150.99292,"type":"city"},{"id":"au-2176566","label":"Bayswater","lat":-37.85,"lon":145.26667,"type":"city"},{"id":"au-8349270","label":"Bayswater","lat":-31.91686,"lon":115.91776,"type":"city"},{"id":"au-9972470","label":"Bayswater North","lat":-37.82558,"lon":145.28219,"type":"city"},{"id":"au-8348431","label":"Beacon Hill","lat":-33.7528,"lon":151.25857,"type":"city"},{"id":"au-2176542","label":"Beaconsfield","lat":-38.05,"lon":145.36667,"type":"city"},{"id":"au-8349207","label":"Beaconsfield","lat":-21.09121,"lon":149.16544,"type":"city"},{"id":"au-2176495","label":"Beaudesert","lat":-27.98691,"lon":152.99657,"type":"city"},{"id":"au-2176487","label":"Beaumaris","lat":-37.98534,"lon":145.03361,"type":"city"},{"id":"au-8436118","label":"Beaumont Hills","lat":-33.69993,"lon":150.9411,"type":"city"},{"id":"au-8349023","label":"Beckenham","lat":-32.02481,"lon":115.95989,"type":"city"},{"id":"au-9985076","label":"Bedford","lat":-31.91132,"lon":115.8892,"type":"city"},{"id":"au-8348485","label":"Beechboro","lat":-31.86515,"lon":115.93661,"type":"city"},{"id":"au-8629873","label":"Beecroft","lat":-33.74954,"lon":151.0648,"type":"city"},{"id":"au-8347945","label":"Beeliar","lat":-32.13339,"lon":115.80637,"type":"city"},{"id":"au-2176412","label":"Beenleigh","lat":-27.71137,"lon":153.2029,"type":"city"},{"id":"au-2176406","label":"Beerwah","lat":-26.85881,"lon":152.96144,"type":"city"},{"id":"au-2176373","label":"Belconnen","lat":-35.23798,"lon":149.06627,"type":"city"},{"id":"au-9972601","label":"Belfield","lat":-33.90354,"lon":151.08467,"type":"city"},{"id":"au-8348480","label":"Bella Vista","lat":-33.74127,"lon":150.95456,"type":"city"},{"id":"au-8348846","label":"Bellbird Park","lat":-27.63674,"lon":152.88663,"type":"city"},{"id":"au-8348635","label":"Bellbowrie","lat":-27.55939,"lon":152.88278,"type":"city"},{"id":"au-2207748","label":"Bellevue Hill","lat":-33.87899,"lon":151.25101,"type":"city"},{"id":"au-8348847","label":"Bellmere","lat":-27.08441,"lon":152.89003,"type":"city"},{"id":"au-2176262","label":"Belmont","lat":-38.17485,"lon":144.34276,"type":"city"},{"id":"au-2176263","label":"Belmont","lat":-33.0274,"lon":151.6601,"type":"city"},{"id":"au-8299578","label":"Belmont","lat":-31.9435,"lon":115.9255,"type":"city"},{"id":"au-10103878","label":"Belmont North","lat":-33.02081,"lon":151.66849,"type":"city"},{"id":"au-8348436","label":"Belmore","lat":-33.91901,"lon":151.08935,"type":"city"},{"id":"au-2176245","label":"Belrose","lat":-33.73954,"lon":151.21033,"type":"city"},{"id":"au-2176225","label":"Benalla","lat":-36.55113,"lon":145.98425,"type":"city"},{"id":"au-2176187","label":"Bendigo","lat":-36.75818,"lon":144.28024,"type":"city"},{"id":"au-11523846","label":"Bendigo city centre","lat":-36.75698,"lon":144.27957,"type":"city"},{"id":"au-11704298","label":"Bennett Springs","lat":-31.85941,"lon":115.94512,"type":"city"},{"id":"au-2176127","label":"Benowa","lat":-28.0077,"lon":153.38583,"type":"city"},{"id":"au-2176123","label":"Bentleigh","lat":-37.91806,"lon":145.03544,"type":"city"},{"id":"au-2176122","label":"Bentleigh East","lat":-37.91928,"lon":145.05301,"type":"city"},{"id":"au-2076752","label":"Bentley","lat":-32.00224,"lon":115.92473,"type":"city"},{"id":"au-8348714","label":"Bentley Park","lat":-17.00389,"lon":145.73819,"type":"city"},{"id":"au-9972602","label":"Berala","lat":-33.87197,"lon":151.03386,"type":"city"},{"id":"au-2176090","label":"Berkeley","lat":-34.48333,"lon":150.85,"type":"city"},{"id":"au-2176088","label":"Berkeley Vale","lat":-33.35,"lon":151.43333,"type":"city"},{"id":"au-9972604","label":"Berowra Heights","lat":-33.61211,"lon":151.13754,"type":"city"},{"id":"au-8348720","label":"Berserker","lat":-23.35817,"lon":150.52042,"type":"city"},{"id":"au-8349019","label":"Bertram","lat":-32.24369,"lon":115.84572,"type":"city"},{"id":"au-2176031","label":"Berwick","lat":-38.03333,"lon":145.35,"type":"city"},{"id":"au-8348441","label":"Beverly Hills","lat":-33.94799,"lon":151.07979,"type":"city"},{"id":"au-2175974","label":"Bexley","lat":-33.95,"lon":151.11667,"type":"city"},{"id":"au-8349024","label":"Bibra Lake","lat":-32.09764,"lon":115.81921,"type":"city"},{"id":"au-2078907","label":"Bicton","lat":-32.02778,"lon":115.78333,"type":"city"},{"id":"au-6621334","label":"Biggera Waters","lat":-27.93239,"lon":153.40021,"type":"city"},{"id":"au-2175819","label":"Biloela","lat":-24.39589,"lon":150.51504,"type":"city"},{"id":"au-2175696","label":"Birkdale","lat":-27.48333,"lon":153.21667,"type":"city"},{"id":"au-7932652","label":"Black Rock","lat":-37.97357,"lon":145.01636,"type":"city"},{"id":"au-7932624","label":"Blackburn","lat":-37.81901,"lon":145.15326,"type":"city"},{"id":"au-7932632","label":"Blackburn North","lat":-37.80931,"lon":145.1518,"type":"city"},{"id":"au-7932634","label":"Blackburn South","lat":-37.83975,"lon":145.15549,"type":"city"},{"id":"au-2175527","label":"Blackmans Bay","lat":-43.00311,"lon":147.31694,"type":"city"},{"id":"au-2175411","label":"Blacktown","lat":-33.76667,"lon":150.91667,"type":"city"},{"id":"au-2175403","label":"Blackwater","lat":-23.58351,"lon":148.87912,"type":"city"},{"id":"au-2206003","label":"Blakehurst","lat":-33.99152,"lon":151.10876,"type":"city"},{"id":"au-8348445","label":"Blakeview","lat":-34.67566,"lon":138.7101,"type":"city"},{"id":"au-2175341","label":"Blaxland","lat":-33.75,"lon":150.6,"type":"city"},{"id":"au-2175326","label":"Bli Bli","lat":-26.61724,"lon":153.03665,"type":"city"},{"id":"au-8348531","label":"Bligh Park","lat":-33.63985,"lon":150.80248,"type":"city"},{"id":"au-8347723","label":"Blue Haven","lat":-33.21106,"lon":151.50351,"type":"city"},{"id":"au-6615604","label":"Blue Mountains","lat":-33.71331,"lon":150.33065,"type":"city"},{"id":"au-9535162","label":"Boambee East","lat":-30.34662,"lon":153.0732,"type":"city"},{"id":"au-2174976","label":"Bomaderry","lat":-34.84967,"lon":150.61093,"type":"city"},{"id":"au-2207538","label":"Bonbeach","lat":-38.06528,"lon":145.12278,"type":"city"},{"id":"au-2208290","label":"Bondi","lat":-33.89429,"lon":151.26444,"type":"city"},{"id":"au-9972618","label":"Bondi Beach","lat":-33.89079,"lon":151.27852,"type":"city"},{"id":"au-8555644","label":"Bondi Junction","lat":-33.89275,"lon":151.24723,"type":"city"},{"id":"au-2174933","label":"Bongaree","lat":-27.08367,"lon":153.15942,"type":"city"},{"id":"au-9973375","label":"Bonner","lat":-35.16225,"lon":149.13855,"type":"city"},{"id":"au-8348422","label":"Bonnyrigg","lat":-33.89357,"lon":150.88908,"type":"city"},{"id":"au-8347727","label":"Bonnyrigg Heights","lat":-33.89117,"lon":150.86994,"type":"city"},{"id":"au-2174740","label":"Boondall","lat":-27.35317,"lon":153.06092,"type":"city"},{"id":"au-8348406","label":"Booragoon","lat":-32.03945,"lon":115.83369,"type":"city"},{"id":"au-2174580","label":"Boronia","lat":-37.86667,"lon":145.28333,"type":"city"},{"id":"au-8348216","label":"Boronia Heights","lat":-27.68855,"lon":153.01959,"type":"city"},{"id":"au-8347730","label":"Bossley Park","lat":-33.86184,"lon":150.8841,"type":"city"},{"id":"au-8348039","label":"Botanic Ridge","lat":-38.144,"lon":145.268,"type":"city"},{"id":"au-2174563","label":"Botany","lat":-33.94599,"lon":151.19591,"type":"city"},{"id":"au-2174444","label":"Bowen","lat":-20.01367,"lon":148.24754,"type":"city"},{"id":"au-2174400","label":"Bowral","lat":-34.4775,"lon":150.4204,"type":"city"},{"id":"au-2174360","label":"Box Hill","lat":-37.81887,"lon":145.12545,"type":"city"},{"id":"au-7932631","label":"Box Hill North","lat":-37.80266,"lon":145.12656,"type":"city"},{"id":"au-7932623","label":"Box Hill South","lat":-37.83236,"lon":145.12098,"type":"city"},{"id":"au-6943558","label":"Bracken Ridge","lat":-27.3171,"lon":153.03097,"type":"city"},{"id":"au-8349197","label":"Bradbury","lat":-34.0854,"lon":150.81541,"type":"city"},{"id":"au-8349165","label":"Braddon","lat":-35.27078,"lon":149.13569,"type":"city"},{"id":"au-7932659","label":"Brassall","lat":-27.59753,"lon":152.74755,"type":"city"},{"id":"au-8349226","label":"Bray Park","lat":-27.29246,"lon":152.96783,"type":"city"},{"id":"au-8349364","label":"Braybrook","lat":-37.78671,"lon":144.85484,"type":"city"},{"id":"au-6945028","label":"Bridgeman Downs","lat":-27.35538,"lon":152.99432,"type":"city"},{"id":"au-2174039","label":"Brighton","lat":-37.90561,"lon":145.00279,"type":"city"},{"id":"au-2174040","label":"Brighton","lat":-27.29582,"lon":153.05721,"type":"city"},{"id":"au-7932646","label":"Brighton East","lat":-37.90232,"lon":145.01734,"type":"city"},{"id":"au-2205999","label":"Brighton-Le-Sands","lat":-33.96009,"lon":151.1511,"type":"city"},{"id":"au-8348752","label":"Brinsmead","lat":-16.89921,"lon":145.71554,"type":"city"},{"id":"au-2174003","label":"Brisbane","lat":-27.46794,"lon":153.02809,"type":"city"},{"id":"au-11523822","label":"Brisbane central business district","lat":-27.47134,"lon":153.02736,"type":"city"},{"id":"au-2173977","label":"Broadbeach","lat":-28.02782,"lon":153.43343,"type":"city"},{"id":"au-10063038","label":"Broadbeach Waters","lat":-28.03498,"lon":153.42502,"type":"city"},{"id":"au-2173964","label":"Broadmeadows","lat":-37.68015,"lon":144.91877,"type":"city"},{"id":"au-2173911","label":"Broken Hill","lat":-31.9652,"lon":141.4512,"type":"city"},{"id":"au-2208288","label":"Bronte","lat":-33.90198,"lon":151.26556,"type":"city"},{"id":"au-7932574","label":"Brookfield","lat":-37.7008,"lon":144.56025,"type":"city"},{"id":"au-2075720","label":"Broome","lat":-17.95538,"lon":122.23922,"type":"city"},{"id":"au-8349301","label":"Bruce","lat":-35.24405,"lon":149.09083,"type":"city"},{"id":"au-2173741","label":"Brunswick","lat":-37.76667,"lon":144.96667,"type":"city"},{"id":"au-2173739","label":"Brunswick East","lat":-37.77255,"lon":144.97241,"type":"city"},{"id":"au-2173734","label":"Brunswick West","lat":-37.76461,"lon":144.94383,"type":"city"},{"id":"au-2173605","label":"Buderim","lat":-26.68443,"lon":153.05705,"type":"city"},{"id":"au-2207247","label":"Bulimba","lat":-27.4499,"lon":153.05766,"type":"city"},{"id":"au-8349218","label":"Bull Creek","lat":-32.05625,"lon":115.86242,"type":"city"},{"id":"au-2173464","label":"Bulleen","lat":-37.76667,"lon":145.08333,"type":"city"},{"id":"au-2173445","label":"Bulli","lat":-34.33834,"lon":150.91347,"type":"city"},{"id":"au-2075462","label":"Bullsbrook","lat":-31.66905,"lon":115.9999,"type":"city"},{"id":"au-2075432","label":"Bunbury","lat":-33.32711,"lon":115.64137,"type":"city"},{"id":"au-2173323","label":"Bundaberg","lat":-24.86621,"lon":152.3479,"type":"city"},{"id":"au-11704264","label":"Bundaberg North","lat":-24.84914,"lon":152.34638,"type":"city"},{"id":"au-2173310","label":"Bundamba","lat":-27.60947,"lon":152.81133,"type":"city"},{"id":"au-8349381","label":"Bundoora","lat":-37.69825,"lon":145.05967,"type":"city"},{"id":"au-8348766","label":"Burdell","lat":-19.25056,"lon":146.69877,"type":"city"},{"id":"au-2173152","label":"Burleigh Heads","lat":-28.1,"lon":153.45,"type":"city"},{"id":"au-10063050","label":"Burleigh Waters","lat":-28.09975,"lon":153.42463,"type":"city"},{"id":"au-2173125","label":"Burnie","lat":-41.05584,"lon":145.90375,"type":"city"},{"id":"au-8348259","label":"Burnside","lat":-37.74937,"lon":144.75301,"type":"city"},{"id":"au-9972585","label":"Burnside Heights","lat":-37.72691,"lon":144.75225,"type":"city"},{"id":"au-2173099","label":"Burpengary","lat":-27.15746,"lon":152.95758,"type":"city"},{"id":"au-11704256","label":"Burpengary East","lat":-27.14447,"lon":152.99968,"type":"city"},{"id":"au-8349396","label":"Burton","lat":-34.73339,"lon":138.60247,"type":"city"},{"id":"au-2172995","label":"Burwood","lat":-33.88333,"lon":151.1,"type":"city"},{"id":"au-7932622","label":"Burwood","lat":-37.84978,"lon":145.11901,"type":"city"},{"id":"au-2172994","label":"Burwood East","lat":-37.85,"lon":145.15,"type":"city"},{"id":"au-8219740","label":"Bushland Beach","lat":-19.19134,"lon":146.67682,"type":"city"},{"id":"au-2075265","label":"Busselton","lat":-33.65249,"lon":115.3455,"type":"city"},{"id":"au-8348326","label":"Butler","lat":-31.64298,"lon":115.70431,"type":"city"},{"id":"au-2075230","label":"Byford","lat":-32.22099,"lon":116.009,"type":"city"},{"id":"au-2172880","label":"Byron Bay","lat":-28.64989,"lon":153.61246,"type":"city"},{"id":"au-8349027","label":"Cable Beach","lat":-17.96098,"lon":122.21269,"type":"city"},{"id":"au-2172832","label":"Caboolture","lat":-27.08465,"lon":152.9511,"type":"city"},{"id":"au-9958151","label":"Caboolture South","lat":-27.09389,"lon":152.94874,"type":"city"},{"id":"au-8348460","label":"Cabramatta","lat":-33.89743,"lon":150.93446,"type":"city"},{"id":"au-9972621","label":"Cabramatta West","lat":-33.89303,"lon":150.9119,"type":"city"},{"id":"au-8349376","label":"Cairnlea","lat":-37.75931,"lon":144.78781,"type":"city"},{"id":"au-2172797","label":"Cairns","lat":-16.92366,"lon":145.76613,"type":"city"},{"id":"au-11703914","label":"Cairns City","lat":-16.92069,"lon":145.77358,"type":"city"},{"id":"au-11704255","label":"Cairns North","lat":-16.90406,"lon":145.75703,"type":"city"},{"id":"au-8348765","label":"Calamvale","lat":-27.62329,"lon":153.04785,"type":"city"},{"id":"au-2172728","label":"Calliope","lat":-24.00705,"lon":151.20033,"type":"city"},{"id":"au-2172710","label":"Caloundra","lat":-26.80346,"lon":153.12195,"type":"city"},{"id":"au-10104160","label":"Caloundra West","lat":-26.80634,"lon":153.10894,"type":"city"},{"id":"au-8347865","label":"Calwell","lat":-35.44042,"lon":149.10707,"type":"city"},{"id":"au-2172686","label":"Camberwell","lat":-37.84205,"lon":145.0694,"type":"city"},{"id":"au-9972622","label":"Cambridge Park","lat":-33.74784,"lon":150.72208,"type":"city"},{"id":"au-8348462","label":"Cameron Park","lat":-32.90701,"lon":151.60528,"type":"city"},{"id":"au-8349242","label":"Camira","lat":-27.63461,"lon":152.92091,"type":"city"},{"id":"au-2207822","label":"Cammeray","lat":-33.82132,"lon":151.21609,"type":"city"},{"id":"au-9957444","label":"Camp Hill","lat":-27.49354,"lon":153.07629,"type":"city"},{"id":"au-2172618","label":"Campbell","lat":-35.28907,"lon":149.15382,"type":"city"},{"id":"au-2075056","label":"Campbelltown","lat":-34.88333,"lon":138.66667,"type":"city"},{"id":"au-2172586","label":"Campbelltown","lat":-34.06667,"lon":150.81667,"type":"city"},{"id":"au-2172563","label":"Camperdown","lat":-33.88965,"lon":151.17642,"type":"city"},{"id":"au-8348466","label":"Campsie","lat":-33.9125,"lon":151.10279,"type":"city"},{"id":"au-2172517","label":"Canberra","lat":-35.28346,"lon":149.12807,"type":"city"},{"id":"au-8347868","label":"Canberra City","lat":-35.28125,"lon":149.12927,"type":"city"},{"id":"au-8348469","label":"Canley Heights","lat":-33.88262,"lon":150.92408,"type":"city"},{"id":"au-8347759","label":"Canley Vale","lat":-33.88657,"lon":150.94802,"type":"city"},{"id":"au-7302631","label":"Canning Vale","lat":-32.05799,"lon":115.91814,"type":"city"},{"id":"au-2075024","label":"Cannington","lat":-32.01625,"lon":115.93648,"type":"city"},{"id":"au-8348393","label":"Cannon Hill","lat":-27.47237,"lon":153.09475,"type":"city"},{"id":"au-2172477","label":"Cannonvale","lat":-20.27681,"lon":148.69759,"type":"city"},{"id":"au-6949377","label":"Canterbury","lat":-33.91192,"lon":151.11862,"type":"city"},{"id":"au-7932625","label":"Canterbury","lat":-37.8247,"lon":145.08476,"type":"city"},{"id":"au-2172434","label":"Capalaba","lat":-27.54333,"lon":153.20287,"type":"city"},{"id":"au-13118738","label":"Capel Sound","lat":-38.36727,"lon":144.87877,"type":"city"},{"id":"au-8349036","label":"Carey Park","lat":-33.34878,"lon":115.6493,"type":"city"},{"id":"au-8348397","label":"Carina Heights","lat":-27.50721,"lon":153.09126,"type":"city"},{"id":"au-7281839","label":"Carindale","lat":-27.50578,"lon":153.10236,"type":"city"},{"id":"au-8349039","label":"Carine","lat":-31.8523,"lon":115.78258,"type":"city"},{"id":"au-2172311","label":"Caringbah","lat":-34.03534,"lon":151.12468,"type":"city"},{"id":"au-9972625","label":"Caringbah South","lat":-34.05662,"lon":151.12149,"type":"city"},{"id":"au-2172303","label":"Carlingford","lat":-33.78269,"lon":151.04888,"type":"city"},{"id":"au-8348268","label":"Carlisle","lat":-31.97945,"lon":115.91808,"type":"city"},{"id":"au-2172293","label":"Carlton","lat":-37.8,"lon":144.96667,"type":"city"},{"id":"au-8349201","label":"Carlton","lat":-33.97107,"lon":151.12136,"type":"city"},{"id":"au-2172289","label":"Carlton North","lat":-37.78818,"lon":144.97014,"type":"city"},{"id":"au-2172264","label":"Carnegie","lat":-37.89359,"lon":145.05534,"type":"city"},{"id":"au-7281805","label":"Caroline Springs","lat":-37.74124,"lon":144.73631,"type":"city"},{"id":"au-8348173","label":"Carramar","lat":-31.69023,"lon":115.77159,"type":"city"},{"id":"au-8348451","label":"Carrara","lat":-28.02151,"lon":153.36635,"type":"city"},{"id":"au-2172191","label":"Carrum Downs","lat":-38.09968,"lon":145.17248,"type":"city"},{"id":"au-6943557","label":"Carseldine","lat":-27.34753,"lon":153.02307,"type":"city"},{"id":"au-8349161","label":"Casey","lat":-35.16701,"lon":149.0947,"type":"city"},{"id":"au-2172153","label":"Casino","lat":-28.85819,"lon":153.04748,"type":"city"},{"id":"au-2172111","label":"Castle Hill","lat":-33.73333,"lon":151,"type":"city"},{"id":"au-2172106","label":"Castlemaine","lat":-37.06709,"lon":144.21684,"type":"city"},{"id":"au-8348477","label":"Casula","lat":-33.95222,"lon":150.89949,"type":"city"},{"id":"au-2171948","label":"Caulfield","lat":-37.88251,"lon":145.02288,"type":"city"},{"id":"au-2171945","label":"Caulfield North","lat":-37.8739,"lon":145.02485,"type":"city"},{"id":"au-7932643","label":"Caulfield South","lat":-37.89562,"lon":145.02597,"type":"city"},{"id":"au-2074700","label":"Caversham","lat":-31.88333,"lon":115.96667,"type":"city"},{"id":"au-8348484","label":"Cecil Hills","lat":-33.88917,"lon":150.85137,"type":"city"},{"id":"au-8347861","label":"Centenary Heights","lat":-27.58684,"lon":151.96249,"type":"city"},{"id":"au-8310663","label":"Central Coast","lat":-33.42979,"lon":151.37144,"type":"city"},{"id":"au-2171845","label":"Cessnock","lat":-32.83211,"lon":151.35623,"type":"city"},{"id":"au-7932635","label":"Chadstone","lat":-37.88766,"lon":145.09519,"type":"city"},{"id":"au-6931019","label":"Chapel Hill","lat":-27.50264,"lon":152.95012,"type":"city"},{"id":"au-2171766","label":"Charlestown","lat":-32.96828,"lon":151.69318,"type":"city"},{"id":"au-2171722","label":"Charters Towers","lat":-20.07671,"lon":146.26353,"type":"city"},{"id":"au-2171707","label":"Chatswood","lat":-33.8,"lon":151.18333,"type":"city"},{"id":"au-2171694","label":"Chelsea","lat":-38.05,"lon":145.11667,"type":"city"},{"id":"au-2171693","label":"Chelsea Heights","lat":-38.03333,"lon":145.13333,"type":"city"},{"id":"au-2207618","label":"Cheltenham","lat":-37.96944,"lon":145.04806,"type":"city"},{"id":"au-6943582","label":"Chermside","lat":-27.38472,"lon":153.03062,"type":"city"},{"id":"au-9957323","label":"Chermside West","lat":-27.38383,"lon":153.01586,"type":"city"},{"id":"au-8347871","label":"Cherrybrook","lat":-33.72197,"lon":151.04607,"type":"city"},{"id":"au-8348486","label":"Chester Hill","lat":-33.87896,"lon":150.99945,"type":"city"},{"id":"au-2171596","label":"Chinchilla","lat":-26.73787,"lon":150.6297,"type":"city"},{"id":"au-2171589","label":"Chippendale","lat":-33.88673,"lon":151.19745,"type":"city"},{"id":"au-2171586","label":"Chipping Norton","lat":-33.91801,"lon":150.95927,"type":"city"},{"id":"au-8348898","label":"Chirnside Park","lat":-37.7386,"lon":145.31431,"type":"city"},{"id":"au-8349303","label":"Chisholm","lat":-35.41249,"lon":149.12825,"type":"city"},{"id":"au-8348408","label":"Christie Downs","lat":-35.12999,"lon":138.49633,"type":"city"},{"id":"au-9258643","label":"Christies Beach","lat":-35.13876,"lon":138.47232,"type":"city"},{"id":"au-10035407","label":"City Beach","lat":-31.9344,"lon":115.76174,"type":"city"},{"id":"au-10300648","label":"City of Port Phillip","lat":-37.83382,"lon":144.93834,"type":"city"},{"id":"au-2078904","label":"Claremont","lat":-31.97961,"lon":115.7823,"type":"city"},{"id":"au-2171476","label":"Claremont","lat":-42.78333,"lon":147.25,"type":"city"},{"id":"au-2171452","label":"Clarinda","lat":-37.94066,"lon":145.10238,"type":"city"},{"id":"au-6697150","label":"Clarkson","lat":-31.68282,"lon":115.7247,"type":"city"},{"id":"au-6943581","label":"Clayfield","lat":-27.41894,"lon":153.05818,"type":"city"},{"id":"au-2171400","label":"Clayton","lat":-37.91667,"lon":145.11667,"type":"city"},{"id":"au-2171395","label":"Clayton South","lat":-37.93333,"lon":145.11667,"type":"city"},{"id":"au-2171360","label":"Cleveland","lat":-27.52677,"lon":153.26516,"type":"city"},{"id":"au-2171324","label":"Clifton Hill","lat":-37.792,"lon":144.995,"type":"city"},{"id":"au-2171320","label":"Clifton Springs","lat":-38.1567,"lon":144.5551,"type":"city"},{"id":"au-8349203","label":"Clinton","lat":-23.87518,"lon":151.21793,"type":"city"},{"id":"au-7932687","label":"Clontarf","lat":-27.25341,"lon":153.07835,"type":"city"},{"id":"au-8349030","label":"Cloverdale","lat":-31.96281,"lon":115.94428,"type":"city"},{"id":"au-2171257","label":"Clyde","lat":-38.13333,"lon":145.33333,"type":"city"},{"id":"au-2171250","label":"Clyde North","lat":-38.11667,"lon":145.33333,"type":"city"},{"id":"au-2171173","label":"Cobram","lat":-35.92069,"lon":145.64066,"type":"city"},{"id":"au-2171168","label":"Coburg","lat":-37.75,"lon":144.96667,"type":"city"},{"id":"au-9972423","label":"Coburg North","lat":-37.72867,"lon":144.96134,"type":"city"},{"id":"au-2171085","label":"Coffs Harbour","lat":-30.29626,"lon":153.11351,"type":"city"},{"id":"au-2171069","label":"Colac","lat":-38.339,"lon":143.58489,"type":"city"},{"id":"au-2171019","label":"Collaroy","lat":-33.73205,"lon":151.30118,"type":"city"},{"id":"au-2074113","label":"Collie","lat":-33.36206,"lon":116.15617,"type":"city"},{"id":"au-2171000","label":"Collingwood","lat":-37.80253,"lon":144.98872,"type":"city"},{"id":"au-7932671","label":"Collingwood Park","lat":-27.61282,"lon":152.86008,"type":"city"},{"id":"au-8348497","label":"Colyton","lat":-33.78283,"lon":150.79679,"type":"city"},{"id":"au-6695266","label":"Como","lat":-31.99119,"lon":115.86336,"type":"city"},{"id":"au-2170852","label":"Concord","lat":-33.84722,"lon":151.10381,"type":"city"},{"id":"au-9972648","label":"Concord West","lat":-33.84809,"lon":151.08609,"type":"city"},{"id":"au-8348737","label":"Condell Park","lat":-33.92458,"lon":151.01093,"type":"city"},{"id":"au-8348879","label":"Condon","lat":-19.32968,"lon":146.71663,"type":"city"},{"id":"au-2170697","label":"Coogee","lat":-33.9205,"lon":151.25522,"type":"city"},{"id":"au-2170628","label":"Coolangatta","lat":-28.16944,"lon":153.53471,"type":"city"},{"id":"au-8349045","label":"Coolbellup","lat":-32.08124,"lon":115.80606,"type":"city"},{"id":"au-8349046","label":"Cooloongup","lat":-32.295,"lon":115.78,"type":"city"},{"id":"au-2170581","label":"Coolum Beach","lat":-26.5283,"lon":153.08809,"type":"city"},{"id":"au-2170577","label":"Cooma","lat":-36.23517,"lon":149.12408,"type":"city"},{"id":"au-8348789","label":"Coombabah","lat":-27.91073,"lon":153.37093,"type":"city"},{"id":"au-11694935","label":"Coomera","lat":-27.84333,"lon":153.33901,"type":"city"},{"id":"au-9957339","label":"Coopers Plains","lat":-27.56463,"lon":153.04067,"type":"city"},{"id":"au-2170456","label":"Cooranbong","lat":-33.07622,"lon":151.45409,"type":"city"},{"id":"au-2170435","label":"Coorparoo","lat":-27.49325,"lon":153.05826,"type":"city"},{"id":"au-2170430","label":"Cootamundra","lat":-34.64095,"lon":148.02838,"type":"city"},{"id":"au-2170307","label":"Corio","lat":-38.08333,"lon":144.38333,"type":"city"},{"id":"au-6690772","label":"Corlette","lat":-32.72014,"lon":152.10846,"type":"city"},{"id":"au-2170278","label":"Cornubia","lat":-27.66667,"lon":153.21667,"type":"city"},{"id":"au-2170260","label":"Corowa","lat":-35.99704,"lon":146.38552,"type":"city"},{"id":"au-2170253","label":"Corrimal","lat":-34.37864,"lon":150.90356,"type":"city"},{"id":"au-2073603","label":"Cottesloe","lat":-31.99426,"lon":115.75816,"type":"city"},{"id":"au-2170139","label":"Cowra","lat":-33.83554,"lon":148.69663,"type":"city"},{"id":"au-8348877","label":"Craigie","lat":-31.78727,"lon":115.76989,"type":"city"},{"id":"au-2170089","label":"Craigieburn","lat":-37.6,"lon":144.95,"type":"city"},{"id":"au-8347802","label":"Craigmore","lat":-34.70064,"lon":138.70956,"type":"city"},{"id":"au-2170079","label":"Cranbourne","lat":-38.11342,"lon":145.28326,"type":"city"},{"id":"au-9972515","label":"Cranbourne East","lat":-38.11531,"lon":145.29814,"type":"city"},{"id":"au-9972516","label":"Cranbourne North","lat":-38.07758,"lon":145.29871,"type":"city"},{"id":"au-9972517","label":"Cranbourne West","lat":-38.0965,"lon":145.26707,"type":"city"},{"id":"au-8349416","label":"Cranbrook","lat":-19.30553,"lon":146.75286,"type":"city"},{"id":"au-8348511","label":"Cranebrook","lat":-33.7061,"lon":150.7094,"type":"city"},{"id":"au-2207879","label":"Cremorne","lat":-33.82679,"lon":151.22633,"type":"city"},{"id":"au-8348857","label":"Crestmead","lat":-27.68759,"lon":153.08444,"type":"city"},{"id":"au-8347772","label":"Cromer","lat":-33.7312,"lon":151.26788,"type":"city"},{"id":"au-2169956","label":"Cronulla","lat":-34.06251,"lon":151.14961,"type":"city"},{"id":"au-2169867","label":"Croydon","lat":-37.8,"lon":145.28333,"type":"city"},{"id":"au-2169868","label":"Croydon","lat":-33.88333,"lon":151.11667,"type":"city"},{"id":"au-2169866","label":"Croydon North","lat":-37.76741,"lon":145.29073,"type":"city"},{"id":"au-6697152","label":"Currambine","lat":-31.73306,"lon":115.74766,"type":"city"},{"id":"au-8348822","label":"Currans Hill","lat":-34.04311,"lon":150.77301,"type":"city"},{"id":"au-8349370","label":"Currimundi","lat":-26.76925,"lon":153.12237,"type":"city"},{"id":"au-10063132","label":"Currumbin Waters","lat":-28.15442,"lon":153.47282,"type":"city"},{"id":"au-8349171","label":"Curtin","lat":-35.32464,"lon":149.07763,"type":"city"},{"id":"au-8347882","label":"Daisy Hill","lat":-27.63026,"lon":153.15784,"type":"city"},{"id":"au-2169535","label":"Dalby","lat":-27.18169,"lon":151.26205,"type":"city"},{"id":"au-8348303","label":"Dallas","lat":-37.67083,"lon":144.93542,"type":"city"},{"id":"au-8349049","label":"Dalyellup","lat":-33.40844,"lon":115.61506,"type":"city"},{"id":"au-2169460","label":"Dandenong","lat":-37.98333,"lon":145.2,"type":"city"},{"id":"au-9972522","label":"Dandenong North","lat":-37.96649,"lon":145.2081,"type":"city"},{"id":"au-2169423","label":"Dapto","lat":-34.50386,"lon":150.79416,"type":"city"},{"id":"au-8348333","label":"Darch","lat":-31.81255,"lon":115.8458,"type":"city"},{"id":"au-2169386","label":"Darley","lat":-37.65807,"lon":144.44344,"type":"city"},{"id":"au-10114319","label":"Darling Heights","lat":-27.59659,"lon":151.93045,"type":"city"},{"id":"au-2169378","label":"Darlinghurst","lat":-33.87939,"lon":151.21925,"type":"city"},{"id":"au-2073124","label":"Darwin","lat":-12.46113,"lon":130.84185,"type":"city"},{"id":"au-8348052","label":"Davoren Park","lat":-34.69063,"lon":138.66862,"type":"city"},{"id":"au-7290513","label":"Dawesville","lat":-32.63229,"lon":115.62904,"type":"city"},{"id":"au-2169220","label":"Deception Bay","lat":-27.19354,"lon":153.02631,"type":"city"},{"id":"au-2208305","label":"Dee Why","lat":-33.7511,"lon":151.28886,"type":"city"},{"id":"au-2169145","label":"Deer Park","lat":-37.76722,"lon":144.76657,"type":"city"},{"id":"au-8015185","label":"Delacombe","lat":-37.58911,"lon":143.81472,"type":"city"},{"id":"au-8348306","label":"Delahey","lat":-37.7198,"lon":144.77732,"type":"city"},{"id":"au-2169068","label":"Deniliquin","lat":-35.53245,"lon":144.95364,"type":"city"},{"id":"au-2169018","label":"Derrimut","lat":-37.79238,"lon":144.76994,"type":"city"},{"id":"au-2168943","label":"Devonport","lat":-41.17695,"lon":146.35152,"type":"city"},{"id":"au-2168919","label":"Diamond Creek","lat":-37.66667,"lon":145.15,"type":"city"},{"id":"au-8349051","label":"Dianella","lat":-31.88822,"lon":115.87186,"type":"city"},{"id":"au-2168807","label":"Dingley Village","lat":-37.9827,"lon":145.1342,"type":"city"},{"id":"au-7521471","label":"Docklands","lat":-37.8149,"lon":144.95052,"type":"city"},{"id":"au-2168607","label":"Doncaster","lat":-37.78828,"lon":145.12373,"type":"city"},{"id":"au-2168605","label":"Doncaster East","lat":-37.78761,"lon":145.14888,"type":"city"},{"id":"au-2168579","label":"Donvale","lat":-37.7891,"lon":145.17488,"type":"city"},{"id":"au-2168556","label":"Doonside","lat":-33.76667,"lon":150.86667,"type":"city"},{"id":"au-2168537","label":"Doreen","lat":-37.6,"lon":145.15,"type":"city"},{"id":"au-8348415","label":"Doubleview","lat":-31.89627,"lon":115.78155,"type":"city"},{"id":"au-8348255","label":"Douglas","lat":-19.32394,"lon":146.75234,"type":"city"},{"id":"au-8347324","label":"Doveton","lat":-37.99346,"lon":145.23891,"type":"city"},{"id":"au-2168386","label":"Dromana","lat":-38.33375,"lon":144.96458,"type":"city"},{"id":"au-2168372","label":"Drouin","lat":-38.13658,"lon":145.85838,"type":"city"},{"id":"au-2207783","label":"Drummoyne","lat":-33.85237,"lon":151.15491,"type":"city"},{"id":"au-2168305","label":"Dubbo","lat":-32.24295,"lon":148.60484,"type":"city"},{"id":"au-8349444","label":"Dudley Park","lat":-32.55221,"lon":115.731,"type":"city"},{"id":"au-8348836","label":"Dulwich Hill","lat":-33.9041,"lon":151.13945,"type":"city"},{"id":"au-8349052","label":"Duncraig","lat":-31.83291,"lon":115.7759,"type":"city"},{"id":"au-9972660","label":"Dundas Valley","lat":-33.78826,"lon":151.05261,"type":"city"},{"id":"au-8349173","label":"Dunlop","lat":-35.19402,"lon":149.01984,"type":"city"},{"id":"au-8349245","label":"Durack","lat":-27.58947,"lon":152.98577,"type":"city"},{"id":"au-2168041","label":"Dural","lat":-33.68333,"lon":151.01667,"type":"city"},{"id":"au-8348532","label":"Eagle Vale","lat":-34.03747,"lon":150.8136,"type":"city"},{"id":"au-2167983","label":"Eagleby","lat":-27.68333,"lon":153.21667,"type":"city"},{"id":"au-2167973","label":"Eaglehawk","lat":-36.71611,"lon":144.25049,"type":"city"},{"id":"au-2167949","label":"Earlwood","lat":-33.9209,"lon":151.12506,"type":"city"},{"id":"au-10116056","label":"East Albury","lat":-36.08144,"lon":146.92991,"type":"city"},{"id":"au-2167943","label":"East Ballina","lat":-28.85709,"lon":153.58736,"type":"city"},{"id":"au-2207258","label":"East Brisbane","lat":-27.48099,"lon":153.04401,"type":"city"},{"id":"au-10049213","label":"East Cannington","lat":-32.0098,"lon":115.95503,"type":"city"},{"id":"au-2078894","label":"East Fremantle","lat":-32.03823,"lon":115.7676,"type":"city"},{"id":"au-6697124","label":"East Lismore","lat":-28.82591,"lon":153.2888,"type":"city"},{"id":"au-2167869","label":"East Maitland","lat":-32.75,"lon":151.58333,"type":"city"},{"id":"au-6952201","label":"East Melbourne","lat":-37.81667,"lon":144.9879,"type":"city"},{"id":"au-8335007","label":"East Perth","lat":-31.95872,"lon":115.87109,"type":"city"},{"id":"au-10114336","label":"East Tamworth","lat":-31.08548,"lon":150.93721,"type":"city"},{"id":"au-10114321","label":"East Toowoomba","lat":-27.57086,"lon":151.97422,"type":"city"},{"id":"au-8348675","label":"East Victoria Park","lat":-31.98894,"lon":115.90388,"type":"city"},{"id":"au-8348559","label":"Eastlakes","lat":-33.93196,"lon":151.21214,"type":"city"},{"id":"au-2167840","label":"Eastwood","lat":-33.79176,"lon":151.08057,"type":"city"},{"id":"au-2078313","label":"Eaton","lat":-33.31664,"lon":115.70503,"type":"city"},{"id":"au-9958152","label":"Eatons Hill","lat":-27.3392,"lon":152.9599,"type":"city"},{"id":"au-2167817","label":"Echuca","lat":-36.14057,"lon":144.75185,"type":"city"},{"id":"au-8348378","label":"Edens Landing","lat":-27.7027,"lon":153.16943,"type":"city"},{"id":"au-8347979","label":"Edensor Park","lat":-33.87971,"lon":150.87778,"type":"city"},{"id":"au-8348540","label":"Edgeworth","lat":-32.92508,"lon":151.61612,"type":"city"},{"id":"au-2167751","label":"Edithvale","lat":-38.03724,"lon":145.10974,"type":"city"},{"id":"au-2167744","label":"Edmonton","lat":-17.01902,"lon":145.74443,"type":"city"},{"id":"au-2167651","label":"Eight Mile Plains","lat":-27.58333,"lon":153.1,"type":"city"},{"id":"au-8348464","label":"Elanora","lat":-28.13577,"lon":153.44931,"type":"city"},{"id":"au-8029813","label":"Eleebana","lat":-32.9896,"lon":151.63642,"type":"city"},{"id":"au-10103846","label":"Elermore Vale","lat":-32.91621,"lon":151.67665,"type":"city"},{"id":"au-8348543","label":"Elizabeth Bay","lat":-33.87181,"lon":151.22706,"type":"city"},{"id":"au-9973178","label":"Elizabeth Downs","lat":-34.69982,"lon":138.69132,"type":"city"},{"id":"au-8348596","label":"Ellenbrook","lat":-31.76737,"lon":115.96936,"type":"city"},{"id":"au-2167449","label":"Elsternwick","lat":-37.88639,"lon":145.0025,"type":"city"},{"id":"au-2167445","label":"Eltham","lat":-37.73333,"lon":145.15,"type":"city"},{"id":"au-2167444","label":"Eltham North","lat":-37.7,"lon":145.15,"type":"city"},{"id":"au-7932620","label":"Elwood","lat":-37.88214,"lon":144.98215,"type":"city"},{"id":"au-2167425","label":"Emerald","lat":-37.93167,"lon":145.44093,"type":"city"},{"id":"au-2167426","label":"Emerald","lat":-23.52296,"lon":148.15784,"type":"city"},{"id":"au-2167330","label":"Emu Plains","lat":-33.75,"lon":150.66667,"type":"city"},{"id":"au-8347325","label":"Endeavour Hills","lat":-37.97695,"lon":145.25866,"type":"city"},{"id":"au-6621335","label":"Enfield","lat":-34.8526,"lon":138.60255,"type":"city"},{"id":"au-2167312","label":"Engadine","lat":-34.06564,"lon":151.01266,"type":"city"},{"id":"au-8348782","label":"Enoggera","lat":-27.42832,"lon":152.97467,"type":"city"},{"id":"au-2167279","label":"Epping","lat":-37.65,"lon":145.03333,"type":"city"},{"id":"au-2167280","label":"Epping","lat":-33.77271,"lon":151.08184,"type":"city"},{"id":"au-9972670","label":"Ermington","lat":-33.81483,"lon":151.05467,"type":"city"},{"id":"au-8347795","label":"Erskine Park","lat":-33.81301,"lon":150.79773,"type":"city"},{"id":"au-8348548","label":"Erskineville","lat":-33.90254,"lon":151.18579,"type":"city"},{"id":"au-2071860","label":"Esperance","lat":-33.85919,"lon":121.89164,"type":"city"},{"id":"au-2167208","label":"Essendon","lat":-37.74981,"lon":144.9109,"type":"city"},{"id":"au-8349175","label":"Evatt","lat":-35.21191,"lon":149.06891,"type":"city"},{"id":"au-8348461","label":"Everton Hills","lat":-27.38909,"lon":152.97126,"type":"city"},{"id":"au-9957324","label":"Everton Park","lat":-27.40732,"lon":152.9884,"type":"city"},{"id":"au-2166952","label":"Fairfield","lat":-33.86667,"lon":150.95,"type":"city"},{"id":"au-9972411","label":"Fairfield","lat":-37.77977,"lon":145.01764,"type":"city"},{"id":"au-9972671","label":"Fairfield East","lat":-33.86938,"lon":150.97129,"type":"city"},{"id":"au-9972672","label":"Fairfield Heights","lat":-33.86445,"lon":150.93884,"type":"city"},{"id":"au-6949378","label":"Fairfield West","lat":-33.8667,"lon":150.917,"type":"city"},{"id":"au-9972673","label":"Fairlight","lat":-33.79575,"lon":151.27346,"type":"city"},{"id":"au-2206108","label":"Fairy Meadow","lat":-34.39303,"lon":150.89275,"type":"city"},{"id":"au-2166819","label":"Fawkner","lat":-37.71667,"lon":144.96667,"type":"city"},{"id":"au-7281850","label":"Ferntree Gully","lat":-37.88461,"lon":145.29539,"type":"city"},{"id":"au-6943583","label":"Ferny Grove","lat":-27.4008,"lon":152.93475,"type":"city"},{"id":"au-9958153","label":"Ferny Hills","lat":-27.39594,"lon":152.93737,"type":"city"},{"id":"au-2206115","label":"Figtree","lat":-34.43556,"lon":150.85833,"type":"city"},{"id":"au-12008915","label":"Figtree","lat":-28.45635,"lon":152.89199,"type":"city"},{"id":"au-2071601","label":"Findon","lat":-34.9,"lon":138.53333,"type":"city"},{"id":"au-6944262","label":"Fitzgibbon","lat":-27.33971,"lon":153.02921,"type":"city"},{"id":"au-2166584","label":"Fitzroy","lat":-37.79839,"lon":144.97833,"type":"city"},{"id":"au-2154962","label":"Fitzroy North","lat":-37.78862,"lon":144.97885,"type":"city"},{"id":"au-8348555","label":"Five Dock","lat":-33.8674,"lon":151.12905,"type":"city"},{"id":"au-8348986","label":"Flagstaff Hill","lat":-35.04861,"lon":138.58285,"type":"city"},{"id":"au-9972408","label":"Flemington","lat":-37.78825,"lon":144.93001,"type":"city"},{"id":"au-8348859","label":"Fletcher","lat":-32.87232,"lon":151.64008,"type":"city"},{"id":"au-6255012","label":"Flinders","lat":-34.58333,"lon":150.85516,"type":"city"},{"id":"au-7932666","label":"Flinders View","lat":-27.65046,"lon":152.77451,"type":"city"},{"id":"au-8349363","label":"Floreat","lat":-31.93862,"lon":115.79211,"type":"city"},{"id":"au-2166370","label":"Footscray","lat":-37.8,"lon":144.9,"type":"city"},{"id":"au-2166368","label":"Forbes","lat":-33.38436,"lon":148.0076,"type":"city"},{"id":"au-2166340","label":"Forest Hill","lat":-37.83333,"lon":145.18333,"type":"city"},{"id":"au-9957340","label":"Forest Lake","lat":-27.62563,"lon":152.96883,"type":"city"},{"id":"au-2208302","label":"Forestville","lat":-33.76667,"lon":151.20833,"type":"city"},{"id":"au-8349055","label":"Forrestfield","lat":-31.98277,"lon":116.00673,"type":"city"},{"id":"au-2166309","label":"Forster","lat":-32.18136,"lon":152.51715,"type":"city"},{"id":"au-6943577","label":"Fortitude Valley","lat":-27.45706,"lon":153.03178,"type":"city"},{"id":"au-8349306","label":"Franklin","lat":-35.19946,"lon":149.14329,"type":"city"},{"id":"au-2166144","label":"Frankston","lat":-38.14458,"lon":145.12291,"type":"city"},{"id":"au-2166143","label":"Frankston East","lat":-38.13333,"lon":145.13333,"type":"city"},{"id":"au-9972526","label":"Frankston North","lat":-38.12352,"lon":145.14836,"type":"city"},{"id":"au-9972527","label":"Frankston South","lat":-38.16604,"lon":145.13643,"type":"city"},{"id":"au-2071223","label":"Fremantle","lat":-32.05632,"lon":115.74557,"type":"city"},{"id":"au-8347809","label":"Frenchs Forest","lat":-33.74821,"lon":151.22322,"type":"city"},{"id":"au-8348867","label":"Frenchville","lat":-23.34761,"lon":150.5445,"type":"city"},{"id":"au-6930431","label":"Freshwater","lat":-33.77867,"lon":151.28569,"type":"city"},{"id":"au-8348985","label":"Fulham Gardens","lat":-34.91483,"lon":138.51324,"type":"city"},{"id":"au-2165828","label":"Gatton","lat":-27.55873,"lon":152.27618,"type":"city"},{"id":"au-2071059","label":"Gawler","lat":-34.60251,"lon":138.74902,"type":"city"},{"id":"au-9973107","label":"Gawler East","lat":-34.59889,"lon":138.7632,"type":"city"},{"id":"au-2165798","label":"Geelong","lat":-38.14711,"lon":144.36069,"type":"city"},{"id":"au-11523841","label":"Geelong city centre","lat":-38.14996,"lon":144.36176,"type":"city"},{"id":"au-2165796","label":"Geelong West","lat":-38.13888,"lon":144.34842,"type":"city"},{"id":"au-8348905","label":"Georges Hall","lat":-33.90879,"lon":150.98852,"type":"city"},{"id":"au-2070998","label":"Geraldton","lat":-28.77897,"lon":114.61459,"type":"city"},{"id":"au-6776556","label":"Girraween","lat":-33.799,"lon":150.943,"type":"city"},{"id":"au-8349041","label":"Girrawheen","lat":-31.84103,"lon":115.83978,"type":"city"},{"id":"au-2165488","label":"Gisborne","lat":-37.48858,"lon":144.59421,"type":"city"},{"id":"au-2208292","label":"Gladesville","lat":-33.83333,"lon":151.13333,"type":"city"},{"id":"au-2165478","label":"Gladstone","lat":-23.84852,"lon":151.25775,"type":"city"},{"id":"au-6290241","label":"Gladstone Park","lat":-37.68742,"lon":144.88675,"type":"city"},{"id":"au-2165450","label":"Glebe","lat":-33.87884,"lon":151.18426,"type":"city"},{"id":"au-2165291","label":"Glen Innes","lat":-29.73485,"lon":151.7385,"type":"city"},{"id":"au-2165290","label":"Glen Iris","lat":-37.86667,"lon":145.06667,"type":"city"},{"id":"au-2165171","label":"Glen Waverley","lat":-37.87811,"lon":145.16476,"type":"city"},{"id":"au-8348565","label":"Glendenning","lat":-33.7483,"lon":150.85411,"type":"city"},{"id":"au-9973115","label":"Glenelg North","lat":-34.9679,"lon":138.51751,"type":"city"},{"id":"au-2165329","label":"Glenferrie","lat":-37.83333,"lon":145.05,"type":"city"},{"id":"au-2165326","label":"Glenfield","lat":-33.96667,"lon":150.9,"type":"city"},{"id":"au-8347692","label":"Glenfield Park","lat":-35.13725,"lon":147.33285,"type":"city"},{"id":"au-8348755","label":"Glengowrie","lat":-34.98708,"lon":138.53674,"type":"city"},{"id":"au-2165303","label":"Glenhaven","lat":-33.7,"lon":151,"type":"city"},{"id":"au-7302642","label":"Glenmore Park","lat":-33.79068,"lon":150.6693,"type":"city"},{"id":"au-2165229","label":"Glenorchy","lat":-42.83343,"lon":147.27593,"type":"city"},{"id":"au-2165200","label":"Glenroy","lat":-37.7,"lon":144.93333,"type":"city"},{"id":"au-8349317","label":"Glenvale","lat":-27.56818,"lon":151.8934,"type":"city"},{"id":"au-8348142","label":"Glenwood","lat":-33.73333,"lon":150.93284,"type":"city"},{"id":"au-2165087","label":"Gold Coast","lat":-28.00029,"lon":153.43088,"type":"city"},{"id":"au-7303640","label":"Golden Beach","lat":-26.82177,"lon":153.11972,"type":"city"},{"id":"au-2070711","label":"Golden Grove","lat":-34.78333,"lon":138.73333,"type":"city"},{"id":"au-8348813","label":"Golden Square","lat":-36.77265,"lon":144.25271,"type":"city"},{"id":"au-2165025","label":"Goodna","lat":-27.61046,"lon":152.89896,"type":"city"},{"id":"au-2164972","label":"Goondiwindi","lat":-28.54709,"lon":150.30546,"type":"city"},{"id":"au-2164966","label":"Goonellabah","lat":-28.81667,"lon":153.31667,"type":"city"},{"id":"au-2164903","label":"Gordon","lat":-33.75535,"lon":151.15115,"type":"city"},{"id":"au-8348660","label":"Gordon","lat":-35.45676,"lon":149.08498,"type":"city"},{"id":"au-2164883","label":"Gordonvale","lat":-17.09959,"lon":145.78038,"type":"city"},{"id":"au-2164855","label":"Gorokan","lat":-33.25764,"lon":151.5097,"type":"city"},{"id":"au-2070571","label":"Gosnells","lat":-32.081,"lon":116.0054,"type":"city"},{"id":"au-2164837","label":"Goulburn","lat":-34.75155,"lon":149.72086,"type":"city"},{"id":"au-2164784","label":"Gracemere","lat":-23.43792,"lon":150.45749,"type":"city"},{"id":"au-2164771","label":"Grafton","lat":-29.68104,"lon":152.93394,"type":"city"},{"id":"au-2070515","label":"Grange","lat":-34.90223,"lon":138.49022,"type":"city"},{"id":"au-2164691","label":"Granville","lat":-33.8406,"lon":151.00748,"type":"city"},{"id":"au-2164526","label":"Green Point","lat":-33.444,"lon":151.3682,"type":"city"},{"id":"au-8348110","label":"Green Valley","lat":-33.90292,"lon":150.86713,"type":"city"},{"id":"au-8348574","label":"Greenacre","lat":-33.90034,"lon":151.05563,"type":"city"},{"id":"au-2164601","label":"Greenbank","lat":-27.71667,"lon":152.98333,"type":"city"},{"id":"au-8348575","label":"Greenfield Park","lat":-33.87461,"lon":150.89189,"type":"city"},{"id":"au-8348609","label":"Greenfields","lat":-32.52429,"lon":115.76315,"type":"city"},{"id":"au-2164515","label":"Greensborough","lat":-37.70462,"lon":145.10302,"type":"city"},{"id":"au-9957342","label":"Greenslopes","lat":-27.50815,"lon":153.04951,"type":"city"},{"id":"au-2164495","label":"Greenvale","lat":-37.63333,"lon":144.86667,"type":"city"},{"id":"au-2207796","label":"Greenwich","lat":-33.83954,"lon":151.183,"type":"city"},{"id":"au-8348988","label":"Greenwith","lat":-34.76565,"lon":138.71383,"type":"city"},{"id":"au-8348296","label":"Greenwood","lat":-31.82723,"lon":115.80247,"type":"city"},{"id":"au-8348582","label":"Greystanes","lat":-33.82346,"lon":150.94607,"type":"city"},{"id":"au-8348868","label":"Griffin","lat":-27.27149,"lon":153.03942,"type":"city"},{"id":"au-2164422","label":"Griffith","lat":-34.28853,"lon":146.05093,"type":"city"},{"id":"au-2164395","label":"Grovedale","lat":-38.2,"lon":144.35,"type":"city"},{"id":"au-8349178","label":"Gungahlin","lat":-35.18674,"lon":149.13619,"type":"city"},{"id":"au-2164206","label":"Gunnedah","lat":-30.98065,"lon":150.25838,"type":"city"},{"id":"au-2205969","label":"Gymea","lat":-34.03637,"lon":151.08528,"type":"city"},{"id":"au-2205979","label":"Gymea Bay","lat":-34.05209,"lon":151.08795,"type":"city"},{"id":"au-2164129","label":"Gympie","lat":-26.18979,"lon":152.66499,"type":"city"},{"id":"au-2164123","label":"Haberfield","lat":-33.88296,"lon":151.14389,"type":"city"},{"id":"au-9972464","label":"Hadfield","lat":-37.70728,"lon":144.9416,"type":"city"},{"id":"au-2164062","label":"Hallam","lat":-38.01667,"lon":145.26667,"type":"city"},{"id":"au-9973121","label":"Hallett Cove","lat":-35.07923,"lon":138.5146,"type":"city"},{"id":"au-8349062","label":"Halls Head","lat":-32.54315,"lon":115.69665,"type":"city"},{"id":"au-2164025","label":"Hamilton","lat":-37.74425,"lon":142.02202,"type":"city"},{"id":"au-2207245","label":"Hamilton","lat":-27.43896,"lon":153.06287,"type":"city"},{"id":"au-8348610","label":"Hamilton Hill","lat":-32.08451,"lon":115.77946,"type":"city"},{"id":"au-10110993","label":"Hamlyn Heights","lat":-38.12108,"lon":144.32799,"type":"city"},{"id":"au-8348946","label":"Hamlyn Terrace","lat":-33.25125,"lon":151.47627,"type":"city"},{"id":"au-2163994","label":"Hampton","lat":-37.95,"lon":145,"type":"city"},{"id":"au-7932649","label":"Hampton East","lat":-37.93695,"lon":145.02863,"type":"city"},{"id":"au-2163990","label":"Hampton Park","lat":-38.03333,"lon":145.25,"type":"city"},{"id":"au-2070106","label":"Happy Valley","lat":-35.08333,"lon":138.53333,"type":"city"},{"id":"au-8347831","label":"Harrington Park","lat":-34.02405,"lon":150.73501,"type":"city"},{"id":"au-9972707","label":"Harris Park","lat":-33.82285,"lon":151.00781,"type":"city"},{"id":"au-10054939","label":"Harrisdale","lat":-32.11084,"lon":115.93563,"type":"city"},{"id":"au-8349179","label":"Harrison","lat":-35.19906,"lon":149.15631,"type":"city"},{"id":"au-2163881","label":"Harristown","lat":-27.58333,"lon":151.93333,"type":"city"},{"id":"au-2163837","label":"Hastings","lat":-38.3,"lon":145.18333,"type":"city"},{"id":"au-2163782","label":"Hawthorn","lat":-37.81992,"lon":145.0358,"type":"city"},{"id":"au-7932627","label":"Hawthorn East","lat":-37.82484,"lon":145.0464,"type":"city"},{"id":"au-2163776","label":"Hawthorn South","lat":-37.8329,"lon":145.0367,"type":"city"},{"id":"au-2163755","label":"Haymarket","lat":-33.87868,"lon":151.20526,"type":"city"},{"id":"au-2163701","label":"Healesville","lat":-37.65395,"lon":145.51718,"type":"city"},{"id":"au-2163697","label":"Heathcote","lat":-34.0841,"lon":151.01305,"type":"city"},{"id":"au-2163684","label":"Heathmont","lat":-37.83333,"lon":145.25,"type":"city"},{"id":"au-6697155","label":"Heathridge","lat":-31.76244,"lon":115.75895,"type":"city"},{"id":"au-8348512","label":"Hebersham","lat":-33.74582,"lon":150.82385,"type":"city"},{"id":"au-2163654","label":"Heidelberg","lat":-37.75,"lon":145.06667,"type":"city"},{"id":"au-9972412","label":"Heidelberg Heights","lat":-37.74313,"lon":145.05695,"type":"city"},{"id":"au-2163653","label":"Heidelberg West","lat":-37.73922,"lon":145.04034,"type":"city"},{"id":"au-2163641","label":"Helensburgh","lat":-34.17836,"lon":150.99522,"type":"city"},{"id":"au-7576707","label":"Helensvale","lat":-27.91828,"lon":153.33275,"type":"city"},{"id":"au-9973091","label":"Henley Beach","lat":-34.92029,"lon":138.49442,"type":"city"},{"id":"au-6354957","label":"Hervey Bay","lat":-25.28762,"lon":152.76936,"type":"city"},{"id":"au-8349067","label":"High Wycombe","lat":-31.94444,"lon":116.0034,"type":"city"},{"id":"au-8348147","label":"Highbury","lat":-34.85287,"lon":138.6975,"type":"city"},{"id":"au-2163472","label":"Highett","lat":-37.95,"lon":145.05,"type":"city"},{"id":"au-8219752","label":"Highfields","lat":-27.46343,"lon":151.95386,"type":"city"},{"id":"au-6943567","label":"Highgate Hill","lat":-27.48912,"lon":153.01878,"type":"city"},{"id":"au-8348148","label":"Highland Park","lat":-28.01392,"lon":153.33312,"type":"city"},{"id":"au-8348824","label":"Highton","lat":-38.17058,"lon":144.3114,"type":"city"},{"id":"au-6621336","label":"Hillarys","lat":-31.80698,"lon":115.74045,"type":"city"},{"id":"au-8348280","label":"Hillcrest","lat":-27.66857,"lon":153.02614,"type":"city"},{"id":"au-8348947","label":"Hillsdale","lat":-33.95151,"lon":151.22784,"type":"city"},{"id":"au-8349243","label":"Hillside","lat":-37.69047,"lon":144.74172,"type":"city"},{"id":"au-8348841","label":"Hillvue","lat":-31.12756,"lon":150.90711,"type":"city"},{"id":"au-8349208","label":"Hinchinbrook","lat":-33.91878,"lon":150.86314,"type":"city"},{"id":"au-2163355","label":"Hobart","lat":-42.87936,"lon":147.32941,"type":"city"},{"id":"au-8347709","label":"Hocking","lat":-31.77012,"lon":115.81832,"type":"city"},{"id":"au-11978598","label":"Holland Park","lat":-27.51704,"lon":153.06744,"type":"city"},{"id":"au-8348561","label":"Holland Park West","lat":-27.52625,"lon":153.06046,"type":"city"},{"id":"au-2163270","label":"Holsworthy","lat":-33.98333,"lon":150.96667,"type":"city"},{"id":"au-2163256","label":"Homebush","lat":-33.86667,"lon":151.08333,"type":"city"},{"id":"au-9972758","label":"Homebush West","lat":-33.86269,"lon":151.06696,"type":"city"},{"id":"au-8310718","label":"Hope Island","lat":-27.87036,"lon":153.35164,"type":"city"},{"id":"au-2069646","label":"Hope Valley","lat":-34.83333,"lon":138.7,"type":"city"},{"id":"au-7281807","label":"Hoppers Crossing","lat":-37.88264,"lon":144.7003,"type":"city"},{"id":"au-2163137","label":"Hornsby","lat":-33.70244,"lon":151.09931,"type":"city"},{"id":"au-9972759","label":"Hornsby Heights","lat":-33.6713,"lon":151.09428,"type":"city"},{"id":"au-2163055","label":"Horsham","lat":-36.71131,"lon":142.19981,"type":"city"},{"id":"au-8347786","label":"Horsley","lat":-34.48763,"lon":150.77799,"type":"city"},{"id":"au-8310720","label":"Howard Springs","lat":-12.49576,"lon":131.04446,"type":"city"},{"id":"au-6692248","label":"Howrah","lat":-42.88728,"lon":147.40554,"type":"city"},{"id":"au-2162970","label":"Hughesdale","lat":-37.9,"lon":145.08333,"type":"city"},{"id":"au-2207809","label":"Hunters Hill","lat":-33.83432,"lon":151.1459,"type":"city"},{"id":"au-8349269","label":"Huntingdale","lat":-32.08318,"lon":115.96614,"type":"city"},{"id":"au-9972762","label":"Hurstville","lat":-33.9677,"lon":151.10149,"type":"city"},{"id":"au-2206005","label":"Illawong","lat":-34,"lon":151.03333,"type":"city"},{"id":"au-6697153","label":"Iluka","lat":-31.73554,"lon":115.73058,"type":"city"},{"id":"au-6931021","label":"Inala","lat":-27.59715,"lon":152.97432,"type":"city"},{"id":"au-6943573","label":"Indooroopilly","lat":-27.50302,"lon":152.97518,"type":"city"},{"id":"au-2069375","label":"Ingle Farm","lat":-34.83333,"lon":138.63333,"type":"city"},{"id":"au-2162733","label":"Ingleburn","lat":-34,"lon":150.86667,"type":"city"},{"id":"au-8349408","label":"Inglewood","lat":-31.91663,"lon":115.8798,"type":"city"},{"id":"au-8348392","label":"Innaloo","lat":-31.89272,"lon":115.79508,"type":"city"},{"id":"au-2162662","label":"Inverell","lat":-29.77403,"lon":151.11166,"type":"city"},{"id":"au-2162658","label":"Inverloch","lat":-38.62659,"lon":145.7226,"type":"city"},{"id":"au-2162586","label":"Irymple","lat":-34.23537,"lon":142.17101,"type":"city"},{"id":"au-8348012","label":"Ivanhoe","lat":-37.76903,"lon":145.04308,"type":"city"},{"id":"au-8348618","label":"Jamisontown","lat":-33.76797,"lon":150.67681,"type":"city"},{"id":"au-2162419","label":"Jannali","lat":-34.01643,"lon":151.06065,"type":"city"},{"id":"au-8348605","label":"Jerrabomberra","lat":-35.38441,"lon":149.20248,"type":"city"},{"id":"au-2162276","label":"Jimboomba","lat":-27.83118,"lon":153.02737,"type":"city"},{"id":"au-2162255","label":"Jindabyne","lat":-36.41745,"lon":148.62254,"type":"city"},{"id":"au-8349277","label":"Jindalee","lat":-27.53446,"lon":152.93843,"type":"city"},{"id":"au-6695255","label":"Joondalup","lat":-31.74445,"lon":115.76835,"type":"city"},{"id":"au-11704265","label":"Jordan Springs","lat":-33.72138,"lon":150.72873,"type":"city"},{"id":"au-11695435","label":"Kalamunda","lat":-31.97372,"lon":116.05845,"type":"city"},{"id":"au-6619483","label":"Kaleen","lat":-35.21814,"lon":149.10516,"type":"city"},{"id":"au-2068823","label":"Kalgoorlie","lat":-30.74614,"lon":121.4742,"type":"city"},{"id":"au-6943560","label":"Kallangur","lat":-27.25204,"lon":152.99226,"type":"city"},{"id":"au-10055413","label":"Kallaroo","lat":-31.79098,"lon":115.75298,"type":"city"},{"id":"au-8348370","label":"Kambah","lat":-35.38624,"lon":149.05804,"type":"city"},{"id":"au-8348608","label":"Kanahooka","lat":-34.4916,"lon":150.80817,"type":"city"},{"id":"au-2161903","label":"Kangaroo Flat","lat":-36.8,"lon":144.25,"type":"city"},{"id":"au-8349247","label":"Kangaroo Point","lat":-27.47679,"lon":153.0367,"type":"city"},{"id":"au-8348612","label":"Karabar","lat":-35.37595,"lon":149.2328,"type":"city"},{"id":"au-8349071","label":"Kardinya","lat":-32.06561,"lon":115.81483,"type":"city"},{"id":"au-8348614","label":"Kariong","lat":-33.43972,"lon":151.29453,"type":"city"},{"id":"au-6620339","label":"Karratha","lat":-20.73765,"lon":116.84629,"type":"city"},{"id":"au-8349072","label":"Karrinyup","lat":-31.87233,"lon":115.77684,"type":"city"},{"id":"au-2068655","label":"Katherine","lat":-14.46517,"lon":132.26347,"type":"city"},{"id":"au-2161776","label":"Katoomba","lat":-33.71977,"lon":150.30739,"type":"city"},{"id":"au-8349198","label":"Kearneys Spring","lat":-27.60495,"lon":151.94098,"type":"city"},{"id":"au-8348750","label":"Kedron","lat":-27.40286,"lon":153.02969,"type":"city"},{"id":"au-2161719","label":"Keilor","lat":-37.71667,"lon":144.83333,"type":"city"},{"id":"au-9972569","label":"Keilor Downs","lat":-37.72337,"lon":144.80839,"type":"city"},{"id":"au-9972422","label":"Keilor East","lat":-37.73261,"lon":144.86504,"type":"city"},{"id":"au-8347736","label":"Kellyville","lat":-33.71028,"lon":150.95095,"type":"city"},{"id":"au-9972765","label":"Kellyville Ridge","lat":-33.70156,"lon":150.9179,"type":"city"},{"id":"au-2068594","label":"Kelmscott","lat":-32.12434,"lon":116.0259,"type":"city"},{"id":"au-2161678","label":"Kelso","lat":-33.41667,"lon":149.6,"type":"city"},{"id":"au-8349248","label":"Kelso","lat":-19.38932,"lon":146.71912,"type":"city"},{"id":"au-6931015","label":"Kelvin Grove","lat":-27.44819,"lon":153.01337,"type":"city"},{"id":"au-2161658","label":"Kempsey","lat":-31.07898,"lon":152.83093,"type":"city"},{"id":"au-6931020","label":"Kenmore","lat":-27.50759,"lon":152.93879,"type":"city"},{"id":"au-2161613","label":"Kennington","lat":-36.77128,"lon":144.30298,"type":"city"},{"id":"au-2161608","label":"Kensington","lat":-33.92019,"lon":151.22241,"type":"city"},{"id":"au-2161609","label":"Kensington","lat":-37.79188,"lon":144.93114,"type":"city"},{"id":"au-2068569","label":"Kenwick","lat":-32.03333,"lon":115.96667,"type":"city"},{"id":"au-6943584","label":"Keperra","lat":-27.41376,"lon":152.94703,"type":"city"},{"id":"au-2161540","label":"Kew","lat":-37.80639,"lon":145.03086,"type":"city"},{"id":"au-7932628","label":"Kew East","lat":-37.79758,"lon":145.05378,"type":"city"},{"id":"au-7284453","label":"Kewarra Beach","lat":-16.78219,"lon":145.68455,"type":"city"},{"id":"au-8349075","label":"Kewdale","lat":-31.97886,"lon":115.95159,"type":"city"},{"id":"au-2161532","label":"Keysborough","lat":-37.99116,"lon":145.17385,"type":"city"},{"id":"au-8348020","label":"Kialla","lat":-36.44729,"lon":145.41422,"type":"city"},{"id":"au-2161515","label":"Kiama","lat":-34.66828,"lon":150.85219,"type":"city"},{"id":"au-8349138","label":"Kilburn","lat":-34.8597,"lon":138.58559,"type":"city"},{"id":"au-9972778","label":"Killara","lat":-33.76604,"lon":151.16213,"type":"city"},{"id":"au-11704261","label":"Killarney Vale","lat":-33.36319,"lon":151.45799,"type":"city"},{"id":"au-2161415","label":"Kilmore","lat":-37.29577,"lon":144.95252,"type":"city"},{"id":"au-2161408","label":"Kilsyth","lat":-37.8,"lon":145.31667,"type":"city"},{"id":"au-2161376","label":"Kingaroy","lat":-26.53994,"lon":151.8373,"type":"city"},{"id":"au-8348984","label":"Kings Langley","lat":-33.75005,"lon":150.93542,"type":"city"},{"id":"au-8347839","label":"Kings Park","lat":-37.73397,"lon":144.77766,"type":"city"},{"id":"au-2161335","label":"Kingscliff","lat":-28.25983,"lon":153.57816,"type":"city"},{"id":"au-6621337","label":"Kingsford","lat":-33.92399,"lon":151.22749,"type":"city"},{"id":"au-8348621","label":"Kingsgrove","lat":-33.93932,"lon":151.09928,"type":"city"},{"id":"au-8349069","label":"Kingsley","lat":-31.81036,"lon":115.80077,"type":"city"},{"id":"au-2161311","label":"Kingston","lat":-42.97638,"lon":147.30351,"type":"city"},{"id":"au-2161315","label":"Kingston","lat":-27.66667,"lon":153.11667,"type":"city"},{"id":"au-9972786","label":"Kingswood Park","lat":-33.76651,"lon":150.7144,"type":"city"},{"id":"au-6697151","label":"Kinross","lat":-31.71868,"lon":115.73839,"type":"city"},{"id":"au-7932689","label":"Kippa-Ring","lat":-27.22586,"lon":153.0835,"type":"city"},{"id":"au-2205970","label":"Kirrawee","lat":-34.03831,"lon":151.06903,"type":"city"},{"id":"au-8349354","label":"Kirwan","lat":-19.30323,"lon":146.72531,"type":"city"},{"id":"au-6621338","label":"Klemzig","lat":-34.87928,"lon":138.63562,"type":"city"},{"id":"au-8348488","label":"Knoxfield","lat":-37.88978,"lon":145.24962,"type":"city"},{"id":"au-2161185","label":"Kogarah","lat":-33.9681,"lon":151.13564,"type":"city"},{"id":"au-8348139","label":"Kooringal","lat":-35.14069,"lon":147.3768,"type":"city"},{"id":"au-8347851","label":"Kosciuszko National Park","lat":-36.26436,"lon":148.48179,"type":"city"},{"id":"au-8348876","label":"Kuraby","lat":-27.60683,"lon":153.09367,"type":"city"},{"id":"au-2160922","label":"Kurri Kurri","lat":-32.81933,"lon":151.47908,"type":"city"},{"id":"au-7932575","label":"Kurunjang","lat":-37.67587,"lon":144.5969,"type":"city"},{"id":"au-2068079","label":"Kwinana","lat":-32.23013,"lon":115.78128,"type":"city"},{"id":"au-2160910","label":"Kyabram","lat":-36.31335,"lon":145.05035,"type":"city"},{"id":"au-2160885","label":"Kyneton","lat":-37.24444,"lon":144.45148,"type":"city"},{"id":"au-8012683","label":"Labrador","lat":-27.94402,"lon":153.39815,"type":"city"},{"id":"au-2160774","label":"Lake Albert","lat":-35.16667,"lon":147.38333,"type":"city"},{"id":"au-8310728","label":"Lake Munmorah","lat":-33.19716,"lon":151.5824,"type":"city"},{"id":"au-2160744","label":"Lakemba","lat":-33.91972,"lon":151.07592,"type":"city"},{"id":"au-2160706","label":"Lalor","lat":-37.66667,"lon":145.01667,"type":"city"},{"id":"au-8348633","label":"Lalor Park","lat":-33.7609,"lon":150.93123,"type":"city"},{"id":"au-8349177","label":"Landsdale","lat":-31.8075,"lon":115.86599,"type":"city"},{"id":"au-2160625","label":"Lane Cove","lat":-33.8157,"lon":151.16679,"type":"city"},{"id":"au-9172072","label":"Lane Cove North","lat":-33.80543,"lon":151.16638,"type":"city"},{"id":"au-8348634","label":"Langford","lat":-32.04092,"lon":115.94157,"type":"city"},{"id":"au-2160582","label":"Langwarrin","lat":-38.16667,"lon":145.16667,"type":"city"},{"id":"au-2160560","label":"Lara","lat":-38.02388,"lon":144.40617,"type":"city"},{"id":"au-2160517","label":"Launceston","lat":-41.43876,"lon":147.13467,"type":"city"},{"id":"au-2207598","label":"Laverton","lat":-37.86201,"lon":144.76979,"type":"city"},{"id":"au-2160493","label":"Lavington","lat":-36.03976,"lon":146.93958,"type":"city"},{"id":"au-2160484","label":"Lawnton","lat":-27.28333,"lon":152.98333,"type":"city"},{"id":"au-8348304","label":"Leeming","lat":-32.07511,"lon":115.86613,"type":"city"},{"id":"au-2160413","label":"Leeton","lat":-34.55105,"lon":146.40483,"type":"city"},{"id":"au-2160386","label":"Leichhardt","lat":-33.88341,"lon":151.15625,"type":"city"},{"id":"au-8349136","label":"Lenah Valley","lat":-42.87146,"lon":147.27514,"type":"city"},{"id":"au-8310731","label":"Lennox Head","lat":-28.79131,"lon":153.59201,"type":"city"},{"id":"au-2160339","label":"Leongatha","lat":-38.47607,"lon":145.94685,"type":"city"},{"id":"au-2160336","label":"Leopold","lat":-38.19001,"lon":144.46825,"type":"city"},{"id":"au-8349078","label":"Lesmurdie","lat":-32.00199,"lon":116.04821,"type":"city"},{"id":"au-2160299","label":"Leumeah","lat":-34.05,"lon":150.83333,"type":"city"},{"id":"au-2160258","label":"Lidcombe","lat":-33.86436,"lon":151.0397,"type":"city"},{"id":"au-2160188","label":"Lilydale","lat":-37.75,"lon":145.35,"type":"city"},{"id":"au-2207762","label":"Lilyfield","lat":-33.87499,"lon":151.1653,"type":"city"},{"id":"au-2160114","label":"Lindfield","lat":-33.78333,"lon":151.16667,"type":"city"},{"id":"au-2160113","label":"Lindisfarne","lat":-42.84837,"lon":147.36192,"type":"city"},{"id":"au-2160070","label":"Lisarow","lat":-33.38333,"lon":151.36667,"type":"city"},{"id":"au-2160053","label":"Lithgow","lat":-33.4845,"lon":150.14903,"type":"city"},{"id":"au-8348536","label":"Little Mountain","lat":-26.78436,"lon":153.09218,"type":"city"},{"id":"au-2159851","label":"Liverpool","lat":-33.91938,"lon":150.92588,"type":"city"},{"id":"au-8348996","label":"Lockleys","lat":-34.92588,"lon":138.52803,"type":"city"},{"id":"au-8348882","label":"Logan Central","lat":-27.64385,"lon":153.10725,"type":"city"},{"id":"au-7281838","label":"Logan City","lat":-27.63917,"lon":153.10944,"type":"city"},{"id":"au-2159734","label":"Loganholme","lat":-27.68444,"lon":153.1864,"type":"city"},{"id":"au-2159732","label":"Loganlea","lat":-27.67535,"lon":153.13472,"type":"city"},{"id":"au-2159654","label":"Long Jetty","lat":-33.35917,"lon":151.48834,"type":"city"},{"id":"au-2206006","label":"Lugarno","lat":-33.98267,"lon":151.04184,"type":"city"},{"id":"au-8349047","label":"Lurnea","lat":-33.93539,"lon":150.89673,"type":"city"},{"id":"au-8347982","label":"Lynbrook","lat":-38.05588,"lon":145.25615,"type":"city"},{"id":"au-8347876","label":"Lyneham","lat":-35.2398,"lon":149.13074,"type":"city"},{"id":"au-2159291","label":"Lysterfield","lat":-37.93333,"lon":145.3,"type":"city"},{"id":"au-6943576","label":"Macgregor","lat":-27.5649,"lon":153.0665,"type":"city"},{"id":"au-8348907","label":"Macgregor","lat":-35.2098,"lon":149.01101,"type":"city"},{"id":"au-2159220","label":"Mackay","lat":-21.15345,"lon":149.16554,"type":"city"},{"id":"au-2159177","label":"Macleod","lat":-37.723,"lon":145.073,"type":"city"},{"id":"au-8348658","label":"Macquarie Fields","lat":-33.99206,"lon":150.89307,"type":"city"},{"id":"au-8347858","label":"Macquarie Park","lat":-33.78105,"lon":151.12757,"type":"city"},{"id":"au-2067260","label":"Maddington","lat":-32.05,"lon":115.98333,"type":"city"},{"id":"au-8348405","label":"Madeley","lat":-31.8111,"lon":115.82814,"type":"city"},{"id":"au-2159131","label":"Maffra","lat":-37.97132,"lon":146.98366,"type":"city"},{"id":"au-8348077","label":"Magill","lat":-34.90911,"lon":138.67498,"type":"city"},{"id":"au-6621340","label":"Maidstone","lat":-37.78035,"lon":144.87353,"type":"city"},{"id":"au-6941781","label":"Main Beach","lat":-27.97879,"lon":153.4266,"type":"city"},{"id":"au-2159045","label":"Maitland","lat":-32.73308,"lon":151.5574,"type":"city"},{"id":"au-2159018","label":"Malabar","lat":-33.96216,"lon":151.24796,"type":"city"},{"id":"au-2158952","label":"Malvern","lat":-37.86259,"lon":145.02811,"type":"city"},{"id":"au-7932638","label":"Malvern East","lat":-37.87397,"lon":145.04253,"type":"city"},{"id":"au-2067119","label":"Mandurah","lat":-32.5269,"lon":115.7217,"type":"city"},{"id":"au-11523848","label":"Mandurah city centre","lat":-32.52644,"lon":115.73361,"type":"city"},{"id":"au-6943561","label":"Mango Hill","lat":-27.24349,"lon":153.02384,"type":"city"},{"id":"au-2158867","label":"Manly","lat":-33.79798,"lon":151.28826,"type":"city"},{"id":"au-11704259","label":"Manly Vale","lat":-33.78457,"lon":151.262,"type":"city"},{"id":"au-9957521","label":"Manly West","lat":-27.47382,"lon":153.16641,"type":"city"},{"id":"au-8348165","label":"Manoora","lat":-16.91706,"lon":145.73665,"type":"city"},{"id":"au-9957346","label":"Mansfield","lat":-27.53929,"lon":153.09895,"type":"city"},{"id":"au-8348896","label":"Manunda","lat":-16.91721,"lon":145.7492,"type":"city"},{"id":"au-11073472","label":"Marangaroo","lat":-31.82711,"lon":115.83843,"type":"city"},{"id":"au-8348667","label":"Marayong","lat":-33.74824,"lon":150.89272,"type":"city"},{"id":"au-2158767","label":"Mareeba","lat":-16.99096,"lon":145.42306,"type":"city"},{"id":"au-2066981","label":"Margaret River","lat":-33.95504,"lon":115.07599,"type":"city"},{"id":"au-2158745","label":"Margate","lat":-27.24761,"lon":153.09809,"type":"city"},{"id":"au-2158724","label":"Maribyrnong","lat":-37.77241,"lon":144.88435,"type":"city"},{"id":"au-2207268","label":"Maroochydore","lat":-26.66008,"lon":153.09953,"type":"city"},{"id":"au-2158651","label":"Maroubra","lat":-33.95,"lon":151.23333,"type":"city"},{"id":"au-2158626","label":"Marrickville","lat":-33.90741,"lon":151.15546,"type":"city"},{"id":"au-8348890","label":"Marsden","lat":-27.67342,"lon":153.09732,"type":"city"},{"id":"au-9972821","label":"Marsfield","lat":-33.77784,"lon":151.10574,"type":"city"},{"id":"au-2158561","label":"Maryborough","lat":-37.04562,"lon":143.73923,"type":"city"},{"id":"au-2158562","label":"Maryborough","lat":-25.54073,"lon":152.70493,"type":"city"},{"id":"au-8347845","label":"Maryland","lat":-32.87888,"lon":151.66143,"type":"city"},{"id":"au-2158538","label":"Mascot","lat":-33.92598,"lon":151.19347,"type":"city"},{"id":"au-2158504","label":"Matraville","lat":-33.96344,"lon":151.23195,"type":"city"},{"id":"au-2158494","label":"Maudsland","lat":-27.95,"lon":153.26667,"type":"city"},{"id":"au-8349323","label":"Mawson Lakes","lat":-34.81589,"lon":138.60809,"type":"city"},{"id":"au-10103855","label":"Mayfield","lat":-32.89793,"lon":151.73613,"type":"city"},{"id":"au-2066756","label":"Maylands","lat":-31.93097,"lon":115.89486,"type":"city"},{"id":"au-8348883","label":"McDowall","lat":-27.38266,"lon":152.99194,"type":"city"},{"id":"au-2158307","label":"McKinnon","lat":-37.911,"lon":145.038,"type":"city"},{"id":"au-8348967","label":"Meadow Heights","lat":-37.65117,"lon":144.91855,"type":"city"},{"id":"au-8348465","label":"Meadow Springs","lat":-32.49718,"lon":115.75334,"type":"city"},{"id":"au-2158220","label":"Medowie","lat":-32.7415,"lon":151.8676,"type":"city"},{"id":"au-2158177","label":"Melbourne","lat":-37.814,"lon":144.96332,"type":"city"},{"id":"au-11523810","label":"Melbourne City Centre","lat":-37.81501,"lon":144.96657,"type":"city"},{"id":"au-2158151","label":"Melton","lat":-37.68339,"lon":144.58543,"type":"city"},{"id":"au-2158145","label":"Melton South","lat":-37.70773,"lon":144.57493,"type":"city"},{"id":"au-7932573","label":"Melton West","lat":-37.67852,"lon":144.56883,"type":"city"},{"id":"au-8349390","label":"Melville","lat":-32.04039,"lon":115.80116,"type":"city"},{"id":"au-2158130","label":"Menai","lat":-34.01667,"lon":151.01667,"type":"city"},{"id":"au-2158109","label":"Mentone","lat":-37.98333,"lon":145.06667,"type":"city"},{"id":"au-8348074","label":"Merewether","lat":-32.94801,"lon":151.74325,"type":"city"},{"id":"au-7535702","label":"Mermaid Beach","lat":-28.04411,"lon":153.43472,"type":"city"},{"id":"au-10063458","label":"Mermaid Waters","lat":-28.04912,"lon":153.43081,"type":"city"},{"id":"au-2158051","label":"Mernda","lat":-37.60075,"lon":145.09555,"type":"city"},{"id":"au-8348245","label":"Merrimac","lat":-28.05085,"lon":153.37307,"type":"city"},{"id":"au-8348105","label":"Merriwa","lat":-31.66494,"lon":115.71273,"type":"city"},{"id":"au-2157995","label":"Merrylands","lat":-33.83333,"lon":150.98333,"type":"city"},{"id":"au-9972823","label":"Merrylands West","lat":-33.83269,"lon":150.96906,"type":"city"},{"id":"au-7932257","label":"Miami","lat":-28.07173,"lon":153.44158,"type":"city"},{"id":"au-8349351","label":"Middle Ridge","lat":-27.60709,"lon":151.96688,"type":"city"},{"id":"au-9972825","label":"Middleton Grange","lat":-33.91704,"lon":150.84186,"type":"city"},{"id":"au-2066338","label":"Midland","lat":-31.88909,"lon":116.0107,"type":"city"},{"id":"au-2157698","label":"Mildura","lat":-34.18551,"lon":142.16251,"type":"city"},{"id":"au-2157635","label":"Mill Park","lat":-37.66667,"lon":145.06667,"type":"city"},{"id":"au-8348687","label":"Minchinbury","lat":-33.78724,"lon":150.82956,"type":"city"},{"id":"au-6697141","label":"Mindarie","lat":-31.68932,"lon":115.70698,"type":"city"},{"id":"au-2157508","label":"Minto","lat":-34.03333,"lon":150.85,"type":"city"},{"id":"au-2157495","label":"Miranda","lat":-34.03857,"lon":151.10005,"type":"city"},{"id":"au-8349445","label":"Mirrabooka","lat":-31.85963,"lon":115.86587,"type":"city"},{"id":"au-2157410","label":"Mitcham","lat":-37.81667,"lon":145.2,"type":"city"},{"id":"au-8347903","label":"Mitchell Park","lat":-35.01031,"lon":138.56266,"type":"city"},{"id":"au-2157380","label":"Mitchelton","lat":-27.41667,"lon":152.96667,"type":"city"},{"id":"au-2157373","label":"Mittagong","lat":-34.45002,"lon":150.44572,"type":"city"},{"id":"au-2157355","label":"Moama","lat":-36.10413,"lon":144.7608,"type":"city"},{"id":"au-2066041","label":"Modbury","lat":-34.83333,"lon":138.68333,"type":"city"},{"id":"au-9973271","label":"Modbury Heights","lat":-34.80969,"lon":138.68544,"type":"city"},{"id":"au-9973272","label":"Modbury North","lat":-34.82848,"lon":138.6739,"type":"city"},{"id":"au-2157343","label":"Moe","lat":-38.17828,"lon":146.26099,"type":"city"},{"id":"au-8348249","label":"Molendinar","lat":-27.97409,"lon":153.36069,"type":"city"},{"id":"au-2157243","label":"Mona Vale","lat":-33.67757,"lon":151.30307,"type":"city"},{"id":"au-8349310","label":"Monash","lat":-35.41577,"lon":149.09063,"type":"city"},{"id":"au-7932630","label":"Mont Albert North","lat":-37.80043,"lon":145.10828,"type":"city"},{"id":"au-2157167","label":"Montmorency","lat":-37.71667,"lon":145.11667,"type":"city"},{"id":"au-2157161","label":"Montrose","lat":-37.81667,"lon":145.35,"type":"city"},{"id":"au-2157109","label":"Mooloolaba","lat":-26.68164,"lon":153.11925,"type":"city"},{"id":"au-2157090","label":"Moonah","lat":-42.84617,"lon":147.30228,"type":"city"},{"id":"au-2157056","label":"Moonee Ponds","lat":-37.76667,"lon":144.91667,"type":"city"},{"id":"au-2157026","label":"Moorabbin","lat":-37.94146,"lon":145.05779,"type":"city"},{"id":"au-8347678","label":"Moorebank","lat":-33.94372,"lon":150.95657,"type":"city"},{"id":"au-8348895","label":"Mooroobool","lat":-16.93489,"lon":145.73137,"type":"city"},{"id":"au-8348900","label":"Moorooka","lat":-27.53436,"lon":153.0246,"type":"city"},{"id":"au-2156977","label":"Mooroolbark","lat":-37.78247,"lon":145.31682,"type":"city"},{"id":"au-2156974","label":"Mooroopna","lat":-36.4,"lon":145.35,"type":"city"},{"id":"au-6533368","label":"Moranbah","lat":-22.00163,"lon":148.04661,"type":"city"},{"id":"au-2156934","label":"Morayfield","lat":-27.10876,"lon":152.94907,"type":"city"},{"id":"au-2156933","label":"Mordialloc","lat":-38,"lon":145.08333,"type":"city"},{"id":"au-2156927","label":"Moree","lat":-29.46278,"lon":149.84157,"type":"city"},{"id":"au-8349083","label":"Morley","lat":-31.88775,"lon":115.9099,"type":"city"},{"id":"au-9957543","label":"Morningside","lat":-27.46165,"lon":153.07511,"type":"city"},{"id":"au-2156878","label":"Mornington","lat":-38.21792,"lon":145.03876,"type":"city"},{"id":"au-2065740","label":"Morphett Vale","lat":-35.13333,"lon":138.51667,"type":"city"},{"id":"au-2156853","label":"Mortdale","lat":-33.96897,"lon":151.07231,"type":"city"},{"id":"au-2156825","label":"Morwell","lat":-38.23476,"lon":146.39499,"type":"city"},{"id":"au-2156813","label":"Mosman","lat":-33.83902,"lon":151.23956,"type":"city"},{"id":"au-2065710","label":"Mosman Park","lat":-32.00538,"lon":115.7638,"type":"city"},{"id":"au-2156777","label":"Moss Vale","lat":-34.55374,"lon":150.37115,"type":"city"},{"id":"au-7778951","label":"Mount Annan","lat":-34.05287,"lon":150.75984,"type":"city"},{"id":"au-2065665","label":"Mount Barker","lat":-35.06667,"lon":138.86667,"type":"city"},{"id":"au-2156694","label":"Mount Colah","lat":-33.68333,"lon":151.11667,"type":"city"},{"id":"au-2156683","label":"Mount Cotton","lat":-27.63333,"lon":153.23333,"type":"city"},{"id":"au-2156671","label":"Mount Druitt","lat":-33.76667,"lon":150.81667,"type":"city"},{"id":"au-2156663","label":"Mount Eliza","lat":-38.18333,"lon":145.08333,"type":"city"},{"id":"au-2156652","label":"Mount Evelyn","lat":-37.78333,"lon":145.38333,"type":"city"},{"id":"au-2156643","label":"Mount Gambier","lat":-37.8318,"lon":140.77919,"type":"city"},{"id":"au-9957347","label":"Mount Gravatt East","lat":-27.5405,"lon":153.08221,"type":"city"},{"id":"au-8349084","label":"Mount Hawthorn","lat":-31.92,"lon":115.83509,"type":"city"},{"id":"au-2065594","label":"Mount Isa","lat":-20.72523,"lon":139.49727,"type":"city"},{"id":"au-6941710","label":"Mount Lawley","lat":-31.93439,"lon":115.8716,"type":"city"},{"id":"au-10104896","label":"Mount Louisa","lat":-19.274,"lon":146.75091,"type":"city"},{"id":"au-2156578","label":"Mount Martha","lat":-38.26667,"lon":145.01667,"type":"city"},{"id":"au-10056968","label":"Mount Pleasant","lat":-32.03974,"lon":115.84993,"type":"city"},{"id":"au-8348692","label":"Mount Pritchard","lat":-33.90295,"lon":150.90465,"type":"city"},{"id":"au-8348842","label":"Mount Sheridan","lat":-16.98608,"lon":145.73244,"type":"city"},{"id":"au-8348285","label":"Mount Warren Park","lat":-27.73109,"lon":153.20549,"type":"city"},{"id":"au-2156492","label":"Mount Waverley","lat":-37.87709,"lon":145.12939,"type":"city"},{"id":"au-8349412","label":"Mountain Creek","lat":-26.70278,"lon":153.10133,"type":"city"},{"id":"au-2156404","label":"Mudgee","lat":-32.59426,"lon":149.5871,"type":"city"},{"id":"au-2156403","label":"Mudgeeraba","lat":-28.08333,"lon":153.36667,"type":"city"},{"id":"au-2156340","label":"Mulgrave","lat":-37.92845,"lon":145.17708,"type":"city"},{"id":"au-2079189","label":"Mullaloo","lat":-31.77896,"lon":115.73676,"type":"city"},{"id":"au-8348311","label":"Munno Para West","lat":-34.657,"lon":138.671,"type":"city"},{"id":"au-2065176","label":"Murray Bridge","lat":-35.11986,"lon":139.27345,"type":"city"},{"id":"au-8348442","label":"Murrumba Downs","lat":-27.26733,"lon":153.01053,"type":"city"},{"id":"au-2156067","label":"Murrumbeena","lat":-37.9,"lon":145.06667,"type":"city"},{"id":"au-2156049","label":"Murwillumbah","lat":-28.32732,"lon":153.39339,"type":"city"},{"id":"au-2156034","label":"Muswellbrook","lat":-32.26118,"lon":150.89009,"type":"city"},{"id":"au-2155862","label":"Nambour","lat":-26.62613,"lon":152.95941,"type":"city"},{"id":"au-2155859","label":"Nambucca","lat":-30.63333,"lon":152.98333,"type":"city"},{"id":"au-2155858","label":"Nambucca Heads","lat":-30.64318,"lon":153.00884,"type":"city"},{"id":"au-2155796","label":"Naracoorte","lat":-36.95785,"lon":140.7383,"type":"city"},{"id":"au-2155787","label":"Narangba","lat":-27.20338,"lon":152.95923,"type":"city"},{"id":"au-2155783","label":"Narara","lat":-33.39593,"lon":151.33527,"type":"city"},{"id":"au-9972832","label":"Narellan Vale","lat":-34.04974,"lon":150.74392,"type":"city"},{"id":"au-8347890","label":"Naremburn","lat":-33.81698,"lon":151.20079,"type":"city"},{"id":"au-2155745","label":"Narrabeen","lat":-33.71277,"lon":151.29736,"type":"city"},{"id":"au-2155742","label":"Narrabri","lat":-30.32488,"lon":149.78266,"type":"city"},{"id":"au-8349435","label":"Narrabundah","lat":-35.3357,"lon":149.14924,"type":"city"},{"id":"au-9972833","label":"Narraweena","lat":-33.75519,"lon":151.27659,"type":"city"},{"id":"au-2155718","label":"Narre Warren","lat":-38.03333,"lon":145.3,"type":"city"},{"id":"au-2155717","label":"Narre Warren North","lat":-37.98333,"lon":145.31667,"type":"city"},{"id":"au-9972518","label":"Narre Warren South","lat":-38.04369,"lon":145.2923,"type":"city"},{"id":"au-8348724","label":"Narwee","lat":-33.94653,"lon":151.06919,"type":"city"},{"id":"au-2064874","label":"Nedlands","lat":-31.98184,"lon":115.8073,"type":"city"},{"id":"au-2155562","label":"Nelson Bay","lat":-32.72043,"lon":152.14398,"type":"city"},{"id":"au-2155542","label":"Nerang","lat":-27.98941,"lon":153.33633,"type":"city"},{"id":"au-2207880","label":"Neutral Bay","lat":-33.83784,"lon":151.2175,"type":"city"},{"id":"au-2207249","label":"New Farm","lat":-27.46777,"lon":153.04834,"type":"city"},{"id":"au-2205629","label":"New Lambton","lat":-32.92838,"lon":151.7085,"type":"city"},{"id":"au-2155415","label":"New Norfolk","lat":-42.78261,"lon":147.0587,"type":"city"},{"id":"au-2206068","label":"New Town","lat":-42.85758,"lon":147.30869,"type":"city"},{"id":"au-8348181","label":"Newborough","lat":-38.17171,"lon":146.29264,"type":"city"},{"id":"au-2155472","label":"Newcastle","lat":-32.92953,"lon":151.7801,"type":"city"},{"id":"au-9972834","label":"Newington","lat":-33.83488,"lon":151.05703,"type":"city"},{"id":"au-2064768","label":"Newman","lat":-23.35644,"lon":119.73553,"type":"city"},{"id":"au-2155416","label":"Newnham","lat":-41.38969,"lon":147.11397,"type":"city"},{"id":"au-2155411","label":"Newport","lat":-37.84427,"lon":144.88483,"type":"city"},{"id":"au-2155412","label":"Newport","lat":-33.65639,"lon":151.31401,"type":"city"},{"id":"au-2155386","label":"Newtown","lat":-33.89835,"lon":151.17754,"type":"city"},{"id":"au-8348594","label":"Newtown","lat":-27.55602,"lon":151.93255,"type":"city"},{"id":"au-8348982","label":"Newtown","lat":-38.15391,"lon":144.33507,"type":"city"},{"id":"au-8349187","label":"Ngunnawal","lat":-35.1728,"lon":149.11147,"type":"city"},{"id":"au-8349185","label":"Nicholls","lat":-35.18733,"lon":149.09648,"type":"city"},{"id":"au-6290237","label":"Niddrie","lat":-37.7375,"lon":144.89212,"type":"city"},{"id":"au-2155204","label":"Noble Park","lat":-37.96667,"lon":145.16667,"type":"city"},{"id":"au-9972524","label":"Noble Park North","lat":-37.94978,"lon":145.19257,"type":"city"},{"id":"au-8348619","label":"Nollamara","lat":-31.88016,"lon":115.84543,"type":"city"},{"id":"au-2155135","label":"Noosa Heads","lat":-26.39433,"lon":153.0901,"type":"city"},{"id":"au-2155132","label":"Noosaville","lat":-26.4,"lon":153.06667,"type":"city"},{"id":"au-8348087","label":"Noranda","lat":-31.87333,"lon":115.89901,"type":"city"},{"id":"au-2207153","label":"Norlane","lat":-38.10139,"lon":144.35417,"type":"city"},{"id":"au-8347999","label":"Norman Gardens","lat":-23.33044,"lon":150.52747,"type":"city"},{"id":"au-2207250","label":"Norman Park","lat":-27.47916,"lon":153.0625,"type":"city"},{"id":"au-2155092","label":"Normanhurst","lat":-33.7237,"lon":151.09576,"type":"city"},{"id":"au-8469169","label":"North Adelaide","lat":-34.90733,"lon":138.59141,"type":"city"},{"id":"au-10116099","label":"North Albury","lat":-36.05745,"lon":146.92995,"type":"city"},{"id":"au-9972847","label":"North Bondi","lat":-33.88787,"lon":151.28075,"type":"city"},{"id":"au-8348382","label":"North Haven","lat":-34.78825,"lon":138.49162,"type":"city"},{"id":"au-6943562","label":"North Lakes","lat":-27.22426,"lon":153.02075,"type":"city"},{"id":"au-2154917","label":"North Mackay","lat":-21.12009,"lon":149.17941,"type":"city"},{"id":"au-2154912","label":"North Melbourne","lat":-37.79798,"lon":144.94512,"type":"city"},{"id":"au-6693769","label":"North Narrabeen","lat":-33.70935,"lon":151.29607,"type":"city"},{"id":"au-11704267","label":"North Nowra","lat":-34.85822,"lon":150.57479,"type":"city"},{"id":"au-8299775","label":"North Parramatta","lat":-33.79351,"lon":151.00124,"type":"city"},{"id":"au-8288536","label":"North Perth","lat":-31.92724,"lon":115.85276,"type":"city"},{"id":"au-8347895","label":"North Rocks","lat":-33.77223,"lon":151.01718,"type":"city"},{"id":"au-7281782","label":"North Ryde","lat":-33.79677,"lon":151.12436,"type":"city"},{"id":"au-2154855","label":"North Sydney","lat":-33.839,"lon":151.2072,"type":"city"},{"id":"au-10114337","label":"North Tamworth","lat":-31.07862,"lon":150.92219,"type":"city"},{"id":"au-8348456","label":"North Ward","lat":-19.24994,"lon":146.81477,"type":"city"},{"id":"au-2064550","label":"Northam","lat":-31.64932,"lon":116.67423,"type":"city"},{"id":"au-2207830","label":"Northbridge","lat":-33.81313,"lon":151.21728,"type":"city"},{"id":"au-2155001","label":"Northcote","lat":-37.76667,"lon":145,"type":"city"},{"id":"au-8349204","label":"Northgate","lat":-34.85784,"lon":138.62908,"type":"city"},{"id":"au-2154913","label":"Northmead","lat":-33.78378,"lon":150.99858,"type":"city"},{"id":"au-9973143","label":"Norwood","lat":-34.9273,"lon":138.62849,"type":"city"},{"id":"au-2154787","label":"Nowra","lat":-34.88422,"lon":150.60036,"type":"city"},{"id":"au-2154720","label":"Nunawading","lat":-37.82043,"lon":145.17308,"type":"city"},{"id":"au-6943548","label":"Nundah","lat":-27.40252,"lon":153.06165,"type":"city"},{"id":"au-2064340","label":"Nuriootpa","lat":-34.46825,"lon":138.99767,"type":"city"},{"id":"au-8348190","label":"O'Connor","lat":-35.25645,"lon":149.11248,"type":"city"},{"id":"au-8348722","label":"Oak Flats","lat":-34.56229,"lon":150.82193,"type":"city"},{"id":"au-9972465","label":"Oak Park","lat":-37.71842,"lon":144.91945,"type":"city"},{"id":"au-8348163","label":"Oakhurst","lat":-33.73883,"lon":150.83837,"type":"city"},{"id":"au-2154618","label":"Oakleigh","lat":-37.89809,"lon":145.08837,"type":"city"},{"id":"au-2154616","label":"Oakleigh East","lat":-37.9,"lon":145.11667,"type":"city"},{"id":"au-7932640","label":"Oakleigh South","lat":-37.92416,"lon":145.09146,"type":"city"},{"id":"au-8349217","label":"Oatlands","lat":-33.79595,"lon":151.02712,"type":"city"},{"id":"au-2154544","label":"Oatley","lat":-33.98004,"lon":151.07201,"type":"city"},{"id":"au-12069926","label":"Ocean Grove","lat":-38.25772,"lon":144.51919,"type":"city"},{"id":"au-8349092","label":"Ocean Reef","lat":-31.75871,"lon":115.73601,"type":"city"},{"id":"au-8310752","label":"Ocean Shores","lat":-28.5093,"lon":153.5376,"type":"city"},{"id":"au-2154481","label":"Officer","lat":-38.05916,"lon":145.40947,"type":"city"},{"id":"au-2154219","label":"Orange","lat":-33.28397,"lon":149.10018,"type":"city"},{"id":"au-2154178","label":"Ormeau","lat":-27.76791,"lon":153.2428,"type":"city"},{"id":"au-2154176","label":"Ormiston","lat":-27.51667,"lon":153.25,"type":"city"},{"id":"au-2154172","label":"Ormond","lat":-37.9,"lon":145.03333,"type":"city"},{"id":"au-7302638","label":"Oxenford","lat":-27.89033,"lon":153.31309,"type":"city"},{"id":"au-2154050","label":"Oxley","lat":-27.55,"lon":152.98333,"type":"city"},{"id":"au-2205988","label":"Oyster Bay","lat":-34.00407,"lon":151.07588,"type":"city"},{"id":"au-8348920","label":"Pacific Pines","lat":-27.93994,"lon":153.31436,"type":"city"},{"id":"au-8348655","label":"Padbury","lat":-31.80645,"lon":115.7688,"type":"city"},{"id":"au-2207753","label":"Paddington","lat":-33.88419,"lon":151.23151,"type":"city"},{"id":"au-6943586","label":"Paddington","lat":-27.45939,"lon":152.99509,"type":"city"},{"id":"au-2206008","label":"Padstow","lat":-33.95687,"lon":151.03191,"type":"city"},{"id":"au-2153953","label":"Pakenham","lat":-38.07018,"lon":145.47411,"type":"city"},{"id":"au-2153925","label":"Palm Beach","lat":-28.11694,"lon":153.46584,"type":"city"},{"id":"au-6301965","label":"Palmerston","lat":-12.48602,"lon":130.9833,"type":"city"},{"id":"au-8349170","label":"Palmerston","lat":-35.19447,"lon":149.1194,"type":"city"},{"id":"au-2153887","label":"Palmwoods","lat":-26.68584,"lon":152.96135,"type":"city"},{"id":"au-8348699","label":"Palmyra","lat":-32.04502,"lon":115.78589,"type":"city"},{"id":"au-8348725","label":"Panania","lat":-33.95366,"lon":150.99733,"type":"city"},{"id":"au-8348189","label":"Para Hills","lat":-34.8121,"lon":138.65802,"type":"city"},{"id":"au-6943454","label":"Paradise","lat":-34.87361,"lon":138.66896,"type":"city"},{"id":"au-6697782","label":"Paradise Point","lat":-27.88663,"lon":153.3933,"type":"city"},{"id":"au-8349238","label":"Parafield Gardens","lat":-34.78254,"lon":138.61077,"type":"city"},{"id":"au-8349003","label":"Paralowie","lat":-34.75705,"lon":138.60819,"type":"city"},{"id":"au-8348795","label":"Park Avenue","lat":-23.35327,"lon":150.5189,"type":"city"},{"id":"au-2153784","label":"Parkdale","lat":-37.99187,"lon":145.08128,"type":"city"},{"id":"au-2153778","label":"Parkes","lat":-33.1372,"lon":148.1759,"type":"city"},{"id":"au-8349037","label":"Parkinson","lat":-27.6434,"lon":153.02975,"type":"city"},{"id":"au-2153770","label":"Parkville","lat":-37.78333,"lon":144.95,"type":"city"},{"id":"au-8348307","label":"Parkwood","lat":-27.95461,"lon":153.36304,"type":"city"},{"id":"au-10056974","label":"Parkwood","lat":-32.04913,"lon":115.91838,"type":"city"},{"id":"au-10056976","label":"Parmelia","lat":-32.25784,"lon":115.82208,"type":"city"},{"id":"au-7281840","label":"Parramatta","lat":-33.8178,"lon":151.00348,"type":"city"},{"id":"au-2153720","label":"Pascoe Vale","lat":-37.73333,"lon":144.93333,"type":"city"},{"id":"au-9972466","label":"Pascoe Vale South","lat":-37.73973,"lon":144.94615,"type":"city"},{"id":"au-8349399","label":"Patterson Lakes","lat":-38.06934,"lon":145.14327,"type":"city"},{"id":"au-2206007","label":"Peakhurst","lat":-33.96288,"lon":151.05161,"type":"city"},{"id":"au-8348925","label":"Pelican Waters","lat":-26.83354,"lon":153.10013,"type":"city"},{"id":"au-2153496","label":"Pendle Hill","lat":-33.80402,"lon":150.95543,"type":"city"},{"id":"au-2153483","label":"Pennant Hills","lat":-33.73783,"lon":151.07216,"type":"city"},{"id":"au-2153471","label":"Penrith","lat":-33.75,"lon":150.7,"type":"city"},{"id":"au-2153467","label":"Penshurst","lat":-33.96667,"lon":151.08333,"type":"city"},{"id":"au-10104370","label":"Peregian Springs","lat":-26.48801,"lon":153.07577,"type":"city"},{"id":"au-2063523","label":"Perth","lat":-31.95224,"lon":115.8614,"type":"city"},{"id":"au-11523824","label":"Perth city centre","lat":-31.95289,"lon":115.85152,"type":"city"},{"id":"au-8348154","label":"Petersham","lat":-33.8946,"lon":151.15495,"type":"city"},{"id":"au-2153359","label":"Petrie","lat":-27.26667,"lon":152.98333,"type":"city"},{"id":"au-7302624","label":"Phillip Island","lat":-38.48349,"lon":145.23102,"type":"city"},{"id":"au-8348093","label":"Piara Waters","lat":-32.13344,"lon":115.91634,"type":"city"},{"id":"au-9972867","label":"Picnic Point","lat":-33.98062,"lon":150.99661,"type":"city"},{"id":"au-2153168","label":"Pimpama","lat":-27.81667,"lon":153.3,"type":"city"},{"id":"au-6949382","label":"Pittwater","lat":-33.66623,"lon":151.30171,"type":"city"},{"id":"au-8347892","label":"Plumpton","lat":-33.75184,"lon":150.83686,"type":"city"},{"id":"au-2152819","label":"Point Cook","lat":-37.91482,"lon":144.75088,"type":"city"},{"id":"au-2152812","label":"Point Vernon","lat":-25.25727,"lon":152.81725,"type":"city"},{"id":"au-8347884","label":"Pooraka","lat":-34.82471,"lon":138.62637,"type":"city"},{"id":"au-2063056","label":"Port Augusta","lat":-32.49597,"lon":137.77281,"type":"city"},{"id":"au-2063042","label":"Port Hedland","lat":-20.31215,"lon":118.61059,"type":"city"},{"id":"au-2152671","label":"Port Kembla","lat":-34.4818,"lon":150.9012,"type":"city"},{"id":"au-8349098","label":"Port Kennedy","lat":-32.37342,"lon":115.7515,"type":"city"},{"id":"au-2063036","label":"Port Lincoln","lat":-34.72625,"lon":135.87442,"type":"city"},{"id":"au-2152659","label":"Port Macquarie","lat":-31.43084,"lon":152.90894,"type":"city"},{"id":"au-2152658","label":"Port Melbourne","lat":-37.83961,"lon":144.94228,"type":"city"},{"id":"au-2063030","label":"Port Pirie","lat":-33.19176,"lon":138.01746,"type":"city"},{"id":"au-2152667","label":"Portland","lat":-38.3462,"lon":141.60257,"type":"city"},{"id":"au-2152625","label":"Potts Point","lat":-33.86701,"lon":151.22586,"type":"city"},{"id":"au-11704257","label":"Pottsville","lat":-28.3874,"lon":153.55857,"type":"city"},{"id":"au-2152593","label":"Prahran","lat":-37.85114,"lon":144.99318,"type":"city"},{"id":"au-2152558","label":"Preston","lat":-37.75,"lon":145.01667,"type":"city"},{"id":"au-8347914","label":"Prestons","lat":-33.94185,"lon":150.8717,"type":"city"},{"id":"au-2062944","label":"Prospect","lat":-34.88241,"lon":138.5933,"type":"city"},{"id":"au-8349222","label":"Punchbowl","lat":-33.92893,"lon":151.05111,"type":"city"},{"id":"au-2152361","label":"Pymble","lat":-33.74386,"lon":151.14188,"type":"city"},{"id":"au-2152339","label":"Pyrmont","lat":-33.86985,"lon":151.19402,"type":"city"},{"id":"au-2152329","label":"Quakers Hill","lat":-33.73333,"lon":150.88333,"type":"city"},{"id":"au-2152286","label":"Queanbeyan","lat":-35.35493,"lon":149.232,"type":"city"},{"id":"au-8348375","label":"Queens Park","lat":-32.00314,"lon":115.94621,"type":"city"},{"id":"au-2078766","label":"Quinns Rocks","lat":-31.67379,"lon":115.70372,"type":"city"},{"id":"au-8348167","label":"Raby","lat":-34.01846,"lon":150.81764,"type":"city"},{"id":"au-7932664","label":"Raceview","lat":-27.63472,"lon":152.77519,"type":"city"},{"id":"au-2208285","label":"Randwick","lat":-33.91439,"lon":151.24895,"type":"city"},{"id":"au-10114318","label":"Rangeville","lat":-27.58318,"lon":151.97997,"type":"city"},{"id":"au-2152022","label":"Raymond Terrace","lat":-32.75952,"lon":151.7505,"type":"city"},{"id":"au-2151943","label":"Red Cliffs","lat":-34.30942,"lon":142.18971,"type":"city"},{"id":"au-2151905","label":"Red Hill","lat":-20.31667,"lon":148.5,"type":"city"},{"id":"au-8349259","label":"Red Hill","lat":-27.45247,"lon":153.00208,"type":"city"},{"id":"au-7932670","label":"Redbank Plains","lat":-27.64613,"lon":152.85965,"type":"city"},{"id":"au-2151932","label":"Redfern","lat":-33.89279,"lon":151.20415,"type":"city"},{"id":"au-2151892","label":"Redland Bay","lat":-27.6113,"lon":153.30022,"type":"city"},{"id":"au-2151886","label":"Redlynch","lat":-16.9254,"lon":145.69559,"type":"city"},{"id":"au-8348380","label":"Redwood Park","lat":-34.81155,"lon":138.70695,"type":"city"},{"id":"au-8347926","label":"Reedy Creek","lat":-28.11243,"lon":153.39638,"type":"city"},{"id":"au-8349232","label":"Regents Park","lat":-27.67664,"lon":153.04165,"type":"city"},{"id":"au-2151716","label":"Reservoir","lat":-37.71667,"lon":145,"type":"city"},{"id":"au-2151697","label":"Revesby","lat":-33.95,"lon":151.01667,"type":"city"},{"id":"au-2151682","label":"Rhodes","lat":-33.82663,"lon":151.0881,"type":"city"},{"id":"au-2151649","label":"Richmond","lat":-37.81819,"lon":145.00176,"type":"city"},{"id":"au-2151650","label":"Richmond","lat":-33.59956,"lon":150.75142,"type":"city"},{"id":"au-2151576","label":"Ringwood","lat":-37.81667,"lon":145.23333,"type":"city"},{"id":"au-2151575","label":"Ringwood East","lat":-37.81667,"lon":145.25,"type":"city"},{"id":"au-2151574","label":"Ringwood North","lat":-37.8,"lon":145.23333,"type":"city"},{"id":"au-8348334","label":"Riverside","lat":-41.42105,"lon":147.05086,"type":"city"},{"id":"au-2151522","label":"Riverstone","lat":-33.68333,"lon":150.86667,"type":"city"},{"id":"au-8349278","label":"Riverton","lat":-32.03468,"lon":115.89856,"type":"city"},{"id":"au-10056984","label":"Rivervale","lat":-31.95546,"lon":115.91306,"type":"city"},{"id":"au-2206009","label":"Riverwood","lat":-33.94725,"lon":151.04973,"type":"city"},{"id":"au-8348930","label":"Robina","lat":-28.07071,"lon":153.39329,"type":"city"},{"id":"au-9958114","label":"Rochedale South","lat":-27.59521,"lon":153.12332,"type":"city"},