[{"id":"bh-290363","label":"Al Hadd","lat":26.24556,"lon":50.65417,"type":"city"},{"id":"bh-290332","label":"Al Muharraq","lat":26.25722,"lon":50.61194,"type":"city"},{"id":"bh-385038","label":"Ar Rifa'","lat":26.13,"lon":50.555,"type":"city"},{"id":"bh-290296","label":"Az Zallaq","lat":26.0475,"lon":50.48639,"type":"city"},{"id":"bh-290269","label":"Dar Kulayb","lat":26.06861,"lon":50.50389,"type":"city"},{"id":"bh-290215","label":"Jidd Hafs","lat":26.21861,"lon":50.54778,"type":"city"},{"id":"bh-290187","label":"Madinat `Isa","lat":26.17361,"lon":50.54778,"type":"city"},{"id":"bh-290247","label":"Madinat Hamad","lat":26.11528,"lon":50.50694,"type":"city"},{"id":"bh-290340","label":"Manama","lat":26.22787,"lon":50.58565,"type":"city"},{"id":"bh-290121","label":"Sanabis","lat":26.22722,"lon":50.55083,"type":"city"},{"id":"bh-290104","label":"Sitrah","lat":26.15472,"lon":50.62056,"type":"city"}]