[{"id":"ca-11791766","label":"Abbeydale","lat":51.0593,"lon":-113.92857,"type":"city"},{"id":"ca-5881791","label":"Abbotsford","lat":49.05798,"lon":-122.25257,"type":"city"},{"id":"ca-5881870","label":"Aberdeen","lat":50.65,"lon":-120.36667,"type":"city"},{"id":"ca-5882023","label":"Acadia","lat":50.97172,"lon":-114.05688,"type":"city"},{"id":"ca-5882134","label":"Acton","lat":43.62969,"lon":-80.04149,"type":"city"},{"id":"ca-5882142","label":"Acton Vale","lat":45.65007,"lon":-72.56582,"type":"city"},{"id":"ca-5882534","label":"Agassiz","lat":49.23298,"lon":-121.76926,"type":"city"},{"id":"ca-5882600","label":"Agincourt North","lat":43.80418,"lon":-79.27528,"type":"city"},{"id":"ca-12156888","label":"Agincourt South-Malvern West","lat":43.78866,"lon":-79.26561,"type":"city"},{"id":"ca-5882725","label":"Ahuntsic-Cartierville","lat":45.56667,"lon":-73.66667,"type":"city"},{"id":"ca-5882799","label":"Airdrie","lat":51.30011,"lon":-114.03528,"type":"city"},{"id":"ca-5882873","label":"Ajax","lat":43.85012,"lon":-79.03288,"type":"city"},{"id":"ca-13589243","label":"Al Ritchie","lat":50.44248,"lon":-104.58496,"type":"city"},{"id":"ca-5883172","label":"Albert Park","lat":50.40726,"lon":-104.63111,"type":"city"},{"id":"ca-11791770","label":"Albert Park/Radisson Heights","lat":51.04294,"lon":-113.99584,"type":"city"},{"id":"ca-5883103","label":"Alberta Avenue","lat":53.56667,"lon":-113.48333,"type":"city"},{"id":"ca-5883194","label":"Albion","lat":49.18751,"lon":-122.55687,"type":"city"},{"id":"ca-5883214","label":"Albro Lake","lat":44.68414,"lon":-63.58129,"type":"city"},{"id":"ca-7669018","label":"Aldergrove","lat":49.05801,"lon":-122.47087,"type":"city"},{"id":"ca-11791080","label":"Aldergrove","lat":53.51679,"lon":-113.64116,"type":"city"},{"id":"ca-5883345","label":"Alderwood","lat":43.60348,"lon":-79.54604,"type":"city"},{"id":"ca-11791217","label":"Allard","lat":53.40019,"lon":-113.52655,"type":"city"},{"id":"ca-5884051","label":"Alliston","lat":44.15011,"lon":-79.86635,"type":"city"},{"id":"ca-5884083","label":"Alma","lat":48.55009,"lon":-71.6491,"type":"city"},{"id":"ca-8125781","label":"Almonte","lat":45.22993,"lon":-76.19585,"type":"city"},{"id":"ca-5884238","label":"Alta Vista","lat":45.38639,"lon":-75.65806,"type":"city"},{"id":"ca-5884228","label":"Altadore","lat":51.01651,"lon":-114.10323,"type":"city"},{"id":"ca-11791100","label":"Ambleside","lat":53.42994,"lon":-113.59916,"type":"city"},{"id":"ca-13512410","label":"Ambleside","lat":49.32777,"lon":-123.14375,"type":"city"},{"id":"ca-5884467","label":"Amherst","lat":45.83345,"lon":-64.19874,"type":"city"},{"id":"ca-5884472","label":"Amherstburg","lat":42.10009,"lon":-83.09985,"type":"city"},{"id":"ca-5884588","label":"Amos","lat":48.56688,"lon":-78.11624,"type":"city"},{"id":"ca-6943488","label":"Amqui","lat":48.46382,"lon":-67.43134,"type":"city"},{"id":"ca-8285452","label":"Ancaster","lat":43.21806,"lon":-79.98716,"type":"city"},{"id":"ca-5885280","label":"Angus","lat":44.31681,"lon":-79.88295,"type":"city"},{"id":"ca-12156871","label":"Annex","lat":43.67159,"lon":-79.404,"type":"city"},{"id":"ca-5886182","label":"Antigonish","lat":45.61685,"lon":-61.99858,"type":"city"},{"id":"ca-5886468","label":"Applewood Park","lat":51.04306,"lon":-113.925,"type":"city"},{"id":"ca-13589221","label":"Arbor Creek","lat":52.13154,"lon":-106.57185,"type":"city"},{"id":"ca-5886569","label":"Arbour Lake","lat":51.13472,"lon":-114.20278,"type":"city"},{"id":"ca-5886586","label":"Arbutus Ridge","lat":49.24966,"lon":-123.16934,"type":"city"},{"id":"ca-13589240","label":"Arcola East","lat":50.43308,"lon":-104.53601,"type":"city"},{"id":"ca-5886886","label":"Argyle Park","lat":50.49032,"lon":-104.62833,"type":"city"},{"id":"ca-5886971","label":"Armdale","lat":44.63593,"lon":-63.62636,"type":"city"},{"id":"ca-5887048","label":"Armstrong","lat":50.44979,"lon":-119.20235,"type":"city"},{"id":"ca-5887214","label":"Arnprior","lat":45.43341,"lon":-76.34939,"type":"city"},{"id":"ca-7870899","label":"Aspen Woods","lat":51.0428,"lon":-114.19275,"type":"city"},{"id":"ca-7870884","label":"Auburn Bay","lat":50.88787,"lon":-113.95929,"type":"city"},{"id":"ca-5888377","label":"Aurora","lat":44.00011,"lon":-79.46632,"type":"city"},{"id":"ca-5888716","label":"Aylmer","lat":42.76679,"lon":-80.98302,"type":"city"},{"id":"ca-6354934","label":"Aylmer","lat":45.4002,"lon":-75.80644,"type":"city"},{"id":"ca-5888737","label":"Ayr","lat":43.2834,"lon":-80.44968,"type":"city"},{"id":"ca-5889745","label":"Baie-Comeau","lat":49.21679,"lon":-68.14894,"type":"city"},{"id":"ca-6690232","label":"Baie-Saint-Paul","lat":47.44109,"lon":-70.49858,"type":"city"},{"id":"ca-12156824","label":"Banbury-Don Mills","lat":43.73766,"lon":-79.34972,"type":"city"},{"id":"ca-5892532","label":"Banff","lat":51.17622,"lon":-115.56982,"type":"city"},{"id":"ca-5892600","label":"Bankview","lat":51.03333,"lon":-114.1,"type":"city"},{"id":"ca-5894171","label":"Barrie","lat":44.40011,"lon":-79.66634,"type":"city"},{"id":"ca-6696259","label":"Bathurst","lat":47.61814,"lon":-65.65112,"type":"city"},{"id":"ca-12156897","label":"Bathurst Manor","lat":43.76481,"lon":-79.45606,"type":"city"},{"id":"ca-5895186","label":"Baturyn","lat":53.63333,"lon":-113.50139,"type":"city"},{"id":"ca-5895424","label":"Bay Roberts","lat":47.59989,"lon":-53.26478,"type":"city"},{"id":"ca-12156887","label":"Bay Street Corridor","lat":43.65751,"lon":-79.38572,"type":"city"},{"id":"ca-5895482","label":"Bayview Village","lat":43.77639,"lon":-79.38028,"type":"city"},{"id":"ca-12156889","label":"Bayview Woods-Steeles","lat":43.7968,"lon":-79.38212,"type":"city"},{"id":"ca-5895650","label":"Beaconsfield","lat":45.43341,"lon":-73.86586,"type":"city"},{"id":"ca-5896271","label":"Bearspaw","lat":51.13341,"lon":-114.302,"type":"city"},{"id":"ca-13592165","label":"Beaubassin East","lat":46.20917,"lon":-64.418,"type":"city"},{"id":"ca-6295855","label":"Beauceville","lat":46.21785,"lon":-70.77873,"type":"city"},{"id":"ca-5896495","label":"Beauharnois","lat":45.31341,"lon":-73.8725,"type":"city"},{"id":"ca-5896522","label":"Beaumont","lat":53.35013,"lon":-113.41871,"type":"city"},{"id":"ca-6325478","label":"Beauport","lat":46.85884,"lon":-71.19201,"type":"city"},{"id":"ca-13592157","label":"Beaurivage","lat":46.68206,"lon":-64.96023,"type":"city"},{"id":"ca-13592161","label":"Beausoleil","lat":46.29835,"lon":-64.60329,"type":"city"},{"id":"ca-5896590","label":"Beaver Bank","lat":44.82484,"lon":-63.68079,"type":"city"},{"id":"ca-12070741","label":"Beaverbrook","lat":45.3302,"lon":-75.90597,"type":"city"},{"id":"ca-5897209","label":"Becancour","lat":46.34106,"lon":-72.43224,"type":"city"},{"id":"ca-5897312","label":"Beddington Heights","lat":51.12917,"lon":-114.07917,"type":"city"},{"id":"ca-5897321","label":"Bedford","lat":44.72552,"lon":-63.66732,"type":"city"},{"id":"ca-12156896","label":"Bedford Park-Nortown","lat":43.73149,"lon":-79.42023,"type":"city"},{"id":"ca-12156830","label":"Beechborough-Greenbrook","lat":43.69322,"lon":-79.47947,"type":"city"},{"id":"ca-13580692","label":"Beechwood","lat":43.46041,"lon":-80.54989,"type":"city"},{"id":"ca-13580693","label":"Beechwood West","lat":43.45823,"lon":-80.56614,"type":"city"},{"id":"ca-5897865","label":"Belle River","lat":42.29264,"lon":-82.71192,"type":"city"},{"id":"ca-13592147","label":"Belle-Baie","lat":47.76532,"lon":-65.74496,"type":"city"},{"id":"ca-5897884","label":"Belleville","lat":44.16682,"lon":-77.38277,"type":"city"},{"id":"ca-5898070","label":"Bells Corners","lat":45.31588,"lon":-75.83012,"type":"city"},{"id":"ca-5898127","label":"Belmont","lat":53.59245,"lon":-113.39367,"type":"city"},{"id":"ca-5898138","label":"Beloeil","lat":45.56839,"lon":-73.20568,"type":"city"},{"id":"ca-7870890","label":"Beltline","lat":51.03951,"lon":-114.07087,"type":"city"},{"id":"ca-5898168","label":"Belvedere","lat":53.59312,"lon":-113.43864,"type":"city"},{"id":"ca-5898265","label":"Bendale","lat":43.76681,"lon":-79.25326,"type":"city"},{"id":"ca-5899368","label":"Bible Hill","lat":45.375,"lon":-63.238,"type":"city"},{"id":"ca-5901272","label":"Binbrook","lat":43.12135,"lon":-79.81104,"type":"city"},{"id":"ca-12156825","label":"Birchcliffe-Cliffside","lat":43.69468,"lon":-79.26509,"type":"city"},{"id":"ca-12156858","label":"Black Creek","lat":43.76489,"lon":-79.52198,"type":"city"},{"id":"ca-5902353","label":"Blackburn Hamlet","lat":45.43671,"lon":-75.56462,"type":"city"},{"id":"ca-5902599","label":"Blackfalds","lat":52.38342,"lon":-113.7853,"type":"city"},{"id":"ca-5903510","label":"Blainville","lat":45.66678,"lon":-73.88249,"type":"city"},{"id":"ca-13580768","label":"Blair Road","lat":43.37112,"lon":-80.33448,"type":"city"},{"id":"ca-13589210","label":"Blairmore","lat":52.13081,"lon":-106.74275,"type":"city"},{"id":"ca-12156831","label":"Blake-Jones","lat":43.67617,"lon":-79.33739,"type":"city"},{"id":"ca-5904032","label":"Blossom Park","lat":45.34889,"lon":-75.62667,"type":"city"},{"id":"ca-5904501","label":"Bluewater","lat":43.46679,"lon":-81.59977,"type":"city"},{"id":"ca-13495394","label":"Blundell","lat":49.15531,"lon":-123.15706,"type":"city"},{"id":"ca-5905152","label":"Bois-des-Filion","lat":45.66678,"lon":-73.74918,"type":"city"},{"id":"ca-5905132","label":"Boisbriand","lat":45.61678,"lon":-73.83249,"type":"city"},{"id":"ca-6695248","label":"Boischatel","lat":46.89434,"lon":-71.1448,"type":"city"},{"id":"ca-5905308","label":"Bolton","lat":43.87952,"lon":-79.73791,"type":"city"},{"id":"ca-5905616","label":"Bonnyville","lat":54.26684,"lon":-110.73505,"type":"city"},{"id":"ca-13665247","label":"Booth","lat":49.88505,"lon":-97.26952,"type":"city"},{"id":"ca-5906267","label":"Boucherville","lat":45.59104,"lon":-73.43605,"type":"city"},{"id":"ca-5906831","label":"Bowmanville","lat":43.91682,"lon":-78.68286,"type":"city"},{"id":"ca-5906836","label":"Bowness","lat":51.08344,"lon":-114.16866,"type":"city"},{"id":"ca-5907048","label":"Boyle Street","lat":53.55,"lon":-113.47917,"type":"city"},{"id":"ca-5907092","label":"Bracebridge","lat":45.03341,"lon":-79.31633,"type":"city"},{"id":"ca-5907296","label":"Braeside","lat":50.95421,"lon":-114.10538,"type":"city"},{"id":"ca-5907364","label":"Brampton","lat":43.68341,"lon":-79.76633,"type":"city"},{"id":"ca-5907896","label":"Brandon","lat":49.84692,"lon":-99.95306,"type":"city"},{"id":"ca-5907983","label":"Brant","lat":43.1334,"lon":-80.34967,"type":"city"},{"id":"ca-5907990","label":"Brantford","lat":43.1334,"lon":-80.26636,"type":"city"},{"id":"ca-5908471","label":"Brentwood","lat":51.09813,"lon":-114.13319,"type":"city"},{"id":"ca-5908473","label":"Brentwood Bay","lat":48.58294,"lon":-123.45262,"type":"city"},{"id":"ca-5908474","label":"Brentwood Park","lat":49.275,"lon":-122.99167,"type":"city"},{"id":"ca-5908481","label":"Breslau","lat":43.4668,"lon":-80.41638,"type":"city"},{"id":"ca-12156866","label":"Briar Hill-Belgravia","lat":43.69902,"lon":-79.45285,"type":"city"},{"id":"ca-13589215","label":"Briarwood","lat":52.1111,"lon":-106.55907,"type":"city"},{"id":"ca-5908691","label":"Bridgeport","lat":43.4834,"lon":-80.48299,"type":"city"},{"id":"ca-5908720","label":"Bridgeview","lat":49.2081,"lon":-122.86028,"type":"city"},{"id":"ca-5908723","label":"Bridgewater","lat":44.37856,"lon":-64.51882,"type":"city"},{"id":"ca-13665218","label":"Bridgwater Forest","lat":49.80481,"lon":-97.18287,"type":"city"},{"id":"ca-12156900","label":"Bridle Path-Sunnybrook-York Mills","lat":43.73101,"lon":-79.37891,"type":"city"},{"id":"ca-5908737","label":"Bridlewood","lat":45.28522,"lon":-75.8569,"type":"city"},{"id":"ca-5908738","label":"Bridlewood","lat":50.89979,"lon":-114.10812,"type":"city"},{"id":"ca-5908809","label":"Brighouse-City Centre","lat":49.16667,"lon":-123.13333,"type":"city"},{"id":"ca-7626863","label":"Brintnell","lat":53.62077,"lon":-113.40757,"type":"city"},{"id":"ca-5909204","label":"Broadmoor","lat":49.15,"lon":-123.13333,"type":"city"},{"id":"ca-12156869","label":"Broadview North","lat":43.68883,"lon":-79.35563,"type":"city"},{"id":"ca-5909278","label":"Brocklehurst","lat":50.70825,"lon":-120.41337,"type":"city"},{"id":"ca-5909294","label":"Brockville","lat":44.59132,"lon":-75.68705,"type":"city"},{"id":"ca-12156883","label":"Brookhaven-Amesbury","lat":43.70133,"lon":-79.48559,"type":"city"},{"id":"ca-5909483","label":"Brooklin","lat":43.95833,"lon":-78.95972,"type":"city"},{"id":"ca-5909514","label":"Brooks","lat":50.58341,"lon":-111.88509,"type":"city"},{"id":"ca-5909573","label":"Brookswood","lat":49.06667,"lon":-122.66667,"type":"city"},{"id":"ca-5909629","label":"Brossard","lat":45.45008,"lon":-73.46583,"type":"city"},{"id":"ca-13512958","label":"Brow of the Hill","lat":49.20213,"lon":-122.92015,"type":"city"},{"id":"ca-5909969","label":"Brownsburg-Chatham","lat":45.68342,"lon":-74.4159,"type":"city"},{"id":"ca-6942645","label":"Buckingham","lat":45.58563,"lon":-75.4208,"type":"city"},{"id":"ca-13512354","label":"Burke Mountain","lat":49.29363,"lon":-122.75613,"type":"city"},{"id":"ca-5911592","label":"Burlington","lat":43.38621,"lon":-79.83713,"type":"city"},{"id":"ca-5911606","label":"Burnaby","lat":49.26636,"lon":-122.95263,"type":"city"},{"id":"ca-5911609","label":"Burnaby Heights","lat":49.28333,"lon":-123,"type":"city"},{"id":"ca-5911715","label":"Burnside","lat":44.70175,"lon":-63.60051,"type":"city"},{"id":"ca-13512357","label":"Burnside-Gorge","lat":48.44339,"lon":-123.37605,"type":"city"},{"id":"ca-5912150","label":"Burquitlam","lat":49.26667,"lon":-122.88333,"type":"city"},{"id":"ca-13592171","label":"Butternut Valley","lat":45.83331,"lon":-65.5347,"type":"city"},{"id":"ca-12156891","label":"Cabbagetown-South St.James Town","lat":43.66765,"lon":-79.36611,"type":"city"},{"id":"ca-5913414","label":"Caledon","lat":43.86544,"lon":-79.99322,"type":"city"},{"id":"ca-12156874","label":"Caledonia-Fairbank","lat":43.68857,"lon":-79.45521,"type":"city"},{"id":"ca-5913490","label":"Calgary","lat":51.05011,"lon":-114.08529,"type":"city"},{"id":"ca-5913579","label":"Callingwood South","lat":53.5,"lon":-113.625,"type":"city"},{"id":"ca-5913695","label":"Cambridge","lat":43.3601,"lon":-80.31269,"type":"city"},{"id":"ca-13512938","label":"Cameron","lat":49.25619,"lon":-122.90671,"type":"city"},{"id":"ca-5913934","label":"Camlachie","lat":43.03596,"lon":-82.1616,"type":"city"},{"id":"ca-5914132","label":"Campbell River","lat":50.01634,"lon":-125.24459,"type":"city"},{"id":"ca-6696258","label":"Campbellton","lat":48.00751,"lon":-66.67272,"type":"city"},{"id":"ca-5914653","label":"Camrose","lat":53.01684,"lon":-112.83525,"type":"city"},{"id":"ca-5914826","label":"Candiac","lat":45.38338,"lon":-73.51587,"type":"city"},{"id":"ca-5914894","label":"Canmore","lat":51.08335,"lon":-115.35206,"type":"city"},{"id":"ca-5915148","label":"Cantley","lat":45.5668,"lon":-75.78265,"type":"city"},{"id":"ca-5915247","label":"Canyon Meadows","lat":50.94285,"lon":-114.08092,"type":"city"},{"id":"ca-13512935","label":"Canyon Springs","lat":49.29148,"lon":-122.79542,"type":"city"},{"id":"ca-13592163","label":"Cap-Acadie","lat":46.20142,"lon":-64.32416,"type":"city"},{"id":"ca-5915327","label":"Cap-aux-Meules","lat":47.38208,"lon":-61.85968,"type":"city"},{"id":"ca-13512356","label":"Cape Horn","lat":49.22684,"lon":-122.8369,"type":"city"},{"id":"ca-5916424","label":"Capitol Hill","lat":49.28333,"lon":-122.98333,"type":"city"},{"id":"ca-13512367","label":"Carey","lat":48.47205,"lon":-123.39483,"type":"city"},{"id":"ca-5916896","label":"Cariboo","lat":49.25,"lon":-122.88333,"type":"city"},{"id":"ca-5917117","label":"Carignan","lat":45.45008,"lon":-73.29916,"type":"city"},{"id":"ca-13592183","label":"Carleton North","lat":46.49895,"lon":-67.55754,"type":"city"},{"id":"ca-5917158","label":"Carleton Place","lat":45.13341,"lon":-76.14938,"type":"city"},{"id":"ca-5917781","label":"Cartierville","lat":45.53118,"lon":-73.70358,"type":"city"},{"id":"ca-7870864","label":"Casa Loma","lat":43.68345,"lon":-79.41248,"type":"city"},{"id":"ca-5917868","label":"Cascade Heights","lat":49.25,"lon":-123.01667,"type":"city"},{"id":"ca-5918118","label":"Castlegar","lat":49.32317,"lon":-117.65831,"type":"city"},{"id":"ca-5918162","label":"Castleridge","lat":51.10556,"lon":-113.95556,"type":"city"},{"id":"ca-13589244","label":"Cathedral","lat":50.44512,"lon":-104.63124,"type":"city"},{"id":"ca-13527833","label":"Cedar Cove","lat":49.28648,"lon":-123.06077,"type":"city"},{"id":"ca-13512422","label":"Cedar Valley","lat":49.16172,"lon":-122.31047,"type":"city"},{"id":"ca-5918777","label":"Cedarbrae","lat":50.95648,"lon":-114.12975,"type":"city"},{"id":"ca-5919004","label":"Centennial Place","lat":46.08333,"lon":-64.81667,"type":"city"},{"id":"ca-12156827","label":"Centennial Scarborough","lat":43.78238,"lon":-79.15084,"type":"city"},{"id":"ca-13580694","label":"Central","lat":43.46475,"lon":-80.52185,"type":"city"},{"id":"ca-5919015","label":"Central Business District","lat":52.13032,"lon":-106.66228,"type":"city"},{"id":"ca-13512769","label":"Central Coquitlam","lat":49.26028,"lon":-122.83815,"type":"city"},{"id":"ca-13512383","label":"Central Lonsdale","lat":49.32574,"lon":-123.07234,"type":"city"},{"id":"ca-13580444","label":"Central Moncton","lat":46.09696,"lon":-64.79623,"type":"city"},{"id":"ca-5919137","label":"Central Saanich","lat":48.56634,"lon":-123.41932,"type":"city"},{"id":"ca-13592178","label":"Central York","lat":46.0051,"lon":-66.90803,"type":"city"},{"id":"ca-5919248","label":"Centretown","lat":45.41534,"lon":-75.69639,"type":"city"},{"id":"ca-13580737","label":"Centreville Chicopee","lat":43.43556,"lon":-80.4281,"type":"city"},{"id":"ca-5919566","label":"Chambly","lat":45.45008,"lon":-73.28246,"type":"city"},{"id":"ca-13592160","label":"Champdore","lat":46.38601,"lon":-64.78239,"type":"city"},{"id":"ca-13512948","label":"Champlain Heights","lat":49.20919,"lon":-123.026,"type":"city"},{"id":"ca-6943811","label":"Chandler","lat":48.34935,"lon":-64.67926,"type":"city"},{"id":"ca-5919853","label":"Chaparral","lat":50.88611,"lon":-114.03333,"type":"city"},{"id":"ca-5920089","label":"Charlemagne","lat":45.71678,"lon":-73.48247,"type":"city"},{"id":"ca-6325485","label":"Charlesbourg","lat":46.899,"lon":-71.305,"type":"city"},{"id":"ca-5920288","label":"Charlottetown","lat":46.23459,"lon":-63.1256,"type":"city"},{"id":"ca-5920343","label":"Chartersville","lat":46.08494,"lon":-64.73339,"type":"city"},{"id":"ca-5920433","label":"Chateauguay","lat":45.38338,"lon":-73.74919,"type":"city"},{"id":"ca-5920457","label":"Chatham","lat":42.41224,"lon":-82.18494,"type":"city"},{"id":"ca-5920652","label":"Chelsea","lat":45.5001,"lon":-75.78265,"type":"city"},{"id":"ca-5921060","label":"Chestermere","lat":51.03341,"lon":-113.81867,"type":"city"},{"id":"ca-5921147","label":"Chibougamau","lat":49.91684,"lon":-74.36586,"type":"city"},{"id":"ca-5921225","label":"Chicoutimi","lat":48.41963,"lon":-71.06369,"type":"city"},{"id":"ca-5921356","label":"Chilliwack","lat":49.16638,"lon":-121.95257,"type":"city"},{"id":"ca-13512426","label":"Chilliwack-Downtown","lat":49.1643,"lon":-121.95907,"type":"city"},{"id":"ca-12032531","label":"Chinatown","lat":49.27997,"lon":-123.10556,"type":"city"},{"id":"ca-5921556","label":"Chippawa","lat":43.0571,"lon":-79.04717,"type":"city"},{"id":"ca-5921588","label":"Chisasibi","lat":53.78333,"lon":-78.9,"type":"city"},{"id":"ca-5921719","label":"Chomedey","lat":45.53333,"lon":-73.75,"type":"city"},{"id":"ca-13580769","label":"Christopher-Champlain","lat":43.34728,"lon":-80.30186,"type":"city"},{"id":"ca-12156882","label":"Church-Yonge Corridor","lat":43.65965,"lon":-79.37902,"type":"city"},{"id":"ca-5922127","label":"Churchill Park","lat":47.577,"lon":-52.721,"type":"city"},{"id":"ca-5922833","label":"Citadel","lat":51.14533,"lon":-114.18125,"type":"city"},{"id":"ca-13580695","label":"Clair Hills","lat":43.45625,"lon":-80.58172,"type":"city"},{"id":"ca-12156899","label":"Clairlea-Birchmount","lat":43.71359,"lon":-79.28138,"type":"city"},{"id":"ca-12156898","label":"Clanton Park","lat":43.74198,"lon":-79.4463,"type":"city"},{"id":"ca-5923101","label":"Clarence-Rockland","lat":45.5501,"lon":-75.29101,"type":"city"},{"id":"ca-5923118","label":"Clarenville","lat":48.1666,"lon":-53.96482,"type":"city"},{"id":"ca-5923436","label":"Clayburn","lat":49.0691,"lon":-122.26176,"type":"city"},{"id":"ca-5923522","label":"Clayton Park","lat":44.66029,"lon":-63.64731,"type":"city"},{"id":"ca-13607951","label":"Clayton Park West","lat":44.65759,"lon":-63.66887,"type":"city"},{"id":"ca-5923921","label":"Cliffcrest","lat":43.72192,"lon":-79.23091,"type":"city"},{"id":"ca-13495385","label":"Clinton-Glenwood","lat":49.21213,"lon":-122.97957,"type":"city"},{"id":"ca-5924204","label":"Cloverdale","lat":49.10797,"lon":-122.7276,"type":"city"},{"id":"ca-12022703","label":"Coal Harbour","lat":49.28977,"lon":-123.1232,"type":"city"},{"id":"ca-5924417","label":"Coaldale","lat":49.7167,"lon":-112.61854,"type":"city"},{"id":"ca-5924500","label":"Coaticook","lat":45.13339,"lon":-71.79907,"type":"city"},{"id":"ca-5924579","label":"Cobourg","lat":43.95977,"lon":-78.16515,"type":"city"},{"id":"ca-5924614","label":"Cochrane","lat":49.06689,"lon":-81.03307,"type":"city"},{"id":"ca-5924618","label":"Cochrane","lat":51.18341,"lon":-114.46871,"type":"city"},{"id":"ca-5925024","label":"Cold Lake","lat":54.46525,"lon":-110.18154,"type":"city"},{"id":"ca-5925058","label":"Coldstream","lat":50.21649,"lon":-119.20235,"type":"city"},{"id":"ca-7280414","label":"Cole Harbour","lat":44.67244,"lon":-63.47506,"type":"city"},{"id":"ca-13589261","label":"College Heights","lat":48.44072,"lon":-89.23475,"type":"city"},{"id":"ca-5925315","label":"College Park","lat":52.12143,"lon":-106.59478,"type":"city"},{"id":"ca-13512923","label":"College Park","lat":49.28199,"lon":-122.87865,"type":"city"},{"id":"ca-5925975","label":"Collingwood","lat":44.4834,"lon":-80.21638,"type":"city"},{"id":"ca-13580720","label":"Colonial Acres","lat":43.50107,"lon":-80.51774,"type":"city"},{"id":"ca-13580696","label":"Columbia","lat":43.48468,"lon":-80.53349,"type":"city"},{"id":"ca-13580697","label":"Columbia Hills","lat":43.46987,"lon":-80.60084,"type":"city"},{"id":"ca-5926268","label":"Colwood","lat":48.43293,"lon":-123.48591,"type":"city"},{"id":"ca-5926432","label":"Comox","lat":49.68294,"lon":-124.93613,"type":"city"},{"id":"ca-5926511","label":"Conception Bay South","lat":47.49989,"lon":-52.99806,"type":"city"},{"id":"ca-5926526","label":"Concord","lat":43.80011,"lon":-79.48291,"type":"city"},{"id":"ca-13589211","label":"Confederation","lat":52.13912,"lon":-106.70356,"type":"city"},{"id":"ca-5926598","label":"Confederation Park","lat":52.14032,"lon":-106.73673,"type":"city"},{"id":"ca-5927043","label":"Convoy Place","lat":44.66785,"lon":-63.61431,"type":"city"},{"id":"ca-5927235","label":"Cookshire-Eaton","lat":45.41675,"lon":-71.6324,"type":"city"},{"id":"ca-11791741","label":"Copperfield","lat":50.91517,"lon":-113.92703,"type":"city"},{"id":"ca-5927690","label":"Coquitlam","lat":49.2846,"lon":-122.78217,"type":"city"},{"id":"ca-13512932","label":"Coquitlam Town Centre","lat":49.27697,"lon":-122.79669,"type":"city"},{"id":"ca-13512933","label":"Coquitlam West","lat":49.25702,"lon":-122.87883,"type":"city"},{"id":"ca-5927720","label":"Coral Springs","lat":51.10139,"lon":-113.93056,"type":"city"},{"id":"ca-5927816","label":"Cordova Bay","lat":48.51667,"lon":-123.36667,"type":"city"},{"id":"ca-13589206","label":"Core Neighbourhoods","lat":52.13041,"lon":-106.67231,"type":"city"},{"id":"ca-5927969","label":"Corner Brook","lat":48.95001,"lon":-57.95202,"type":"city"},{"id":"ca-5928063","label":"Cornwall","lat":46.22652,"lon":-63.21809,"type":"city"},{"id":"ca-5928065","label":"Cornwall","lat":45.01809,"lon":-74.72815,"type":"city"},{"id":"ca-5928120","label":"Coronation Park","lat":50.47837,"lon":-104.62555,"type":"city"},{"id":"ca-12156833","label":"Corso Italia-Davenport","lat":43.67766,"lon":-79.44747,"type":"city"},{"id":"ca-5928202","label":"Corunna","lat":42.88338,"lon":-82.43313,"type":"city"},{"id":"ca-5928488","label":"Cote-Saint-Luc","lat":45.46536,"lon":-73.66585,"type":"city"},{"id":"ca-5928337","label":"Coteau-du-Lac","lat":45.30008,"lon":-74.18253,"type":"city"},{"id":"ca-11791705","label":"Cougar Ridge","lat":51.07113,"lon":-114.20842,"type":"city"},{"id":"ca-13580742","label":"Country Hills West","lat":43.41111,"lon":-80.48653,"type":"city"},{"id":"ca-5930890","label":"Courtenay","lat":49.68657,"lon":-124.9936,"type":"city"},{"id":"ca-5931006","label":"Coventry Hills","lat":51.16869,"lon":-114.05903,"type":"city"},{"id":"ca-5931074","label":"Cowansville","lat":45.20008,"lon":-72.74913,"type":"city"},{"id":"ca-5931800","label":"Cranbrook","lat":49.49991,"lon":-115.76879,"type":"city"},{"id":"ca-7870883","label":"Cranston","lat":50.88852,"lon":-113.98144,"type":"city"},{"id":"ca-5932231","label":"Crescent Heights","lat":51.06276,"lon":-114.0683,"type":"city"},{"id":"ca-5932311","label":"Creston","lat":49.09987,"lon":-116.50211,"type":"city"},{"id":"ca-12808564","label":"Ct 0003","lat":45.60562,"lon":-73.52713,"type":"city"},{"id":"ca-12808568","label":"Ct 0007","lat":45.59465,"lon":-73.52896,"type":"city"},{"id":"ca-12808572","label":"Ct 0011","lat":45.58357,"lon":-73.53525,"type":"city"},{"id":"ca-12808573","label":"Ct 0012","lat":45.57861,"lon":-73.53771,"type":"city"},{"id":"ca-12808574","label":"Ct 0013","lat":45.56922,"lon":-73.54416,"type":"city"},{"id":"ca-12808575","label":"Ct 0014","lat":45.55754,"lon":-73.54319,"type":"city"},{"id":"ca-7626874","label":"Cumberland","lat":53.61094,"lon":-113.5534,"type":"city"},{"id":"ca-5934665","label":"Dalhousie","lat":51.11161,"lon":-114.15876,"type":"city"},{"id":"ca-12156834","label":"Danforth","lat":43.68403,"lon":-79.32982,"type":"city"},{"id":"ca-12156867","label":"Danforth East York","lat":43.68947,"lon":-79.3314,"type":"city"},{"id":"ca-5935277","label":"Dartmouth","lat":44.67134,"lon":-63.57719,"type":"city"},{"id":"ca-5935341","label":"Dauphin","lat":51.14941,"lon":-100.05023,"type":"city"},{"id":"ca-13589461","label":"Davie Village","lat":49.28045,"lon":-123.13116,"type":"city"},{"id":"ca-5935804","label":"Dawson Creek","lat":55.75984,"lon":-120.2403,"type":"city"},{"id":"ca-5937252","label":"Deer Lake","lat":49.16671,"lon":-57.43163,"type":"city"},{"id":"ca-5937522","label":"Delhi","lat":42.8501,"lon":-80.49968,"type":"city"},{"id":"ca-5937612","label":"Delson","lat":45.36678,"lon":-73.54917,"type":"city"},{"id":"ca-5937615","label":"Delta","lat":49.08917,"lon":-123.05322,"type":"city"},{"id":"ca-5937950","label":"Departure Bay","lat":49.20207,"lon":-123.97618,"type":"city"},{"id":"ca-12626175","label":"Desmarchais-Crawford","lat":45.44554,"lon":-73.58163,"type":"city"},{"id":"ca-5938513","label":"Deux-Montagnes","lat":45.53455,"lon":-73.90168,"type":"city"},{"id":"ca-5938801","label":"Devon","lat":53.36683,"lon":-113.73533,"type":"city"},{"id":"ca-13589242","label":"Dewdney East","lat":50.45428,"lon":-104.54671,"type":"city"},{"id":"ca-5939219","label":"Dieppe","lat":46.07844,"lon":-64.68735,"type":"city"},{"id":"ca-5940934","label":"Dolbeau-Mistassini","lat":48.8786,"lon":-72.23142,"type":"city"},{"id":"ca-5940956","label":"Dollard-Des Ormeaux","lat":45.49452,"lon":-73.82419,"type":"city"},{"id":"ca-12156901","label":"Don Valley Village","lat":43.78329,"lon":-79.35364,"type":"city"},{"id":"ca-7535690","label":"Donnacona","lat":46.68042,"lon":-71.7239,"type":"city"},{"id":"ca-13580477","label":"Donovans","lat":47.52184,"lon":-52.83635,"type":"city"},{"id":"ca-13580743","label":"Doon South","lat":43.37818,"lon":-80.43091,"type":"city"},{"id":"ca-5941761","label":"Dorchester","lat":42.98339,"lon":-81.06643,"type":"city"},{"id":"ca-5941905","label":"Dorset Park","lat":43.75386,"lon":-79.28215,"type":"city"},{"id":"ca-5941925","label":"Dorval","lat":45.4473,"lon":-73.75335,"type":"city"},{"id":"ca-5942099","label":"Douglas","lat":45.97832,"lon":-66.73108,"type":"city"},{"id":"ca-13512981","label":"Douglas","lat":49.10229,"lon":-122.65114,"type":"city"},{"id":"ca-13512937","label":"Douglas-Gilpin","lat":49.24438,"lon":-122.98215,"type":"city"},{"id":"ca-5942126","label":"Douglasdale","lat":50.93889,"lon":-113.99306,"type":"city"},{"id":"ca-5942238","label":"Dover","lat":51.01991,"lon":-113.99294,"type":"city"},{"id":"ca-12156838","label":"Dovercourt-Wallace Emerson-Junction","lat":43.66568,"lon":-79.43854,"type":"city"},{"id":"ca-12156903","label":"Downsview-Roding-CFB","lat":43.73329,"lon":-79.49049,"type":"city"},{"id":"ca-7626795","label":"Downtown","lat":53.54021,"lon":-113.49907,"type":"city"},{"id":"ca-13607752","label":"Downtown Charlottetown","lat":46.23253,"lon":-63.12734,"type":"city"},{"id":"ca-11791726","label":"Downtown Commercial Core","lat":51.0472,"lon":-114.06996,"type":"city"},{"id":"ca-13561905","label":"Downtown Dartmouth","lat":44.66684,"lon":-63.56595,"type":"city"},{"id":"ca-13580445","label":"Downtown Dieppe","lat":46.09521,"lon":-64.74371,"type":"city"},{"id":"ca-13512546","label":"Downtown Eastside","lat":49.2818,"lon":-123.09351,"type":"city"},{"id":"ca-13607764","label":"Downtown Fredericton","lat":45.96201,"lon":-66.64047,"type":"city"},{"id":"ca-12076998","label":"Downtown Halifax","lat":44.64826,"lon":-63.57762,"type":"city"},{"id":"ca-13580443","label":"Downtown Moncton","lat":46.09231,"lon":-64.78535,"type":"city"},{"id":"ca-13561919","label":"Downtown St. John's","lat":47.56075,"lon":-52.711,"type":"city"},{"id":"ca-12022702","label":"Downtown Vancouver","lat":49.28277,"lon":-123.11935,"type":"city"},{"id":"ca-5942547","label":"Drayton Valley","lat":53.21682,"lon":-114.98544,"type":"city"},{"id":"ca-5942798","label":"Drumheller","lat":51.46171,"lon":-112.71011,"type":"city"},{"id":"ca-5942845","label":"Drummondville","lat":45.88336,"lon":-72.48241,"type":"city"},{"id":"ca-5942913","label":"Dryden","lat":49.78334,"lon":-92.75032,"type":"city"},{"id":"ca-7870910","label":"Dufferin Grove","lat":43.65766,"lon":-79.42793,"type":"city"},{"id":"ca-13495377","label":"Dunbar-Southlands","lat":49.24217,"lon":-123.1884,"type":"city"},{"id":"ca-5943865","label":"Duncan","lat":48.78293,"lon":-123.70266,"type":"city"},{"id":"ca-5943973","label":"Dundarave","lat":49.3362,"lon":-123.18764,"type":"city"},{"id":"ca-5944007","label":"Dundonald","lat":52.14838,"lon":-106.72839,"type":"city"},{"id":"ca-5944122","label":"Dunluce","lat":53.62286,"lon":-113.52654,"type":"city"},{"id":"ca-5944222","label":"Dunnville","lat":42.90011,"lon":-79.61631,"type":"city"},{"id":"ca-5944526","label":"Duvernay","lat":45.58333,"lon":-73.66667,"type":"city"},{"id":"ca-5944528","label":"Duvernay-Est","lat":45.65476,"lon":-73.60514,"type":"city"},{"id":"ca-5944866","label":"Eagle Ridge","lat":49.28778,"lon":-122.82167,"type":"city"},{"id":"ca-13495392","label":"East Cambie","lat":49.18434,"lon":-123.09267,"type":"city"},{"id":"ca-13513019","label":"East Clayton","lat":49.12487,"lon":-122.70172,"type":"city"},{"id":"ca-12156890","label":"East End-Danforth","lat":43.68417,"lon":-79.29936,"type":"city"},{"id":"ca-5945707","label":"East Gwillimbury","lat":44.10087,"lon":-79.43785,"type":"city"},{"id":"ca-13512549","label":"East Hastings","lat":49.27169,"lon":-123.06186,"type":"city"},{"id":"ca-13580765","label":"East Hespeler","lat":43.43458,"lon":-80.29559,"type":"city"},{"id":"ca-13562301","label":"East Newton North","lat":49.14347,"lon":-122.81388,"type":"city"},{"id":"ca-13562304","label":"East Newton South","lat":49.12938,"lon":-122.80904,"type":"city"},{"id":"ca-13580701","label":"Eastbridge","lat":43.51273,"lon":-80.50816,"type":"city"},{"id":"ca-13592175","label":"Eastern Charlotte","lat":45.10301,"lon":-66.79484,"type":"city"},{"id":"ca-5945566","label":"Eastern Passage","lat":44.61685,"lon":-63.48199,"type":"city"},{"id":"ca-12156839","label":"Edenbridge-Humber Valley","lat":43.67089,"lon":-79.52246,"type":"city"},{"id":"ca-5946656","label":"Edgemont","lat":51.12561,"lon":-114.14881,"type":"city"},{"id":"ca-13495388","label":"Edmonds","lat":49.21392,"lon":-122.93992,"type":"city"},{"id":"ca-5946768","label":"Edmonton","lat":53.55014,"lon":-113.46871,"type":"city"},{"id":"ca-6545023","label":"Edmundston","lat":47.3737,"lon":-68.32512,"type":"city"},{"id":"ca-5946820","label":"Edson","lat":53.58345,"lon":-116.43559,"type":"city"},{"id":"ca-7871311","label":"Eglinton East","lat":43.73917,"lon":-79.24576,"type":"city"},{"id":"ca-5947827","label":"Ellerslie","lat":53.42876,"lon":-113.45641,"type":"city"},{"id":"ca-5947866","label":"Elliot Lake","lat":46.38336,"lon":-82.63315,"type":"city"},{"id":"ca-5948045","label":"Elmira","lat":43.60009,"lon":-80.5497,"type":"city"},{"id":"ca-12156902","label":"Elms-Old Rexdale","lat":43.72152,"lon":-79.54898,"type":"city"},{"id":"ca-5948111","label":"Elora","lat":43.6834,"lon":-80.43299,"type":"city"},{"id":"ca-8617396","label":"Embrun","lat":45.27573,"lon":-75.27266,"type":"city"},{"id":"ca-5948710","label":"Empire Park","lat":53.48472,"lon":-113.50139,"type":"city"},{"id":"ca-5948805","label":"Enfield","lat":44.9434,"lon":-63.53613,"type":"city"},{"id":"ca-12156893","label":"Englemount-Lawrence","lat":43.72035,"lon":-79.43741,"type":"city"},{"id":"ca-13512544","label":"English Bay","lat":49.28458,"lon":-123.14255,"type":"city"},{"id":"ca-5949247","label":"Erin","lat":43.7729,"lon":-80.06436,"type":"city"},{"id":"ca-7870881","label":"Erin Woods","lat":51.02061,"lon":-113.96985,"type":"city"},{"id":"ca-12156835","label":"Eringate-Centennial-West Deane","lat":43.65802,"lon":-79.58044,"type":"city"},{"id":"ca-5949293","label":"Ermineskin","lat":53.45755,"lon":-113.50405,"type":"city"},{"id":"ca-5949512","label":"Esquimalt","lat":48.43569,"lon":-123.41174,"type":"city"},{"id":"ca-5949531","label":"Essex","lat":42.17509,"lon":-82.82483,"type":"city"},{"id":"ca-5949568","label":"Estevan","lat":49.13337,"lon":-102.98422,"type":"city"},{"id":"ca-5950268","label":"Etobicoke","lat":43.64415,"lon":-79.56985,"type":"city"},{"id":"ca-5950269","label":"Etobicoke West Mall","lat":43.64639,"lon":-79.56985,"type":"city"},{"id":"ca-5950464","label":"Evansdale","lat":53.61033,"lon":-113.48113,"type":"city"},{"id":"ca-7839094","label":"Evanston","lat":51.16398,"lon":-114.12297,"type":"city"},{"id":"ca-5950593","label":"Evergreen","lat":50.92917,"lon":-114.1,"type":"city"},{"id":"ca-13589224","label":"Evergreen","lat":52.16686,"lon":-106.56717,"type":"city"},{"id":"ca-5950944","label":"Fairfield","lat":48.41667,"lon":-123.35,"type":"city"},{"id":"ca-13512415","label":"Fairfield","lat":49.06705,"lon":-122.31522,"type":"city"},{"id":"ca-5950962","label":"Fairhaven","lat":52.12143,"lon":-106.72839,"type":"city"},{"id":"ca-5951023","label":"Fairvale","lat":45.40083,"lon":-65.97167,"type":"city"},{"id":"ca-5951027","label":"Fairview","lat":44.65277,"lon":-63.64112,"type":"city"},{"id":"ca-13495376","label":"Fairview","lat":49.26305,"lon":-123.13212,"type":"city"},{"id":"ca-5951215","label":"Falconridge","lat":51.10278,"lon":-113.94167,"type":"city"},{"id":"ca-5951289","label":"Fall River","lat":44.81685,"lon":-63.6154,"type":"city"},{"id":"ca-12070742","label":"Fallingbrook","lat":45.47558,"lon":-75.48401,"type":"city"},{"id":"ca-5951644","label":"Farnham","lat":45.28338,"lon":-72.98244,"type":"city"},{"id":"ca-7871320","label":"Fergus","lat":43.70604,"lon":-80.37761,"type":"city"},{"id":"ca-5952370","label":"Fernie","lat":49.49996,"lon":-115.06871,"type":"city"},{"id":"ca-13512359","label":"Fernwood","lat":48.42979,"lon":-123.34424,"type":"city"},{"id":"ca-13580772","label":"Fiddlesticks","lat":43.39484,"lon":-80.28741,"type":"city"},{"id":"ca-5954556","label":"Fleetwood","lat":49.16667,"lon":-122.8,"type":"city"},{"id":"ca-5954579","label":"Flemingdon Park","lat":43.71806,"lon":-79.33222,"type":"city"},{"id":"ca-5954718","label":"Flin Flon","lat":54.76703,"lon":-101.87433,"type":"city"},{"id":"ca-5955523","label":"Forest Grove","lat":52.14199,"lon":-106.59089,"type":"city"},{"id":"ca-5955526","label":"Forest Heights","lat":43.41944,"lon":-80.52333,"type":"city"},{"id":"ca-13561948","label":"Forest Heights","lat":51.04941,"lon":-113.97012,"type":"city"},{"id":"ca-12156832","label":"Forest Hill North","lat":43.70422,"lon":-79.42814,"type":"city"},{"id":"ca-12156894","label":"Forest Hill South","lat":43.69453,"lon":-79.41432,"type":"city"},{"id":"ca-5955537","label":"Forest Hills","lat":43.42778,"lon":-80.50917,"type":"city"},{"id":"ca-13561910","label":"Forest Hills","lat":44.68009,"lon":-63.48823,"type":"city"},{"id":"ca-5955551","label":"Forest Lawn","lat":51.0375,"lon":-113.97222,"type":"city"},{"id":"ca-5955815","label":"Fort Erie","lat":42.90012,"lon":-78.93286,"type":"city"},{"id":"ca-5955826","label":"Fort Frances","lat":48.61667,"lon":-93.4003,"type":"city"},{"id":"ca-13665232","label":"Fort Garry South","lat":49.79225,"lon":-97.16359,"type":"city"},{"id":"ca-5955895","label":"Fort McMurray","lat":56.72676,"lon":-111.38103,"type":"city"},{"id":"ca-13665223","label":"Fort Richmond","lat":49.79187,"lon":-97.1444,"type":"city"},{"id":"ca-5955948","label":"Fort Saskatchewan","lat":53.69814,"lon":-113.21382,"type":"city"},{"id":"ca-5955960","label":"Fort St. John","lat":56.24988,"lon":-120.85292,"type":"city"},{"id":"ca-5957564","label":"Fraser Heights","lat":49.2,"lon":-122.78333,"type":"city"},{"id":"ca-5957776","label":"Fredericton","lat":45.94541,"lon":-66.66558,"type":"city"},{"id":"ca-13607919","label":"Fredericton Northside","lat":45.97594,"lon":-66.64117,"type":"city"},{"id":"ca-13592169","label":"Fundy Albert","lat":45.80271,"lon":-64.65977,"type":"city"},{"id":"ca-13592173","label":"Fundy-St. Martins","lat":45.40777,"lon":-65.43908,"type":"city"},{"id":"ca-5959326","label":"Gananoque","lat":44.33342,"lon":-76.16607,"type":"city"},{"id":"ca-5959335","label":"Gander","lat":48.95624,"lon":-54.61647,"type":"city"},{"id":"ca-5959360","label":"Ganges","lat":48.85342,"lon":-123.50032,"type":"city"},{"id":"ca-13512951","label":"Garden City","lat":49.16711,"lon":-123.12178,"type":"city"},{"id":"ca-5959538","label":"Garden Village","lat":49.23333,"lon":-123,"type":"city"},{"id":"ca-5959674","label":"Garneau","lat":53.52083,"lon":-113.5125,"type":"city"},{"id":"ca-5959878","label":"Gaspe","lat":48.83341,"lon":-64.48194,"type":"city"},{"id":"ca-13513181","label":"Gastown","lat":49.28513,"lon":-123.11168,"type":"city"},{"id":"ca-5959974","label":"Gatineau","lat":45.47723,"lon":-75.70164,"type":"city"},{"id":"ca-5960533","label":"Georgetown","lat":43.65011,"lon":-79.91634,"type":"city"},{"id":"ca-5960971","label":"Gibsons","lat":49.39539,"lon":-123.50555,"type":"city"},{"id":"ca-5961564","label":"Glace Bay","lat":46.19695,"lon":-59.95698,"type":"city"},{"id":"ca-5961696","label":"Glamorgan","lat":51.01775,"lon":-114.14675,"type":"city"},{"id":"ca-11791159","label":"Glastonbury","lat":53.50332,"lon":-113.66985,"type":"city"},{"id":"ca-5961862","label":"Glen Cairn","lat":46.11667,"lon":-64.85,"type":"city"},{"id":"ca-5961863","label":"Glen Cairn","lat":45.29278,"lon":-75.88,"type":"city"},{"id":"ca-5961846","label":"Glenbrook","lat":51.02971,"lon":-114.14561,"type":"city"},{"id":"ca-12156904","label":"Glenfield-Jane Heights","lat":43.74564,"lon":-79.51347,"type":"city"},{"id":"ca-5962076","label":"Glenrosa","lat":49.85,"lon":-119.66667,"type":"city"},{"id":"ca-13512961","label":"Glenwood","lat":49.27338,"lon":-122.78003,"type":"city"},{"id":"ca-5962204","label":"Gloucester","lat":45.35,"lon":-75.63333,"type":"city"},{"id":"ca-5962442","label":"Goderich","lat":43.74171,"lon":-81.71339,"type":"city"},{"id":"ca-5963453","label":"Gordon Head","lat":48.48333,"lon":-123.31667,"type":"city"},{"id":"ca-5964215","label":"Granby","lat":45.40008,"lon":-72.73243,"type":"city"},{"id":"ca-6054465","label":"Grand Bay-Westfield","lat":45.36187,"lon":-66.24166,"type":"city"},{"id":"ca-12070752","label":"Grand Centre","lat":54.41628,"lon":-110.21304,"type":"city"},{"id":"ca-6621033","label":"Grand Falls","lat":47.04609,"lon":-67.74179,"type":"city"},{"id":"ca-5964378","label":"Grand Falls-Windsor","lat":48.93324,"lon":-55.66492,"type":"city"},{"id":"ca-13592177","label":"Grand Lake","lat":46.11258,"lon":-65.95682,"type":"city"},{"id":"ca-13580747","label":"Grand River South","lat":43.45043,"lon":-80.40432,"type":"city"},{"id":"ca-5964347","label":"Grande Prairie","lat":55.16667,"lon":-118.80271,"type":"city"},{"id":"ca-5964731","label":"Grandview-Woodlands","lat":49.27738,"lon":-123.07079,"type":"city"},{"id":"ca-5965546","label":"Gravenhurst","lat":44.91681,"lon":-79.36633,"type":"city"},{"id":"ca-5965812","label":"Greater Napanee","lat":44.25012,"lon":-76.94944,"type":"city"},{"id":"ca-5964700","label":"Greater Sudbury","lat":46.49,"lon":-80.99001,"type":"city"},{"id":"ca-5965932","label":"Greely","lat":45.26139,"lon":-75.56111,"type":"city"},{"id":"ca-5966078","label":"Greenfield Park","lat":45.48649,"lon":-73.46223,"type":"city"},{"id":"ca-13580773","label":"Greenway-Chaplin","lat":43.3842,"lon":-80.31139,"type":"city"},{"id":"ca-5966689","label":"Greenwood","lat":44.97413,"lon":-64.93169,"type":"city"},{"id":"ca-7871313","label":"Greenwood-Coxwell","lat":43.68035,"lon":-79.32661,"type":"city"},{"id":"ca-5967149","label":"Grimsby","lat":43.20011,"lon":-79.56631,"type":"city"},{"id":"ca-5967629","label":"Guelph","lat":43.54594,"lon":-80.25599,"type":"city"},{"id":"ca-5967687","label":"Guildford","lat":49.19167,"lon":-122.8,"type":"city"},{"id":"ca-5967690","label":"Guildwood","lat":43.75262,"lon":-79.19486,"type":"city"},{"id":"ca-5968410","label":"Gunningsville","lat":46.0739,"lon":-64.77304,"type":"city"},{"id":"ca-6324729","label":"Halifax","lat":44.64269,"lon":-63.57688,"type":"city"},{"id":"ca-13561903","label":"Halifax North End","lat":44.66556,"lon":-63.60898,"type":"city"},{"id":"ca-13561900","label":"Halifax South End","lat":44.62927,"lon":-63.57651,"type":"city"},{"id":"ca-13561902","label":"Halifax West End","lat":44.6486,"lon":-63.61946,"type":"city"},{"id":"ca-5969721","label":"Halton Hills","lat":43.6403,"lon":-79.93146,"type":"city"},{"id":"ca-5969782","label":"Hamilton","lat":43.25011,"lon":-79.84963,"type":"city"},{"id":"ca-13512595","label":"Hamilton","lat":49.17401,"lon":-122.97428,"type":"city"},{"id":"ca-13512423","label":"Hammond","lat":49.21931,"lon":-122.65327,"type":"city"},{"id":"ca-5969976","label":"Hammonds Plains","lat":44.73386,"lon":-63.77551,"type":"city"},{"id":"ca-5970014","label":"Hampstead","lat":45.48075,"lon":-73.6467,"type":"city"},{"id":"ca-13589232","label":"Hampton Village","lat":52.15421,"lon":-106.71752,"type":"city"},{"id":"ca-5970032","label":"Hamptons","lat":51.1436,"lon":-114.14846,"type":"city"},{"id":"ca-5970063","label":"Hanceville","lat":51.91922,"lon":-123.04458,"type":"city"},{"id":"ca-5970149","label":"Haney","lat":49.21667,"lon":-122.6,"type":"city"},{"id":"ca-5970301","label":"Hanover","lat":44.15009,"lon":-81.03303,"type":"city"},{"id":"ca-12070760","label":"Hanwell","lat":45.88308,"lon":-66.76905,"type":"city"},{"id":"ca-5970458","label":"Happy Valley-Goose Bay","lat":53.3038,"lon":-60.32576,"type":"city"},{"id":"ca-13589251","label":"Harbour Landing","lat":50.40742,"lon":-104.6523,"type":"city"},{"id":"ca-13591978","label":"Harbourview","lat":44.67717,"lon":-63.58543,"type":"city"},{"id":"ca-13512378","label":"Harewood","lat":49.1474,"lon":-123.94739,"type":"city"},{"id":"ca-5971694","label":"Harvest Hills","lat":51.14791,"lon":-114.0513,"type":"city"},{"id":"ca-5971859","label":"Hastings-Sunrise","lat":49.28333,"lon":-123.03333,"type":"city"},{"id":"ca-12076633","label":"Hauterive","lat":49.19572,"lon":-68.25813,"type":"city"},{"id":"ca-13592151","label":"Hautes-Terres","lat":47.62877,"lon":-65.09284,"type":"city"},{"id":"ca-5972360","label":"Hawkesbury","lat":45.60009,"lon":-74.61595,"type":"city"},{"id":"ca-5972470","label":"Hawkwood","lat":51.13122,"lon":-114.17353,"type":"city"},{"id":"ca-5972768","label":"Haysboro","lat":50.96667,"lon":-114.08333,"type":"city"},{"id":"ca-5973973","label":"Henry Farm","lat":43.76952,"lon":-79.3524,"type":"city"},{"id":"ca-5974156","label":"Heritage Park","lat":43.45639,"lon":-80.44417,"type":"city"},{"id":"ca-13592146","label":"Heron Bay","lat":48.02185,"lon":-66.39597,"type":"city"},{"id":"ca-5974407","label":"Hespeler","lat":43.4334,"lon":-80.31637,"type":"city"},{"id":"ca-5974707","label":"Hidden Valley","lat":51.14856,"lon":-114.1143,"type":"city"},{"id":"ca-7870882","label":"High Park North","lat":43.65626,"lon":-79.47454,"type":"city"},{"id":"ca-12156905","label":"High Park-Swansea","lat":43.64506,"lon":-79.46787,"type":"city"},{"id":"ca-5975038","label":"High River","lat":50.58341,"lon":-113.86867,"type":"city"},{"id":"ca-5974949","label":"Highland Creek","lat":43.79068,"lon":-79.17555,"type":"city"},{"id":"ca-13580750","label":"Highland West","lat":43.43152,"lon":-80.54429,"type":"city"},{"id":"ca-13562306","label":"Highway 11","lat":49.03576,"lon":-122.28365,"type":"city"},{"id":"ca-5975135","label":"Hildegarde","lat":46.12296,"lon":-64.85392,"type":"city"},{"id":"ca-5975182","label":"Hillcrest Village","lat":43.80486,"lon":-79.35442,"type":"city"},{"id":"ca-5975200","label":"Hillhurst","lat":51.05434,"lon":-114.09431,"type":"city"},{"id":"ca-5975315","label":"Hillsdale","lat":50.42004,"lon":-104.60888,"type":"city"},{"id":"ca-13512360","label":"Hillside-Quadra","lat":48.44473,"lon":-123.35598,"type":"city"},{"id":"ca-5975503","label":"Hinton","lat":53.40009,"lon":-117.58567,"type":"city"},{"id":"ca-5975504","label":"Hintonburg","lat":45.40379,"lon":-75.7283,"type":"city"},{"id":"ca-13512417","label":"Historic Downtown","lat":49.05141,"lon":-122.29335,"type":"city"},{"id":"ca-13512934","label":"Hockaday","lat":49.29678,"lon":-122.77035,"type":"city"},{"id":"ca-7626862","label":"Hollick-Kenyon","lat":53.62209,"lon":-113.42465,"type":"city"},{"id":"ca-13589207","label":"Holmwood","lat":52.1234,"lon":-106.53904,"type":"city"},{"id":"ca-5976783","label":"Hope","lat":49.38299,"lon":-121.44144,"type":"city"},{"id":"ca-5978126","label":"Hudson","lat":45.45008,"lon":-74.14922,"type":"city"},{"id":"ca-6942644","label":"Hull","lat":45.42761,"lon":-75.71056,"type":"city"},{"id":"ca-12156895","label":"Humber Heights-Westmount","lat":43.69223,"lon":-79.52242,"type":"city"},{"id":"ca-5978398","label":"Humber Summit","lat":43.7579,"lon":-79.57501,"type":"city"},{"id":"ca-5948587","label":"Humbermede","lat":43.7525,"lon":-79.54417,"type":"city"},{"id":"ca-12156829","label":"Humewood-Cedarvale","lat":43.69137,"lon":-79.42768,"type":"city"},{"id":"ca-5978464","label":"Humphrey","lat":46.11987,"lon":-64.77797,"type":"city"},{"id":"ca-5978706","label":"Huntington Hills","lat":51.11667,"lon":-114.06667,"type":"city"},{"id":"ca-5978765","label":"Huntsville","lat":45.33341,"lon":-79.21632,"type":"city"},{"id":"ca-5978831","label":"Huron East","lat":43.61679,"lon":-81.29975,"type":"city"},{"id":"ca-13580751","label":"Huron Park","lat":43.40231,"lon":-80.47927,"type":"city"},{"id":"ca-13580752","label":"Idlewood","lat":43.45004,"lon":-80.42768,"type":"city"},{"id":"ca-13592150","label":"Ile-de-Lameque","lat":47.84661,"lon":-64.59607,"type":"city"},{"id":"ca-12626176","label":"Ile-des-Soeurs","lat":45.46033,"lon":-73.54817,"type":"city"},{"id":"ca-5982627","label":"Imperoyal","lat":44.63618,"lon":-63.5273,"type":"city"},{"id":"ca-5983175","label":"Ingersoll","lat":43.03339,"lon":-80.88302,"type":"city"},{"id":"ca-5983198","label":"Inglewood","lat":53.56203,"lon":-113.53598,"type":"city"},{"id":"ca-13512924","label":"Inlet Centre","lat":49.27611,"lon":-122.84538,"type":"city"},{"id":"ca-5983430","label":"Innisfail","lat":52.02688,"lon":-113.95071,"type":"city"},{"id":"ca-5983433","label":"Innisfil","lat":44.30011,"lon":-79.64964,"type":"city"},{"id":"ca-5983680","label":"Ionview","lat":43.73694,"lon":-79.27333,"type":"city"},{"id":"ca-5983720","label":"Iqaluit","lat":63.74697,"lon":-68.51727,"type":"city"},{"id":"ca-13512955","label":"Ironwood","lat":49.12609,"lon":-123.09512,"type":"city"},{"id":"ca-12156826","label":"Islington-City Centre West","lat":43.63347,"lon":-79.54332,"type":"city"},{"id":"ca-5985549","label":"James Bay","lat":48.41667,"lon":-123.38333,"type":"city"},{"id":"ca-5987650","label":"Joliette","lat":46.0164,"lon":-73.4236,"type":"city"},{"id":"ca-7303786","label":"Jonquiere","lat":48.41648,"lon":-71.24884,"type":"city"},{"id":"ca-13512361","label":"Jubilee","lat":48.43034,"lon":-123.32833,"type":"city"},{"id":"ca-12156836","label":"Junction Area","lat":43.66789,"lon":-79.47144,"type":"city"},{"id":"ca-13546315","label":"Kahnawake","lat":45.41076,"lon":-73.68139,"type":"city"},{"id":"ca-5989045","label":"Kamloops","lat":50.66648,"lon":-120.3192,"type":"city"},{"id":"ca-5989117","label":"Kanata","lat":45.3001,"lon":-75.91606,"type":"city"},{"id":"ca-12070712","label":"Kanata-Lakes","lat":45.32103,"lon":-75.91767,"type":"city"},{"id":"ca-5989403","label":"Kapuskasing","lat":49.41694,"lon":-82.43308,"type":"city"},{"id":"ca-12156892","label":"Keelesdale-Eglinton West","lat":43.68573,"lon":-79.47144,"type":"city"},{"id":"ca-5990579","label":"Kelowna","lat":49.88307,"lon":-119.48568,"type":"city"},{"id":"ca-5990916","label":"Kennedy Park","lat":43.72267,"lon":-79.26052,"type":"city"},{"id":"ca-5991055","label":"Kenora","lat":49.76741,"lon":-94.48985,"type":"city"},{"id":"ca-13589230","label":"Kensington","lat":52.13352,"lon":-106.75963,"type":"city"},{"id":"ca-5991085","label":"Kensington-Cedar Cottage","lat":49.25,"lon":-123.06667,"type":"city"},{"id":"ca-12156886","label":"Kensington-Chinatown","lat":43.65355,"lon":-79.39724,"type":"city"},{"id":"ca-5991148","label":"Kentville","lat":45.0771,"lon":-64.49605,"type":"city"},{"id":"ca-13512371","label":"Kerrisdale","lat":49.23442,"lon":-123.15511,"type":"city"},{"id":"ca-5991370","label":"Keswick","lat":44.25011,"lon":-79.46632,"type":"city"},{"id":"ca-13580461","label":"Kilbride","lat":47.50649,"lon":-52.75596,"type":"city"},{"id":"ca-5991870","label":"Kilkenny","lat":53.60833,"lon":-113.45278,"type":"city"},{"id":"ca-5991909","label":"Killarney","lat":49.22594,"lon":-123.04282,"type":"city"},{"id":"ca-5992059","label":"Kimberley","lat":49.67071,"lon":-115.9776,"type":"city"},{"id":"ca-5992144","label":"Kincardine","lat":44.18339,"lon":-81.63307,"type":"city"},{"id":"ca-7870902","label":"Kincora","lat":51.15943,"lon":-114.1337,"type":"city"},{"id":"ca-5992180","label":"King","lat":43.96514,"lon":-79.59011,"type":"city"},{"id":"ca-5992211","label":"King City","lat":43.92856,"lon":-79.52694,"type":"city"},{"id":"ca-13665252","label":"King Edward","lat":49.88461,"lon":-97.21331,"type":"city"},{"id":"ca-5992500","label":"Kingston","lat":44.22976,"lon":-76.48098,"type":"city"},{"id":"ca-12156906","label":"Kingsview Village-The Westway","lat":43.69899,"lon":-79.54786,"type":"city"},{"id":"ca-5992526","label":"Kingsville","lat":42.10009,"lon":-82.73312,"type":"city"},{"id":"ca-12156907","label":"Kingsway South","lat":43.65352,"lon":-79.51058,"type":"city"},{"id":"ca-13495386","label":"Kingsway-Beresford","lat":49.22482,"lon":-122.96403,"type":"city"},{"id":"ca-11791122","label":"Kiniski Gardens","lat":53.47503,"lon":-113.40121,"type":"city"},{"id":"ca-5992830","label":"Kirkland","lat":45.45008,"lon":-73.86586,"type":"city"},{"id":"ca-5992836","label":"Kirkland Lake","lat":48.14461,"lon":-80.03767,"type":"city"},{"id":"ca-5992996","label":"Kitchener","lat":43.42537,"lon":-80.5112,"type":"city"},{"id":"ca-5993072","label":"Kitimat","lat":54.05244,"lon":-128.65342,"type":"city"},{"id":"ca-5993123","label":"Kitsilano","lat":49.26667,"lon":-123.16667,"type":"city"},{"id":"ca-12156843","label":"L'Amoreaux","lat":43.79572,"lon":-79.31408,"type":"city"},{"id":"ca-6534203","label":"L'Ancienne-Lorette","lat":46.79392,"lon":-71.35191,"type":"city"},{"id":"ca-6050263","label":"L'Assomption","lat":45.82318,"lon":-73.4294,"type":"city"},{"id":"ca-12626120","label":"L'Ile-Bizard-Sainte-Genevieve","lat":45.49391,"lon":-73.8956,"type":"city"},{"id":"ca-6053877","label":"L'Ile-Perrot","lat":45.38338,"lon":-73.9492,"type":"city"},{"id":"ca-13589045","label":"La Cite-Limoilou","lat":46.82894,"lon":-71.22641,"type":"city"},{"id":"ca-11838435","label":"La Haute-Saint-Charles","lat":46.89028,"lon":-71.37222,"type":"city"},{"id":"ca-6945986","label":"La Malbaie","lat":47.654,"lon":-70.15268,"type":"city"},{"id":"ca-6049676","label":"La Perle","lat":53.53611,"lon":-113.64028,"type":"city"},{"id":"ca-6049863","label":"La Prairie","lat":45.41678,"lon":-73.49917,"type":"city"},{"id":"ca-6050066","label":"La Ronge","lat":55.10013,"lon":-105.28422,"type":"city"},{"id":"ca-6050194","label":"La Sarre","lat":48.80019,"lon":-79.19964,"type":"city"},{"id":"ca-6050416","label":"La Tuque","lat":47.43337,"lon":-72.7824,"type":"city"},{"id":"ca-5994839","label":"Labrador City","lat":52.94626,"lon":-66.91137,"type":"city"},{"id":"ca-6002133","label":"Lac-Brome","lat":45.21678,"lon":-72.51581,"type":"city"},{"id":"ca-6032673","label":"Lac-Megantic","lat":45.58338,"lon":-70.88234,"type":"city"},{"id":"ca-6024829","label":"Lachute","lat":45.65008,"lon":-74.33253,"type":"city"},{"id":"ca-6035615","label":"Lacombe","lat":52.46681,"lon":-113.7353,"type":"city"},{"id":"ca-7602078","label":"Ladner","lat":49.08938,"lon":-123.08241,"type":"city"},{"id":"ca-6047817","label":"Ladysmith","lat":48.99016,"lon":-123.81699,"type":"city"},{"id":"ca-6047861","label":"Lafleche","lat":45.50008,"lon":-73.46587,"type":"city"},{"id":"ca-6048275","label":"Lake Bonavista","lat":50.94204,"lon":-114.05422,"type":"city"},{"id":"ca-12070755","label":"Lake Country","lat":50.0088,"lon":-119.39672,"type":"city"},{"id":"ca-6048292","label":"Lakeburn","lat":46.10014,"lon":-64.68205,"type":"city"},{"id":"ca-13580705","label":"Lakeshore North-Conservation","lat":43.49656,"lon":-80.56116,"type":"city"},{"id":"ca-6048675","label":"Lakeshore Village","lat":43.48833,"lon":-80.55111,"type":"city"},{"id":"ca-6048775","label":"Lakeview","lat":50.43143,"lon":-104.62333,"type":"city"},{"id":"ca-6048776","label":"Lakeview","lat":52.09532,"lon":-106.59783,"type":"city"},{"id":"ca-6048778","label":"Lakeview","lat":50.99674,"lon":-114.11954,"type":"city"},{"id":"ca-13589208","label":"Lakewood","lat":52.1085,"lon":-106.59027,"type":"city"},{"id":"ca-12156846","label":"Lambton Baby Point","lat":43.65742,"lon":-79.49605,"type":"city"},{"id":"ca-6049024","label":"Lambton Shores","lat":43.16678,"lon":-81.93309,"type":"city"},{"id":"ca-13580774","label":"Lang's Farm","lat":43.39783,"lon":-80.33558,"type":"city"},{"id":"ca-6049388","label":"Langford","lat":48.44963,"lon":-123.50261,"type":"city"},{"id":"ca-6049429","label":"Langley","lat":49.10107,"lon":-122.65883,"type":"city"},{"id":"ca-12156849","label":"Lansing-Westgate","lat":43.75427,"lon":-79.42475,"type":"city"},{"id":"ca-6050177","label":"LaSalle","lat":42.24481,"lon":-83.06095,"type":"city"},{"id":"ca-13580708","label":"Laurelwood","lat":43.46866,"lon":-80.58005,"type":"city"},{"id":"ca-6050534","label":"Laurentian Hills","lat":43.42,"lon":-80.49472,"type":"city"},{"id":"ca-6050539","label":"Laurentides","lat":47.13336,"lon":-72.28239,"type":"city"},{"id":"ca-6050610","label":"Laval","lat":45.56995,"lon":-73.692,"type":"city"},{"id":"ca-6050619","label":"Laval-des-Rapides","lat":45.55642,"lon":-73.70007,"type":"city"},{"id":"ca-6050650","label":"Lavaltrie","lat":45.88338,"lon":-73.28245,"type":"city"},{"id":"ca-12156847","label":"Lawrence Park North","lat":43.73006,"lon":-79.40398,"type":"city"},{"id":"ca-12156850","label":"Lawrence Park South","lat":43.71721,"lon":-79.40604,"type":"city"},{"id":"ca-13589212","label":"Lawson","lat":52.16432,"lon":-106.63884,"type":"city"},{"id":"ca-6050906","label":"Lawson Heights","lat":52.17115,"lon":-106.6195,"type":"city"},{"id":"ca-10627796","label":"Le Plateau","lat":45.43514,"lon":-75.7803,"type":"city"},{"id":"ca-13546316","label":"Le Plateau-Mont-Royal","lat":45.52833,"lon":-73.58081,"type":"city"},{"id":"ca-13546318","label":"Le Sud-Ouest","lat":45.47187,"lon":-73.58986,"type":"city"},{"id":"ca-13546325","label":"Le Vieux-Longueuil","lat":45.53721,"lon":-73.50773,"type":"city"},{"id":"ca-6051122","label":"Leamington","lat":42.05009,"lon":-82.59981,"type":"city"},{"id":"ca-12156851","label":"Leaside-Bennington","lat":43.7038,"lon":-79.36607,"type":"city"},{"id":"ca-6051562","label":"Leduc","lat":53.26682,"lon":-113.55201,"type":"city"},{"id":"ca-11791754","label":"Legacy","lat":50.85603,"lon":-114.00486,"type":"city"},{"id":"ca-6052788","label":"Les Coteaux","lat":45.28338,"lon":-74.23254,"type":"city"},{"id":"ca-13589046","label":"Les Rivieres","lat":46.81847,"lon":-71.272,"type":"city"},{"id":"ca-6053154","label":"Lethbridge","lat":49.69999,"lon":-112.81856,"type":"city"},{"id":"ca-6325521","label":"Levis","lat":46.80326,"lon":-71.17793,"type":"city"},{"id":"ca-6053462","label":"Lewisville","lat":46.10437,"lon":-64.7532,"type":"city"},{"id":"ca-13580711","label":"Lexington","lat":43.49736,"lon":-80.49121,"type":"city"},{"id":"ca-13580713","label":"Lincoln","lat":43.49527,"lon":-80.50656,"type":"city"},{"id":"ca-6054350","label":"Lindsay","lat":44.35012,"lon":-78.73286,"type":"city"},{"id":"ca-6054677","label":"Listowel","lat":43.7334,"lon":-80.94973,"type":"city"},{"id":"ca-7870917","label":"Little Portugal","lat":43.64663,"lon":-79.42956,"type":"city"},{"id":"ca-13580775","label":"Little's Corners","lat":43.34386,"lon":-80.27583,"type":"city"},{"id":"ca-6057842","label":"Lively","lat":46.43338,"lon":-81.14975,"type":"city"},{"id":"ca-6058024","label":"Lloydminster","lat":53.27237,"lon":-110.02256,"type":"city"},{"id":"ca-13495389","label":"Lochdale","lat":49.27373,"lon":-122.96479,"type":"city"},{"id":"ca-6058560","label":"London","lat":42.98339,"lon":-81.23304,"type":"city"},{"id":"ca-7871302","label":"Long Branch","lat":43.5914,"lon":-79.53252,"type":"city"},{"id":"ca-6059891","label":"Longueuil","lat":45.5152,"lon":-73.46818,"type":"city"},{"id":"ca-6060407","label":"Lorraine","lat":45.68338,"lon":-73.78249,"type":"city"},{"id":"ca-13512377","label":"Lougheed","lat":49.2481,"lon":-122.89236,"type":"city"},{"id":"ca-6060839","label":"Louiseville","lat":46.25594,"lon":-72.94145,"type":"city"},{"id":"ca-6061334","label":"Lower Lonsdale","lat":49.31406,"lon":-123.0725,"type":"city"},{"id":"ca-10287505","label":"Lower Sackville","lat":44.77599,"lon":-63.67865,"type":"city"},{"id":"ca-6061551","label":"Lowertown","lat":45.43193,"lon":-75.69319,"type":"city"},{"id":"ca-6062163","label":"Lutes Mountain","lat":46.13544,"lon":-64.90504,"type":"city"},{"id":"ca-11791088","label":"Lymburn","lat":53.50754,"lon":-113.64216,"type":"city"},{"id":"ca-13512941","label":"Lyndhurst","lat":49.26544,"lon":-122.89919,"type":"city"},{"id":"ca-11791108","label":"MacEwan","lat":53.42845,"lon":-113.5274,"type":"city"},{"id":"ca-6064180","label":"Magog","lat":45.26678,"lon":-72.14909,"type":"city"},{"id":"ca-11791779","label":"Mahogany","lat":50.89608,"lon":-113.92487,"type":"city"},{"id":"ca-6064365","label":"Maillardville","lat":49.23839,"lon":-122.86676,"type":"city"},{"id":"ca-6064969","label":"Malvern","lat":43.80938,"lon":-79.22344,"type":"city"},{"id":"ca-13561904","label":"Manor Park","lat":44.67164,"lon":-63.54898,"type":"city"},{"id":"ca-13592162","label":"Maple Hills","lat":46.21332,"lon":-64.86945,"type":"city"},{"id":"ca-12156880","label":"Maple Leaf","lat":43.71557,"lon":-79.48076,"type":"city"},{"id":"ca-6065686","label":"Maple Ridge","lat":49.21939,"lon":-122.60193,"type":"city"},{"id":"ca-6066350","label":"Marieville","lat":45.43338,"lon":-73.16585,"type":"city"},{"id":"ca-6066513","label":"Markham","lat":43.86682,"lon":-79.2663,"type":"city"},{"id":"ca-6066548","label":"Markland Wood","lat":43.63347,"lon":-79.57569,"type":"city"},{"id":"ca-6066608","label":"Marlborough","lat":51.05925,"lon":-113.96813,"type":"city"},{"id":"ca-13495381","label":"Marlborough","lat":49.22946,"lon":-122.98986,"type":"city"},{"id":"ca-6066612","label":"Marlborough Park","lat":51.05833,"lon":-113.94444,"type":"city"},{"id":"ca-13495378","label":"Marpole","lat":49.21359,"lon":-123.12979,"type":"city"},{"id":"ca-13513183","label":"Marpole South","lat":49.20613,"lon":-123.13182,"type":"city"},{"id":"ca-13512419","label":"Marshall-McCallum","lat":49.03723,"lon":-122.30168,"type":"city"},{"id":"ca-6067033","label":"Martensville","lat":52.28339,"lon":-106.66792,"type":"city"},{"id":"ca-6067090","label":"Martindale","lat":51.11806,"lon":-113.95556,"type":"city"},{"id":"ca-6067472","label":"Marystown","lat":47.16663,"lon":-55.14829,"type":"city"},{"id":"ca-6067494","label":"Mascouche","lat":45.74965,"lon":-73.59956,"type":"city"},{"id":"ca-6696260","label":"Matane","lat":48.82857,"lon":-67.52197,"type":"city"},{"id":"ca-6068380","label":"Mayland Heights","lat":51.06084,"lon":-114.01114,"type":"city"},{"id":"ca-13512548","label":"Maywood","lat":49.22219,"lon":-123.00588,"type":"city"},{"id":"ca-6063244","label":"McKenzie Lake","lat":50.90833,"lon":-113.98056,"type":"city"},{"id":"ca-6070250","label":"McKenzie Towne","lat":50.91342,"lon":-113.96736,"type":"city"},{"id":"ca-6070782","label":"McMasterville","lat":45.55008,"lon":-73.26585,"type":"city"},{"id":"ca-13512418","label":"McMillan","lat":49.04494,"lon":-122.26665,"type":"city"},{"id":"ca-6071421","label":"Meadow Lake","lat":54.13348,"lon":-108.43471,"type":"city"},{"id":"ca-6071618","label":"Medicine Hat","lat":50.03928,"lon":-110.67661,"type":"city"},{"id":"ca-6071876","label":"Melfort","lat":52.86673,"lon":-104.61768,"type":"city"},{"id":"ca-13561918","label":"Membertou","lat":46.11518,"lon":-60.18932,"type":"city"},{"id":"ca-6072045","label":"Memramcook","lat":46.00435,"lon":-64.55156,"type":"city"},{"id":"ca-6072206","label":"Mercier","lat":45.3105,"lon":-73.73976,"type":"city"},{"id":"ca-13546319","label":"Mercier-Hochelaga-Maisonneuve","lat":45.57194,"lon":-73.54626,"type":"city"},{"id":"ca-6072350","label":"Merritt","lat":50.11225,"lon":-120.7942,"type":"city"},{"id":"ca-6072482","label":"Metchosin","lat":48.38293,"lon":-123.53591,"type":"city"},{"id":"ca-6072539","label":"Metrotown","lat":49.225,"lon":-123,"type":"city"},{"id":"ca-6073363","label":"Midland","lat":44.7501,"lon":-79.88296,"type":"city"},{"id":"ca-6073377","label":"Midnapore","lat":50.91532,"lon":-114.05903,"type":"city"},{"id":"ca-12626156","label":"Mile End","lat":45.5237,"lon":-73.59631,"type":"city"},{"id":"ca-6073743","label":"Mill Bay","lat":48.65,"lon":-123.55,"type":"city"},{"id":"ca-6074123","label":"Millidgeville","lat":45.3017,"lon":-66.10319,"type":"city"},{"id":"ca-6074143","label":"Milliken","lat":43.82499,"lon":-79.29872,"type":"city"},{"id":"ca-6074228","label":"Millrise","lat":50.91667,"lon":-114.08472,"type":"city"},{"id":"ca-6074291","label":"Millview","lat":44.70934,"lon":-63.67035,"type":"city"},{"id":"ca-6074377","label":"Milton","lat":43.51681,"lon":-79.88294,"type":"city"},{"id":"ca-12626178","label":"Milton-Parc","lat":45.51004,"lon":-73.57455,"type":"city"},{"id":"ca-6074409","label":"Mimico","lat":43.61616,"lon":-79.51269,"type":"city"},{"id":"ca-6075061","label":"Mirabel","lat":45.65008,"lon":-74.08251,"type":"city"},{"id":"ca-6075081","label":"Miramichi","lat":47.02895,"lon":-65.50186,"type":"city"},{"id":"ca-6075292","label":"Mission","lat":49.13298,"lon":-122.30258,"type":"city"},{"id":"ca-6075357","label":"Mississauga","lat":43.5789,"lon":-79.6583,"type":"city"},{"id":"ca-6075370","label":"Mississippi Mills","lat":45.23341,"lon":-76.19939,"type":"city"},{"id":"ca-6076211","label":"Moncton","lat":46.09454,"lon":-64.7965,"type":"city"},{"id":"ca-6944113","label":"Mont-Joli","lat":48.58388,"lon":-68.19214,"type":"city"},{"id":"ca-6077128","label":"Mont-Laurier","lat":46.55011,"lon":-75.4993,"type":"city"},{"id":"ca-6077315","label":"Mont-Royal","lat":45.51675,"lon":-73.64918,"type":"city"},{"id":"ca-6077340","label":"Mont-Saint-Hilaire","lat":45.56515,"lon":-73.1868,"type":"city"},{"id":"ca-6077445","label":"Mont-Tremblant","lat":46.21274,"lon":-74.58438,"type":"city"},{"id":"ca-13665224","label":"Montcalm","lat":49.81192,"lon":-97.15329,"type":"city"},{"id":"ca-6076967","label":"Monterey Park","lat":51.08194,"lon":-113.92917,"type":"city"},{"id":"ca-6325529","label":"Montmagny","lat":46.98043,"lon":-70.55493,"type":"city"},{"id":"ca-6077243","label":"Montreal","lat":45.50884,"lon":-73.58781,"type":"city"},{"id":"ca-13546320","label":"Montreal-Nord","lat":45.6016,"lon":-73.63063,"type":"city"},{"id":"ca-6077265","label":"Montreal-Ouest","lat":45.45286,"lon":-73.64918,"type":"city"},{"id":"ca-6078112","label":"Moose Jaw","lat":50.40005,"lon":-105.53445,"type":"city"},{"id":"ca-6078447","label":"Morden","lat":49.1919,"lon":-98.10136,"type":"city"},{"id":"ca-6078636","label":"Morinville","lat":53.80014,"lon":-113.65203,"type":"city"},{"id":"ca-7871306","label":"Morningside","lat":43.78727,"lon":-79.20636,"type":"city"},{"id":"ca-7870782","label":"Moss Park","lat":43.65498,"lon":-79.37153,"type":"city"},{"id":"ca-13580453","label":"Mount Cashel","lat":47.58882,"lon":-52.70962,"type":"city"},{"id":"ca-6080488","label":"Mount Dennis","lat":43.68694,"lon":-79.48917,"type":"city"},{"id":"ca-6080782","label":"Mount Forest","lat":43.97948,"lon":-80.72205,"type":"city"},{"id":"ca-13580756","label":"Mount Hope Huron Park","lat":43.45942,"lon":-80.49644,"type":"city"},{"id":"ca-12156853","label":"Mount Olive-Silverstone-Jamestown","lat":43.74687,"lon":-79.58726,"type":"city"},{"id":"ca-6082231","label":"Mount Pearl","lat":47.51659,"lon":-52.78135,"type":"city"},{"id":"ca-6082321","label":"Mount Pleasant","lat":51.07322,"lon":-114.07705,"type":"city"},{"id":"ca-6082322","label":"Mount Pleasant","lat":49.26667,"lon":-123.1,"type":"city"},{"id":"ca-12156854","label":"Mount Pleasant East","lat":43.70485,"lon":-79.38492,"type":"city"},{"id":"ca-12156828","label":"Mount Pleasant West","lat":43.70444,"lon":-79.39336,"type":"city"},{"id":"ca-6082548","label":"Mount Royal","lat":52.13588,"lon":-106.70061,"type":"city"},{"id":"ca-13562300","label":"Mt Pleasant","lat":49.26239,"lon":-123.10019,"type":"city"},{"id":"ca-13580475","label":"Mundy Pond","lat":47.5491,"lon":-52.74648,"type":"city"},{"id":"ca-6084746","label":"Murrayville","lat":49.08333,"lon":-122.61667,"type":"city"},{"id":"ca-6085772","label":"Nanaimo","lat":49.16638,"lon":-123.94003,"type":"city"},{"id":"ca-8504652","label":"Nanoose Bay","lat":49.27237,"lon":-124.19332,"type":"city"},{"id":"ca-6085931","label":"Napanee","lat":44.25012,"lon":-76.94944,"type":"city"},{"id":"ca-6086161","label":"Nashwaaksis","lat":45.98011,"lon":-66.65793,"type":"city"},{"id":"ca-6086871","label":"Nelson","lat":49.49985,"lon":-117.28553,"type":"city"},{"id":"ca-6087029","label":"Nepean","lat":45.33619,"lon":-75.7225,"type":"city"},{"id":"ca-11838437","label":"Neufchatel-Est-Lebourgneuf","lat":46.85436,"lon":-71.34191,"type":"city"},{"id":"ca-7871388","label":"New Brighton","lat":50.92046,"lon":-113.94505,"type":"city"},{"id":"ca-6087579","label":"New Glasgow","lat":45.58344,"lon":-62.64863,"type":"city"},{"id":"ca-6087591","label":"New Hamburg","lat":43.38339,"lon":-80.6997,"type":"city"},{"id":"ca-13512936","label":"New Horizons","lat":49.28125,"lon":-122.77906,"type":"city"},{"id":"ca-6087824","label":"New Toronto","lat":43.60019,"lon":-79.50527,"type":"city"},{"id":"ca-6087843","label":"New Waterford","lat":46.25014,"lon":-60.08175,"type":"city"},{"id":"ca-6087844","label":"New Westminster","lat":49.20678,"lon":-122.91092,"type":"city"},{"id":"ca-6087701","label":"Newmarket","lat":44.05011,"lon":-79.46631,"type":"city"},{"id":"ca-6087790","label":"Newton","lat":49.13333,"lon":-122.85,"type":"city"},{"id":"ca-12156840","label":"Newtonbrook East","lat":43.79154,"lon":-79.40594,"type":"city"},{"id":"ca-12156842","label":"Newtonbrook West","lat":43.78583,"lon":-79.43142,"type":"city"},{"id":"ca-7870919","label":"Niagara","lat":43.64455,"lon":-79.40712,"type":"city"},{"id":"ca-6087892","label":"Niagara Falls","lat":43.10012,"lon":-79.06627,"type":"city"},{"id":"ca-6087905","label":"Niagara-on-the-Lake","lat":43.25655,"lon":-79.08527,"type":"city"},{"id":"ca-6088132","label":"Nicolet","lat":46.23085,"lon":-72.61292,"type":"city"},{"id":"ca-11791728","label":"Nolan Hill","lat":51.17551,"lon":-114.16552,"type":"city"},{"id":"ca-6089125","label":"Norfolk County","lat":42.8334,"lon":-80.38297,"type":"city"},{"id":"ca-6089404","label":"North Battleford","lat":52.77972,"lon":-108.2967,"type":"city"},{"id":"ca-6089426","label":"North Bay","lat":46.3168,"lon":-79.46633,"type":"city"},{"id":"ca-13589249","label":"North Central","lat":50.45715,"lon":-104.62776,"type":"city"},{"id":"ca-6089661","label":"North Cowichan","lat":48.84133,"lon":-123.68596,"type":"city"},{"id":"ca-6089692","label":"North Delta","lat":49.16667,"lon":-122.91667,"type":"city"},{"id":"ca-13580447","label":"North End","lat":45.27017,"lon":-66.08137,"type":"city"},{"id":"ca-6090172","label":"North Kamloops","lat":50.69978,"lon":-120.3692,"type":"city"},{"id":"ca-6090405","label":"North Perth","lat":43.7251,"lon":-80.96723,"type":"city"},{"id":"ca-12156855","label":"North Riverdale","lat":43.672,"lon":-79.35126,"type":"city"},{"id":"ca-6090579","label":"North Saanich","lat":48.66634,"lon":-123.41933,"type":"city"},{"id":"ca-12156821","label":"North St.James Town","lat":43.66962,"lon":-79.37525,"type":"city"},{"id":"ca-6090698","label":"North Sydney","lat":46.20777,"lon":-60.25489,"type":"city"},{"id":"ca-6090785","label":"North Vancouver","lat":49.31636,"lon":-123.06934,"type":"city"},{"id":"ca-13589239","label":"Northeast Regina","lat":50.47678,"lon":-104.60686,"type":"city"},{"id":"ca-13589268","label":"Northwood","lat":48.3891,"lon":-89.27522,"type":"city"},{"id":"ca-7732488","label":"Norway House","lat":53.98214,"lon":-97.83265,"type":"city"},{"id":"ca-6091314","label":"Notre-Dame-de-Grace","lat":45.47675,"lon":-73.61432,"type":"city"},{"id":"ca-6091369","label":"Notre-Dame-de-l'Ile-Perrot","lat":45.36678,"lon":-73.9325,"type":"city"},{"id":"ca-6091422","label":"Notre-Dame-des-Prairies","lat":46.05007,"lon":-73.43245,"type":"city"},{"id":"ca-6091772","label":"Nutana","lat":52.11893,"lon":-106.65617,"type":"city"},{"id":"ca-13589205","label":"Nutana Sector","lat":52.09998,"lon":-106.63709,"type":"city"},{"id":"ca-12156884","label":"O'Connor-Parkview","lat":43.7068,"lon":-79.31223,"type":"city"},{"id":"ca-6091919","label":"Oak Bay","lat":48.44964,"lon":-123.3026,"type":"city"},{"id":"ca-13512363","label":"Oaklands","lat":48.4439,"lon":-123.34065,"type":"city"},{"id":"ca-6092095","label":"Oakridge","lat":43.69686,"lon":-79.28028,"type":"city"},{"id":"ca-6092096","label":"Oakridge","lat":50.96762,"lon":-114.12889,"type":"city"},{"id":"ca-6092097","label":"Oakridge","lat":49.23333,"lon":-123.11667,"type":"city"},{"id":"ca-6092122","label":"Oakville","lat":43.45011,"lon":-79.68292,"type":"city"},{"id":"ca-6092125","label":"Oakwood Village","lat":43.68278,"lon":-79.43833,"type":"city"},{"id":"ca-6092708","label":"Ogden","lat":50.99306,"lon":-114.01389,"type":"city"},{"id":"ca-6092896","label":"Okanagan Mission","lat":49.81667,"lon":-119.48333,"type":"city"},{"id":"ca-6093010","label":"Okotoks","lat":50.72885,"lon":-113.98281,"type":"city"},{"id":"ca-12156856","label":"Old East York","lat":43.69678,"lon":-79.33549,"type":"city"},{"id":"ca-6093347","label":"Olds","lat":51.78341,"lon":-114.10199,"type":"city"},{"id":"ca-6093514","label":"Oliver","lat":49.18306,"lon":-119.5524,"type":"city"},{"id":"ca-13591683","label":"Olympic Village","lat":49.26997,"lon":-123.11185,"type":"city"},{"id":"ca-6094201","label":"Orangeville","lat":43.9168,"lon":-80.09967,"type":"city"},{"id":"ca-6094325","label":"Orillia","lat":44.60868,"lon":-79.42068,"type":"city"},{"id":"ca-8556295","label":"Orleans","lat":45.45732,"lon":-75.50433,"type":"city"},{"id":"ca-6094389","label":"Ormsby Place","lat":53.49861,"lon":-113.64167,"type":"city"},{"id":"ca-6094407","label":"Oromocto","lat":45.83512,"lon":-66.47917,"type":"city"},{"id":"ca-6094578","label":"Oshawa","lat":43.90012,"lon":-78.84957,"type":"city"},{"id":"ca-6094665","label":"Osoyoos","lat":49.03306,"lon":-119.45237,"type":"city"},{"id":"ca-6094817","label":"Ottawa","lat":45.41117,"lon":-75.69812,"type":"city"},{"id":"ca-6094835","label":"Ottawa South","lat":45.3921,"lon":-75.68725,"type":"city"},{"id":"ca-6094884","label":"Otterburn Park","lat":45.53338,"lon":-73.21585,"type":"city"},{"id":"ca-6095214","label":"Ottewell","lat":53.52766,"lon":-113.43049,"type":"city"},{"id":"ca-12626165","label":"Outremont","lat":45.51564,"lon":-73.60865,"type":"city"},{"id":"ca-6095514","label":"Overbrook","lat":45.42726,"lon":-75.65204,"type":"city"},{"id":"ca-6095645","label":"Owen Sound","lat":44.56717,"lon":-80.94349,"type":"city"},{"id":"ca-6095787","label":"Oxford Heights","lat":49.28115,"lon":-122.76013,"type":"city"},{"id":"ca-12156848","label":"Palmerston-Little Italy","lat":43.65916,"lon":-79.41841,"type":"city"},{"id":"ca-6096582","label":"Panorama Hills","lat":51.15286,"lon":-114.081,"type":"city"},{"id":"ca-6096729","label":"Paradise","lat":47.52909,"lon":-52.88136,"type":"city"},{"id":"ca-12626157","label":"Parc-Extension","lat":45.52951,"lon":-73.63176,"type":"city"},{"id":"ca-6942553","label":"Paris","lat":43.2,"lon":-80.38333,"type":"city"},{"id":"ca-6098602","label":"Parkridge","lat":52.12421,"lon":-106.75116,"type":"city"},{"id":"ca-6098642","label":"Parksville","lat":49.31947,"lon":-124.31575,"type":"city"},{"id":"ca-13580446","label":"Parkton","lat":46.08553,"lon":-64.79536,"type":"city"},{"id":"ca-12156818","label":"Parkwoods-Donalda","lat":43.75503,"lon":-79.33018,"type":"city"},{"id":"ca-6098747","label":"Parry Sound","lat":45.34732,"lon":-80.03527,"type":"city"},{"id":"ca-6100069","label":"Peace River","lat":56.23715,"lon":-117.29176,"type":"city"},{"id":"ca-6100086","label":"Peachland","lat":49.76862,"lon":-119.74633,"type":"city"},{"id":"ca-13580478","label":"Pearlgate","lat":47.5019,"lon":-52.80324,"type":"city"},{"id":"ca-12156860","label":"Pelmo Park-Humberlea","lat":43.71752,"lon":-79.52828,"type":"city"},{"id":"ca-6100832","label":"Pembroke","lat":45.81681,"lon":-77.11616,"type":"city"},{"id":"ca-6100876","label":"Penbrooke Meadows","lat":51.05,"lon":-113.93333,"type":"city"},{"id":"ca-6100932","label":"Penetanguishene","lat":44.7834,"lon":-79.91637,"type":"city"},{"id":"ca-6101141","label":"Penticton","lat":49.48062,"lon":-119.58584,"type":"city"},{"id":"ca-6101546","label":"Perth","lat":44.90011,"lon":-76.24939,"type":"city"},{"id":"ca-6101606","label":"Petawawa","lat":45.89452,"lon":-77.28007,"type":"city"},{"id":"ca-6101645","label":"Peterborough","lat":44.30012,"lon":-78.31623,"type":"city"},{"id":"ca-12626142","label":"Petite-Bourgogne","lat":45.48867,"lon":-73.56812,"type":"city"},{"id":"ca-6103581","label":"Petrolia","lat":42.882,"lon":-82.152,"type":"city"},{"id":"ca-6104111","label":"Pickering","lat":43.90012,"lon":-79.13289,"type":"city"},{"id":"ca-6104319","label":"Pierrefonds","lat":45.45989,"lon":-73.89284,"type":"city"},{"id":"ca-13546321","label":"Pierrefonds-Roxboro","lat":45.5019,"lon":-73.8417,"type":"city"},{"id":"ca-6104876","label":"Pincourt","lat":45.38338,"lon":-73.9825,"type":"city"},{"id":"ca-6105195","label":"Pineridge","lat":51.07441,"lon":-113.94608,"type":"city"},{"id":"ca-13580758","label":"Pioneer Park","lat":43.39269,"lon":-80.44095,"type":"city"},{"id":"ca-6105815","label":"Pitt Meadows","lat":49.22119,"lon":-122.68965,"type":"city"},{"id":"ca-6106158","label":"Plantagenet","lat":45.5326,"lon":-74.99369,"type":"city"},{"id":"ca-12156861","label":"Playter Estates-Danforth","lat":43.6797,"lon":-79.35489,"type":"city"},{"id":"ca-6106303","label":"Pleasant Hill","lat":52.1256,"lon":-106.6995,"type":"city"},{"id":"ca-7871317","label":"Pleasant View","lat":43.78609,"lon":-79.33502,"type":"city"},{"id":"ca-6945991","label":"Plessisville","lat":46.21856,"lon":-71.76201,"type":"city"},{"id":"ca-6107272","label":"Pointe-Calumet","lat":45.50008,"lon":-73.9659,"type":"city"},{"id":"ca-6107325","label":"Pointe-Claire","lat":45.44868,"lon":-73.81669,"type":"city"},{"id":"ca-6107683","label":"Pointe-du-Lac","lat":48.50009,"lon":-71.78241,"type":"city"},{"id":"ca-12626145","label":"Pointe-Saint-Charles","lat":45.48072,"lon":-73.55485,"type":"city"},{"id":"ca-6109273","label":"Ponoka","lat":52.6768,"lon":-113.58147,"type":"city"},{"id":"ca-6110611","label":"Pont Rouge","lat":48.88332,"lon":-72.08247,"type":"city"},{"id":"ca-8379100","label":"Pont-Rouge","lat":46.75468,"lon":-71.69566,"type":"city"},{"id":"ca-6110747","label":"Pont-Viau","lat":45.57194,"lon":-73.68583,"type":"city"},{"id":"ca-13580776","label":"Popcorn House","lat":43.41953,"lon":-80.29878,"type":"city"},{"id":"ca-6111632","label":"Port Alberni","lat":49.24133,"lon":-124.8028,"type":"city"},{"id":"ca-6111704","label":"Port Colborne","lat":42.90012,"lon":-79.23288,"type":"city"},{"id":"ca-6111706","label":"Port Coquitlam","lat":49.26637,"lon":-122.76932,"type":"city"},{"id":"ca-6111745","label":"Port Elgin","lat":44.43605,"lon":-81.38981,"type":"city"},{"id":"ca-13512424","label":"Port Haney","lat":49.21227,"lon":-122.60474,"type":"city"},{"id":"ca-6111882","label":"Port Hope","lat":44.01682,"lon":-78.39953,"type":"city"},{"id":"ca-6111962","label":"Port Moody","lat":49.28124,"lon":-122.82457,"type":"city"},{"id":"ca-7499201","label":"Port Perry","lat":44.10676,"lon":-78.94441,"type":"city"},{"id":"ca-6112050","label":"Port Wallace","lat":44.69882,"lon":-63.54767,"type":"city"},{"id":"ca-6111696","label":"Port-Cartier","lat":50.03339,"lon":-66.86545,"type":"city"},{"id":"ca-6111529","label":"Portage la Prairie","lat":49.97282,"lon":-98.29263,"type":"city"},{"id":"ca-6112608","label":"Powell River","lat":49.83278,"lon":-124.52368,"type":"city"},{"id":"ca-13589253","label":"Prairie View","lat":50.47671,"lon":-104.68614,"type":"city"},{"id":"ca-13580777","label":"Preston Centre","lat":43.39437,"lon":-80.35936,"type":"city"},{"id":"ca-6113198","label":"Prevost","lat":45.86678,"lon":-74.08251,"type":"city"},{"id":"ca-6113335","label":"Prince Albert","lat":53.20008,"lon":-105.76772,"type":"city"},{"id":"ca-6113355","label":"Prince Edward","lat":44.00012,"lon":-77.24946,"type":"city"},{"id":"ca-6113365","label":"Prince George","lat":53.9166,"lon":-122.75301,"type":"city"},{"id":"ca-6113406","label":"Prince Rupert","lat":54.31507,"lon":-130.32098,"type":"city"},{"id":"ca-12156885","label":"Princess-Rosethorn","lat":43.66605,"lon":-79.54456,"type":"city"},{"id":"ca-6113466","label":"Princeville","lat":45.76684,"lon":-61.29853,"type":"city"},{"id":"ca-8379101","label":"Princeville","lat":46.17163,"lon":-71.87462,"type":"city"},{"id":"ca-7669009","label":"Promontory","lat":49.10354,"lon":-121.9352,"type":"city"},{"id":"ca-13561600","label":"Punjabi Market","lat":49.23303,"lon":-123.10161,"type":"city"},{"id":"ca-6114862","label":"Qualicum Beach","lat":49.34783,"lon":-124.44231,"type":"city"},{"id":"ca-6325494","label":"Quebec","lat":46.81228,"lon":-71.21454,"type":"city"},{"id":"ca-6115091","label":"Queen Mary Park","lat":53.55479,"lon":-113.51718,"type":"city"},{"id":"ca-6115107","label":"Queensborough","lat":49.18333,"lon":-122.93333,"type":"city"},{"id":"ca-6115156","label":"Queenswood Heights","lat":45.47083,"lon":-75.50556,"type":"city"},{"id":"ca-6115187","label":"Quesnel","lat":52.97842,"lon":-122.4931,"type":"city"},{"id":"ca-13512543","label":"Quilchena","lat":49.24341,"lon":-123.1508,"type":"city"},{"id":"ca-13561901","label":"Quinpool District","lat":44.64335,"lon":-63.59847,"type":"city"},{"id":"ca-6115355","label":"Quinte West","lat":44.18342,"lon":-77.56618,"type":"city"},{"id":"ca-6115383","label":"Quispamsis","lat":45.42135,"lon":-65.95127,"type":"city"},{"id":"ca-6115568","label":"Rabbittown","lat":47.56799,"lon":-52.72304,"type":"city"},{"id":"ca-6116401","label":"Ranch Park","lat":49.26047,"lon":-122.80906,"type":"city"},{"id":"ca-6116399","label":"Ranchlands","lat":51.11667,"lon":-114.18333,"type":"city"},{"id":"ca-6117611","label":"Rawdon","lat":46.05007,"lon":-73.71587,"type":"city"},{"id":"ca-6117731","label":"Rayside-Balfour","lat":46.60873,"lon":-81.20763,"type":"city"},{"id":"ca-6118158","label":"Red Deer","lat":52.26682,"lon":-113.802,"type":"city"},{"id":"ca-6118091","label":"Redcliff","lat":50.08336,"lon":-110.78495,"type":"city"},{"id":"ca-11791742","label":"Redstone","lat":51.17048,"lon":-113.95777,"type":"city"},{"id":"ca-6119101","label":"Regent Park","lat":43.66041,"lon":-79.3615,"type":"city"},{"id":"ca-6119109","label":"Regina","lat":50.45008,"lon":-104.6178,"type":"city"},{"id":"ca-6119448","label":"Renfrew","lat":45.46681,"lon":-76.68272,"type":"city"},{"id":"ca-6119450","label":"Renfrew","lat":51.06319,"lon":-114.03877,"type":"city"},{"id":"ca-13513180","label":"Renfrew Heights","lat":49.25448,"lon":-123.03159,"type":"city"},{"id":"ca-6119451","label":"Renfrew-Collingwood","lat":49.245,"lon":-123.03758,"type":"city"},{"id":"ca-6119518","label":"Repentigny","lat":45.74222,"lon":-73.45008,"type":"city"},{"id":"ca-6121621","label":"Revelstoke","lat":50.99712,"lon":-118.1953,"type":"city"},{"id":"ca-12156852","label":"Rexdale-Kipling","lat":43.72373,"lon":-79.56623,"type":"city"},{"id":"ca-6122037","label":"Richelieu","lat":45.44336,"lon":-73.24602,"type":"city"},{"id":"ca-6122084","label":"Richmond","lat":51.03056,"lon":-114.11389,"type":"city"},{"id":"ca-6122085","label":"Richmond","lat":49.17003,"lon":-123.13683,"type":"city"},{"id":"ca-6122091","label":"Richmond Hill","lat":43.87111,"lon":-79.43725,"type":"city"},{"id":"ca-13665228","label":"Richmond West","lat":49.78319,"lon":-97.1659,"type":"city"},{"id":"ca-13495380","label":"Riley Park","lat":49.24303,"lon":-123.09319,"type":"city"},{"id":"ca-6354895","label":"Rimouski","lat":48.44879,"lon":-68.52396,"type":"city"},{"id":"ca-6122606","label":"Riverbend","lat":50.975,"lon":-114.01389,"type":"city"},{"id":"ca-6122758","label":"Riverview","lat":46.05455,"lon":-64.81597,"type":"city"},{"id":"ca-13512962","label":"Riverwood","lat":49.25579,"lon":-122.73579,"type":"city"},{"id":"ca-13546322","label":"Riviere-des-Prairies-Pointe-aux-Trembles","lat":45.64064,"lon":-73.58463,"type":"city"},{"id":"ca-6354897","label":"Riviere-du-Loup","lat":47.82699,"lon":-69.54243,"type":"city"},{"id":"ca-6125653","label":"Roberval","lat":48.5168,"lon":-72.23244,"type":"city"},{"id":"ca-6126305","label":"Rock Forest","lat":45.35699,"lon":-71.99676,"type":"city"},{"id":"ca-12156859","label":"Rockcliffe-Smythe","lat":43.67479,"lon":-79.49442,"type":"city"},{"id":"ca-6126326","label":"Rockingham","lat":44.67336,"lon":-63.64488,"type":"city"},{"id":"ca-6126749","label":"Rocky Mountain House","lat":52.36683,"lon":-114.9188,"type":"city"},{"id":"ca-6126913","label":"Rocky Ridge","lat":51.14479,"lon":-114.24459,"type":"city"},{"id":"ca-7870895","label":"Roncesvalles","lat":43.64887,"lon":-79.45016,"type":"city"},{"id":"ca-6127587","label":"Rosedale","lat":49.18333,"lon":-121.8,"type":"city"},{"id":"ca-12156862","label":"Rosedale-Moore Park","lat":43.68282,"lon":-79.37967,"type":"city"},{"id":"ca-6127681","label":"Rosemere","lat":45.63338,"lon":-73.79919,"type":"city"},{"id":"ca-13546323","label":"Rosemont-La Petite-Patrie","lat":45.53661,"lon":-73.60686,"type":"city"},{"id":"ca-13589254","label":"Rosemont-Mount Royal","lat":50.46288,"lon":-104.66477,"type":"city"},{"id":"ca-6127691","label":"Rosemount","lat":43.45694,"lon":-80.46361,"type":"city"},{"id":"ca-13589217","label":"Rosewood","lat":52.09269,"lon":-106.5542,"type":"city"},{"id":"ca-6128033","label":"Rothesay","lat":45.38046,"lon":-65.96744,"type":"city"},{"id":"ca-6128081","label":"Rouge","lat":43.80406,"lon":-79.16571,"type":"city"},{"id":"ca-6128577","label":"Rouyn-Noranda","lat":48.23656,"lon":-79.02311,"type":"city"},{"id":"ca-6128682","label":"Roxboro","lat":45.50841,"lon":-73.80752,"type":"city"},{"id":"ca-6128733","label":"Royal Oak","lat":51.14349,"lon":-114.22245,"type":"city"},{"id":"ca-6128734","label":"Royal Oak","lat":48.48333,"lon":-123.38333,"type":"city"},{"id":"ca-6136373","label":"Rundle","lat":51.07419,"lon":-113.97079,"type":"city"},{"id":"ca-12156863","label":"Runnymede-Bloor West Village","lat":43.65927,"lon":-79.48571,"type":"city"},{"id":"ca-13512370","label":"Rural Saanich","lat":48.49734,"lon":-123.42876,"type":"city"},{"id":"ca-6136572","label":"Russell","lat":45.2501,"lon":-75.36602,"type":"city"},{"id":"ca-12156864","label":"Rustic","lat":43.71161,"lon":-79.49809,"type":"city"},{"id":"ca-11791098","label":"Rutherford","lat":53.41833,"lon":-113.52989,"type":"city"},{"id":"ca-6136777","label":"Rutland","lat":49.89977,"lon":-119.38567,"type":"city"},{"id":"ca-6136944","label":"Saanich","lat":48.54964,"lon":-123.36931,"type":"city"},{"id":"ca-13512369","label":"Saanich Core","lat":48.45481,"lon":-123.37451,"type":"city"},{"id":"ca-6137146","label":"Saddle Ridge","lat":51.13262,"lon":-113.94676,"type":"city"},{"id":"ca-11791702","label":"Sage Hill","lat":51.17592,"lon":-114.14111,"type":"city"},{"id":"ca-6137270","label":"Saguenay","lat":48.41675,"lon":-71.06573,"type":"city"},{"id":"ca-6137274","label":"Sahali","lat":50.65,"lon":-120.33333,"type":"city"},{"id":"ca-6138517","label":"Saint John","lat":45.27076,"lon":-66.05616,"type":"city"},{"id":"ca-6138520","label":"Saint John East","lat":45.2878,"lon":-66.04066,"type":"city"},{"id":"ca-6138525","label":"Saint John West","lat":45.25937,"lon":-66.07776,"type":"city"},{"id":"ca-8740846","label":"Saint Romuald","lat":46.75818,"lon":-71.23921,"type":"city"},{"id":"ca-6137378","label":"Saint-Amable","lat":45.65008,"lon":-73.29916,"type":"city"},{"id":"ca-6137419","label":"Saint-Anselme","lat":46.06395,"lon":-64.71261,"type":"city"},{"id":"ca-8604651","label":"Saint-Apollinaire","lat":46.61289,"lon":-71.51258,"type":"city"},{"id":"ca-7535681","label":"Saint-Augustin-de-Desmaures","lat":46.74064,"lon":-71.45131,"type":"city"},{"id":"ca-6137489","label":"Saint-Basile-le-Grand","lat":45.53338,"lon":-73.28246,"type":"city"},{"id":"ca-6137540","label":"Saint-Bruno-de-Montarville","lat":45.53341,"lon":-73.34916,"type":"city"},{"id":"ca-6137557","label":"Saint-Canut","lat":45.71502,"lon":-74.08376,"type":"city"},{"id":"ca-6137573","label":"Saint-Cesaire","lat":45.40948,"lon":-73.00104,"type":"city"},{"id":"ca-6137579","label":"Saint-Charles-Borromee","lat":46.05007,"lon":-73.46586,"type":"city"},{"id":"ca-6137633","label":"Saint-Constant","lat":45.36678,"lon":-73.56588,"type":"city"},{"id":"ca-6138175","label":"Saint-Eustache","lat":45.565,"lon":-73.90554,"type":"city"},{"id":"ca-6138201","label":"Saint-Felicien","lat":48.65007,"lon":-72.44906,"type":"city"},{"id":"ca-6138210","label":"Saint-Felix-de-Valois","lat":46.16977,"lon":-73.42525,"type":"city"},{"id":"ca-6620953","label":"Saint-Georges","lat":46.11353,"lon":-70.66526,"type":"city"},{"id":"ca-8354586","label":"Saint-Henri","lat":46.69314,"lon":-71.06927,"type":"city"},{"id":"ca-12626141","label":"Saint-Henri","lat":45.46761,"lon":-73.60064,"type":"city"},{"id":"ca-6138352","label":"Saint-Hippolyte","lat":45.93338,"lon":-74.0159,"type":"city"},{"id":"ca-6138360","label":"Saint-Honore","lat":48.53338,"lon":-71.08236,"type":"city"},{"id":"ca-6138369","label":"Saint-Hubert","lat":45.50008,"lon":-73.41583,"type":"city"},{"id":"ca-6138374","label":"Saint-Hyacinthe","lat":45.63076,"lon":-72.95699,"type":"city"},{"id":"ca-6138495","label":"Saint-Jean-sur-Richelieu","lat":45.30713,"lon":-73.26259,"type":"city"},{"id":"ca-6138501","label":"Saint-Jerome","lat":45.78036,"lon":-74.00365,"type":"city"},{"id":"ca-7535693","label":"Saint-Joseph-de-Beauce","lat":46.3,"lon":-70.86667,"type":"city"},{"id":"ca-6138573","label":"Saint-Joseph-du-Lac","lat":45.53338,"lon":-73.9992,"type":"city"},{"id":"ca-6138610","label":"Saint-Laurent","lat":45.50008,"lon":-73.66585,"type":"city"},{"id":"ca-6138617","label":"Saint-Lazare","lat":45.40008,"lon":-74.13256,"type":"city"},{"id":"ca-6138625","label":"Saint-Leonard","lat":45.58773,"lon":-73.59501,"type":"city"},{"id":"ca-6138643","label":"Saint-Lin-Laurentides","lat":45.85008,"lon":-73.76588,"type":"city"},{"id":"ca-6138671","label":"Saint-Louis-de-Terrebonne","lat":45.70198,"lon":-73.78669,"type":"city"},{"id":"ca-6138791","label":"Saint-Michel","lat":45.56758,"lon":-73.62168,"type":"city"},{"id":"ca-6138908","label":"Saint-Philippe","lat":45.37597,"lon":-73.48111,"type":"city"},{"id":"ca-6138916","label":"Saint-Pie","lat":45.50277,"lon":-72.9089,"type":"city"},{"id":"ca-8593826","label":"Saint-Raymond","lat":46.8901,"lon":-71.83415,"type":"city"},{"id":"ca-6138987","label":"Saint-Remi","lat":45.26678,"lon":-73.61588,"type":"city"},{"id":"ca-11696024","label":"Saint-Roch-de-l'Achigan","lat":45.85921,"lon":-73.58959,"type":"city"},{"id":"ca-6139045","label":"Saint-Sauveur","lat":45.88686,"lon":-74.17943,"type":"city"},{"id":"ca-6139047","label":"Saint-Sauveur-des-Monts","lat":45.90008,"lon":-74.16591,"type":"city"},{"id":"ca-6139184","label":"Saint-Vincent-de-Paul","lat":45.61678,"lon":-73.64918,"type":"city"},{"id":"ca-6139216","label":"Saint-Zotique","lat":45.25009,"lon":-74.24924,"type":"city"},{"id":"ca-6639619","label":"Sainte Catherine de la Jacques Cartier","lat":46.85244,"lon":-71.62056,"type":"city"},{"id":"ca-6137696","label":"Sainte-Adele","lat":45.95008,"lon":-74.13251,"type":"city"},{"id":"ca-6137702","label":"Sainte-Agathe-des-Monts","lat":46.05009,"lon":-74.28252,"type":"city"},{"id":"ca-6137733","label":"Sainte-Anne-de-Bellevue","lat":45.40618,"lon":-73.9456,"type":"city"},{"id":"ca-6137749","label":"Sainte-Anne-des-Monts","lat":49.12402,"lon":-66.49243,"type":"city"},{"id":"ca-6137753","label":"Sainte-Anne-des-Plaines","lat":45.76468,"lon":-73.81156,"type":"city"},{"id":"ca-6137780","label":"Sainte-Catherine","lat":45.40008,"lon":-73.58248,"type":"city"},{"id":"ca-6137781","label":"Sainte-Catherine","lat":46.31836,"lon":-72.56632,"type":"city"},{"id":"ca-6325488","label":"Sainte-Foy","lat":46.78139,"lon":-71.29217,"type":"city"},{"id":"ca-6137941","label":"Sainte-Julie","lat":45.58338,"lon":-73.33246,"type":"city"},{"id":"ca-6945989","label":"Sainte-Marie","lat":46.43401,"lon":-71.01168,"type":"city"},{"id":"ca-6138032","label":"Sainte-Marthe-sur-le-Lac","lat":45.53338,"lon":-73.9325,"type":"city"},{"id":"ca-6138048","label":"Sainte-Monique","lat":48.73339,"lon":-71.84911,"type":"city"},{"id":"ca-6138121","label":"Sainte-Therese","lat":45.63922,"lon":-73.82757,"type":"city"},{"id":"ca-6139289","label":"Salaberry-de-Valleyfield","lat":45.25008,"lon":-74.13253,"type":"city"},{"id":"ca-6139417","label":"Salmon Arm","lat":50.69981,"lon":-119.26907,"type":"city"},{"id":"ca-6140552","label":"Sandstone Valley","lat":51.13811,"lon":-114.0937,"type":"city"},{"id":"ca-6140750","label":"Sandy Hill","lat":45.42519,"lon":-75.67863,"type":"city"},{"id":"ca-13512945","label":"Sapperton","lat":49.22642,"lon":-122.89452,"type":"city"},{"id":"ca-6141159","label":"Sardis","lat":49.13333,"lon":-121.95,"type":"city"},{"id":"ca-6141190","label":"Sarnia","lat":42.97866,"lon":-82.40407,"type":"city"},{"id":"ca-6141256","label":"Saskatoon","lat":52.13238,"lon":-106.66892,"type":"city"},{"id":"ca-6141439","label":"Sault Ste. Marie","lat":46.51677,"lon":-84.33325,"type":"city"},{"id":"ca-6141900","label":"Scarborough Village","lat":43.73899,"lon":-79.22124,"type":"city"},{"id":"ca-6141956","label":"Scenic Acres","lat":51.11806,"lon":-114.22222,"type":"city"},{"id":"ca-6142912","label":"Seafair","lat":49.15,"lon":-123.18333,"type":"city"},{"id":"ca-6143367","label":"Sechelt","lat":49.47512,"lon":-123.75903,"type":"city"},{"id":"ca-13512944","label":"Second Street","lat":49.22372,"lon":-122.92205,"type":"city"},{"id":"ca-6144054","label":"Selkirk","lat":50.1436,"lon":-96.88452,"type":"city"},{"id":"ca-6144312","label":"Sept-Iles","lat":50.20011,"lon":-66.38208,"type":"city"},{"id":"ca-8354533","label":"Shannon","lat":46.88026,"lon":-71.51464,"type":"city"},{"id":"ca-6145421","label":"Shaughnessy","lat":49.25,"lon":-123.13333,"type":"city"},{"id":"ca-6145489","label":"Shawinigan","lat":46.56675,"lon":-72.74913,"type":"city"},{"id":"ca-6145530","label":"Shawnessy","lat":50.90694,"lon":-114.08194,"type":"city"},{"id":"ca-6145668","label":"Shediac","lat":46.21981,"lon":-64.54107,"type":"city"},{"id":"ca-13512368","label":"Shelbourne","lat":48.45299,"lon":-123.32903,"type":"city"},{"id":"ca-6145890","label":"Shelburne","lat":44.0787,"lon":-80.20408,"type":"city"},{"id":"ca-13495396","label":"Shellmont","lat":49.13478,"lon":-123.09631,"type":"city"},{"id":"ca-6146143","label":"Sherbrooke","lat":45.40008,"lon":-71.89908,"type":"city"},{"id":"ca-6146252","label":"Sherwood","lat":46.26822,"lon":-63.12839,"type":"city"},{"id":"ca-11791723","label":"Sherwood","lat":51.1595,"lon":-114.15318,"type":"city"},{"id":"ca-6146279","label":"Sherwood Park","lat":53.51684,"lon":-113.3187,"type":"city"},{"id":"ca-6146262","label":"Sherwood-McCarthy","lat":50.49171,"lon":-104.68055,"type":"city"},{"id":"ca-13589270","label":"Shuniah","lat":48.46318,"lon":-89.20744,"type":"city"},{"id":"ca-6147439","label":"Sidney","lat":48.64964,"lon":-123.40262,"type":"city"},{"id":"ca-6147512","label":"Signal Hill","lat":51.02361,"lon":-114.17361,"type":"city"},{"id":"ca-11203928","label":"Silver Berry","lat":53.45787,"lon":-113.3817,"type":"city"},{"id":"ca-13580766","label":"Silver Heights","lat":43.44012,"lon":-80.31471,"type":"city"},{"id":"ca-13665253","label":"Silver Heights","lat":49.88103,"lon":-97.25144,"type":"city"},{"id":"ca-6147908","label":"Silver Springs","lat":51.10417,"lon":-114.19155,"type":"city"},{"id":"ca-11791775","label":"Silverado","lat":50.88479,"lon":-114.07174,"type":"city"},{"id":"ca-13589225","label":"Silverspring","lat":52.15621,"lon":-106.59231,"type":"city"},{"id":"ca-6147942","label":"Silverwood Heights","lat":52.17977,"lon":-106.62005,"type":"city"},{"id":"ca-6147962","label":"Simcoe","lat":42.8334,"lon":-80.29967,"type":"city"},{"id":"ca-6148373","label":"Sioux Lookout","lat":50.09906,"lon":-91.92158,"type":"city"},{"id":"ca-11791756","label":"Skyview Ranch","lat":51.15849,"lon":-113.95714,"type":"city"},{"id":"ca-6149374","label":"Slave Lake","lat":55.28344,"lon":-114.76896,"type":"city"},{"id":"ca-6149996","label":"Smithers","lat":54.78036,"lon":-127.17428,"type":"city"},{"id":"ca-6150174","label":"Smiths Falls","lat":44.90452,"lon":-76.02333,"type":"city"},{"id":"ca-12626140","label":"Snowdon","lat":45.4859,"lon":-73.63103,"type":"city"},{"id":"ca-6151196","label":"Somerset","lat":50.89583,"lon":-114.08611,"type":"city"},{"id":"ca-6151264","label":"Sooke","lat":48.37463,"lon":-123.72762,"type":"city"},{"id":"ca-6151350","label":"Sorel-Tracy","lat":46.04178,"lon":-73.11358,"type":"city"},{"id":"ca-13512956","label":"South Arm","lat":49.14032,"lon":-123.12483,"type":"city"},{"id":"ca-6151770","label":"South Cambie","lat":49.25,"lon":-123.11667,"type":"city"},{"id":"ca-13512420","label":"South Clearbrook","lat":49.04065,"lon":-122.32794,"type":"city"},{"id":"ca-13512545","label":"South Granville","lat":49.2602,"lon":-123.13946,"type":"city"},{"id":"ca-6152244","label":"South Huron","lat":43.31679,"lon":-81.51647,"type":"city"},{"id":"ca-12156819","label":"South Parkdale","lat":43.6367,"lon":-79.43934,"type":"city"},{"id":"ca-13665229","label":"South Pointe","lat":49.77918,"lon":-97.17979,"type":"city"},{"id":"ca-12156820","label":"South Riverdale","lat":43.64929,"lon":-79.33565,"type":"city"},{"id":"ca-6152640","label":"South Slope","lat":49.21667,"lon":-123,"type":"city"},{"id":"ca-6152674","label":"South Surrey","lat":49.05,"lon":-122.79167,"type":"city"},{"id":"ca-11791192","label":"South Terwillegar","lat":53.44006,"lon":-113.57893,"type":"city"},{"id":"ca-13580761","label":"Southdale","lat":43.43363,"lon":-80.49117,"type":"city"},{"id":"ca-13580472","label":"Southlands","lat":47.49313,"lon":-52.8238,"type":"city"},{"id":"ca-6153013","label":"Southwood","lat":50.9561,"lon":-114.08495,"type":"city"},{"id":"ca-12156434","label":"Spallumcheen","lat":50.40146,"lon":-119.22039,"type":"city"},{"id":"ca-7870898","label":"Springbank Hill","lat":51.03254,"lon":-114.19481,"type":"city"},{"id":"ca-6154383","label":"Spruce Grove","lat":53.53344,"lon":-113.91874,"type":"city"},{"id":"ca-6154544","label":"Spryfield","lat":44.61163,"lon":-63.61771,"type":"city"},{"id":"ca-6154636","label":"Squamish","lat":49.69925,"lon":-123.15631,"type":"city"},{"id":"ca-6155033","label":"St. Albert","lat":53.63344,"lon":-113.63533,"type":"city"},{"id":"ca-12156868","label":"St. Andrew-Windfields","lat":43.75625,"lon":-79.37904,"type":"city"},{"id":"ca-6155721","label":"St. Catharines","lat":43.17126,"lon":-79.24267,"type":"city"},{"id":"ca-13665233","label":"St. James-Assiniboia East","lat":49.88986,"lon":-97.22653,"type":"city"},{"id":"ca-6324733","label":"St. John's","lat":47.56494,"lon":-52.70931,"type":"city"},{"id":"ca-6157062","label":"St. Marys","lat":43.25009,"lon":-81.13304,"type":"city"},{"id":"ca-6157795","label":"St. Paul","lat":53.98347,"lon":-111.28507,"type":"city"},{"id":"ca-6158357","label":"St. Thomas","lat":42.77361,"lon":-81.18038,"type":"city"},{"id":"ca-6155242","label":"Stanley Park","lat":43.44639,"lon":-80.44417,"type":"city"},{"id":"ca-6155938","label":"Steeles","lat":43.81205,"lon":-79.33082,"type":"city"},{"id":"ca-6156102","label":"Steinbach","lat":49.52579,"lon":-96.68451,"type":"city"},{"id":"ca-6156244","label":"Stephenville","lat":48.55001,"lon":-58.5818,"type":"city"},{"id":"ca-6156307","label":"Stettler","lat":52.31683,"lon":-112.71861,"type":"city"},{"id":"ca-7602285","label":"Steveston","lat":49.12714,"lon":-123.18137,"type":"city"},{"id":"ca-6156855","label":"Stittsville","lat":45.2501,"lon":-75.91606,"type":"city"},{"id":"ca-13589220","label":"Stonebridge","lat":52.08454,"lon":-106.62266,"type":"city"},{"id":"ca-12156865","label":"Stonegate-Queensway","lat":43.63552,"lon":-79.50113,"type":"city"},{"id":"ca-6157390","label":"Stoney Creek","lat":43.21681,"lon":-79.76633,"type":"city"},{"id":"ca-6157536","label":"Stony Plain","lat":53.53343,"lon":-114.00205,"type":"city"},{"id":"ca-6157718","label":"Stouffville","lat":43.96682,"lon":-79.2496,"type":"city"},{"id":"ca-6157974","label":"Stratford","lat":46.21792,"lon":-63.07948,"type":"city"},{"id":"ca-6157977","label":"Stratford","lat":43.36679,"lon":-80.94972,"type":"city"},{"id":"ca-6157994","label":"Strathcona","lat":53.52083,"lon":-113.48333,"type":"city"},{"id":"ca-6157995","label":"Strathcona","lat":49.27655,"lon":-123.09117,"type":"city"},{"id":"ca-6158023","label":"Strathmore","lat":51.05011,"lon":-113.38523,"type":"city"},{"id":"ca-6158027","label":"Strathroy","lat":42.9551,"lon":-81.62232,"type":"city"},{"id":"ca-6158070","label":"Strawberry Hill","lat":49.13333,"lon":-122.88333,"type":"city"},{"id":"ca-13495384","label":"Stride Hill","lat":49.20957,"lon":-122.96379,"type":"city"},{"id":"ca-6158573","label":"Sturgeon Falls","lat":46.36679,"lon":-79.91636,"type":"city"},{"id":"ca-6159232","label":"Summerland","lat":49.59977,"lon":-119.66911,"type":"city"},{"id":"ca-6159244","label":"Summerside","lat":46.3912,"lon":-63.78869,"type":"city"},{"id":"ca-11791204","label":"Summerside","lat":53.41726,"lon":-113.46108,"type":"city"},{"id":"ca-13592176","label":"Sunbury-York South","lat":45.83776,"lon":-66.60984,"type":"city"},{"id":"ca-6159383","label":"Sundance","lat":50.9,"lon":-114.03889,"type":"city"},{"id":"ca-13495379","label":"Sunset","lat":49.22104,"lon":-123.09546,"type":"city"},{"id":"ca-6159756","label":"Sunshine Hills","lat":49.11667,"lon":-122.9,"type":"city"},{"id":"ca-6159905","label":"Surrey","lat":49.10635,"lon":-122.82509,"type":"city"},{"id":"ca-6159907","label":"Surrey Centre","lat":49.11667,"lon":-122.75,"type":"city"},{"id":"ca-13512353","label":"Surrey City Centre","lat":49.18542,"lon":-122.84659,"type":"city"},{"id":"ca-6159980","label":"Sussex","lat":45.72266,"lon":-65.50663,"type":"city"},{"id":"ca-6159999","label":"Sutherland","lat":52.13899,"lon":-106.60402,"type":"city"},{"id":"ca-6160603","label":"Swift Current","lat":50.28337,"lon":-107.80135,"type":"city"},{"id":"ca-6354908","label":"Sydney","lat":46.1351,"lon":-60.1831,"type":"city"},