[{"id":"cl-3900138","label":"Algarrobo","lat":-33.36952,"lon":-71.67654,"type":"city"},{"id":"cl-3899924","label":"Alto del Carmen","lat":-28.75946,"lon":-70.48651,"type":"city"},{"id":"cl-3899887","label":"Alto Hospicio","lat":-20.26871,"lon":-70.1049,"type":"city"},{"id":"cl-3899695","label":"Ancud","lat":-41.8707,"lon":-73.81622,"type":"city"},{"id":"cl-3899680","label":"Andacollo","lat":-30.23449,"lon":-71.08534,"type":"city"},{"id":"cl-3899629","label":"Angol","lat":-37.79519,"lon":-72.71636,"type":"city"},{"id":"cl-3899539","label":"Antofagasta","lat":-23.65094,"lon":-70.39752,"type":"city"},{"id":"cl-3899462","label":"Arauco","lat":-37.2463,"lon":-73.31752,"type":"city"},{"id":"cl-3899361","label":"Arica","lat":-18.47552,"lon":-70.30058,"type":"city"},{"id":"cl-3898597","label":"Batuco","lat":-33.23283,"lon":-70.80922,"type":"city"},{"id":"cl-3897774","label":"Buin","lat":-33.73257,"lon":-70.74281,"type":"city"},{"id":"cl-3897724","label":"Bulnes","lat":-36.74232,"lon":-72.29854,"type":"city"},{"id":"cl-3897595","label":"Cabildo","lat":-32.43134,"lon":-71.07167,"type":"city"},{"id":"cl-3897557","label":"Cabrero","lat":-37.03394,"lon":-72.40468,"type":"city"},{"id":"cl-3897347","label":"Calama","lat":-22.45667,"lon":-68.92371,"type":"city"},{"id":"cl-3897334","label":"Calbuco","lat":-41.77338,"lon":-73.13049,"type":"city"},{"id":"cl-3897322","label":"Caldera","lat":-27.06812,"lon":-70.81921,"type":"city"},{"id":"cl-3897301","label":"Calera de Tango","lat":-33.62238,"lon":-70.79912,"type":"city"},{"id":"cl-3897243","label":"Calle Larga","lat":-32.85473,"lon":-70.62595,"type":"city"},{"id":"cl-3896951","label":"Canela","lat":-31.58333,"lon":-70.85,"type":"city"},{"id":"cl-3896924","label":"Canete","lat":-37.80128,"lon":-73.39616,"type":"city"},{"id":"cl-3950116","label":"Canete","lat":-37.8,"lon":-73.38333,"type":"city"},{"id":"cl-3896774","label":"Carahue","lat":-38.71122,"lon":-73.16101,"type":"city"},{"id":"cl-3896433","label":"Cartagena","lat":-33.55384,"lon":-71.60761,"type":"city"},{"id":"cl-3896410","label":"Casablanca","lat":-33.31712,"lon":-71.40311,"type":"city"},{"id":"cl-3896218","label":"Castro","lat":-42.4721,"lon":-73.77319,"type":"city"},{"id":"cl-3896161","label":"Catemu","lat":-32.63333,"lon":-71.03333,"type":"city"},{"id":"cl-3896105","label":"Cauquenes","lat":-35.9671,"lon":-72.32248,"type":"city"},{"id":"cl-3895492","label":"Chanco","lat":-35.73674,"lon":-72.53305,"type":"city"},{"id":"cl-3895262","label":"Chepica","lat":-34.72731,"lon":-71.27292,"type":"city"},{"id":"cl-3895165","label":"Chicureo","lat":-33.28379,"lon":-70.65333,"type":"city"},{"id":"cl-3895138","label":"Chiguayante","lat":-36.9256,"lon":-73.02841,"type":"city"},{"id":"cl-3895088","label":"Chillan","lat":-36.60664,"lon":-72.10344,"type":"city"},{"id":"cl-3895079","label":"Chillan Viejo","lat":-36.62297,"lon":-72.13194,"type":"city"},{"id":"cl-3895061","label":"Chimbarongo","lat":-34.71247,"lon":-71.0434,"type":"city"},{"id":"cl-3894871","label":"Chonchi","lat":-42.62387,"lon":-73.775,"type":"city"},{"id":"cl-3894526","label":"Cobquecura","lat":-36.13251,"lon":-72.79401,"type":"city"},{"id":"cl-3894464","label":"Codegua","lat":-34.03563,"lon":-70.66876,"type":"city"},{"id":"cl-3894446","label":"Coelemu","lat":-36.48741,"lon":-72.7032,"type":"city"},{"id":"cl-3894406","label":"Coihueco","lat":-36.62785,"lon":-71.83068,"type":"city"},{"id":"cl-3894319","label":"Colbun","lat":-35.69494,"lon":-71.40568,"type":"city"},{"id":"cl-3894242","label":"Colina","lat":-33.20443,"lon":-70.67474,"type":"city"},{"id":"cl-3894177","label":"Collipulli","lat":-37.95453,"lon":-72.43438,"type":"city"},{"id":"cl-3893999","label":"Coltauco","lat":-34.28846,"lon":-71.08374,"type":"city"},{"id":"cl-3893962","label":"Combarbala","lat":-31.17863,"lon":-71.00304,"type":"city"},{"id":"cl-3893894","label":"Concepcion","lat":-36.82699,"lon":-73.04977,"type":"city"},{"id":"cl-3893865","label":"Concon","lat":-32.92203,"lon":-71.51619,"type":"city"},{"id":"cl-3893726","label":"Constitucion","lat":-35.33321,"lon":-72.41156,"type":"city"},{"id":"cl-3893690","label":"Contulmo","lat":-38.01556,"lon":-73.22991,"type":"city"},{"id":"cl-3893656","label":"Copiapo","lat":-27.36737,"lon":-70.33219,"type":"city"},{"id":"cl-3893629","label":"Coquimbo","lat":-29.95332,"lon":-71.33947,"type":"city"},{"id":"cl-3893532","label":"Coronel","lat":-37.03386,"lon":-73.14019,"type":"city"},{"id":"cl-3893516","label":"Corral","lat":-39.8873,"lon":-73.43101,"type":"city"},{"id":"cl-3894426","label":"Coyhaique","lat":-45.57524,"lon":-72.06619,"type":"city"},{"id":"cl-3892981","label":"Cunco","lat":-38.93181,"lon":-72.03151,"type":"city"},{"id":"cl-3892935","label":"Curacautin","lat":-38.44064,"lon":-71.88923,"type":"city"},{"id":"cl-3892934","label":"Curacavi","lat":-33.39762,"lon":-71.12708,"type":"city"},{"id":"cl-3892892","label":"Curanilahue","lat":-37.47793,"lon":-73.34495,"type":"city"},{"id":"cl-3892884","label":"Curarrehue","lat":-39.36019,"lon":-71.58748,"type":"city"},{"id":"cl-3892870","label":"Curico","lat":-34.98279,"lon":-71.23943,"type":"city"},{"id":"cl-3892760","label":"Dalcahue","lat":-42.37845,"lon":-73.65011,"type":"city"},{"id":"cl-3892454","label":"Diego de Almagro","lat":-26.39022,"lon":-70.04556,"type":"city"},{"id":"cl-3892272","label":"Donihue","lat":-34.22631,"lon":-70.96479,"type":"city"},{"id":"cl-3891707","label":"El Carmen","lat":-36.89834,"lon":-72.0261,"type":"city"},{"id":"cl-11965860","label":"El Carmen","lat":-36.29126,"lon":-72.03713,"type":"city"},{"id":"cl-3890949","label":"El Monte","lat":-33.67969,"lon":-70.98482,"type":"city"},{"id":"cl-3890596","label":"El Quisco","lat":-33.39772,"lon":-71.69388,"type":"city"},{"id":"cl-3890338","label":"El Tabo","lat":-33.45548,"lon":-71.66683,"type":"city"},{"id":"cl-3890015","label":"Ercilla","lat":-38.06323,"lon":-72.37425,"type":"city"},{"id":"cl-3885935","label":"Florida","lat":-36.82399,"lon":-72.66097,"type":"city"},{"id":"cl-3889322","label":"Freire","lat":-38.95252,"lon":-72.62653,"type":"city"},{"id":"cl-3889317","label":"Freirina","lat":-28.50917,"lon":-71.08124,"type":"city"},{"id":"cl-3889310","label":"Fresia","lat":-41.15364,"lon":-73.42102,"type":"city"},{"id":"cl-3889262","label":"Frutillar","lat":-41.12162,"lon":-73.0581,"type":"city"},{"id":"cl-3889221","label":"Futrono","lat":-40.1295,"lon":-72.38536,"type":"city"},{"id":"cl-3889153","label":"Galvarino","lat":-38.41359,"lon":-72.78151,"type":"city"},{"id":"cl-3888892","label":"Gorbea","lat":-39.10164,"lon":-72.67602,"type":"city"},{"id":"cl-3888749","label":"Graneros","lat":-34.06863,"lon":-70.72747,"type":"city"},{"id":"cl-3888214","label":"Hacienda La Calera","lat":-32.78333,"lon":-71.21667,"type":"city"},{"id":"cl-4030754","label":"Hanga Roa","lat":-27.15253,"lon":-109.42438,"type":"city"},{"id":"cl-3888011","label":"Hijuelas","lat":-32.79828,"lon":-71.14635,"type":"city"},{"id":"cl-3887788","label":"Hualane","lat":-34.9754,"lon":-71.80252,"type":"city"},{"id":"cl-3887781","label":"Hualpen","lat":-36.78908,"lon":-73.10165,"type":"city"},{"id":"cl-3888523","label":"Hualqui","lat":-36.97266,"lon":-72.93559,"type":"city"},{"id":"cl-3887758","label":"Huasco","lat":-28.46599,"lon":-71.22276,"type":"city"},{"id":"cl-3887636","label":"Huepil","lat":-37.23943,"lon":-71.94161,"type":"city"},{"id":"cl-3887344","label":"Illapel","lat":-31.63349,"lon":-71.16967,"type":"city"},{"id":"cl-3887127","label":"Iquique","lat":-20.21326,"lon":-70.15027,"type":"city"},{"id":"cl-3887072","label":"Isla de Maipo","lat":-33.74681,"lon":-70.8977,"type":"city"},{"id":"cl-3886405","label":"La Calera","lat":-32.78676,"lon":-71.19795,"type":"city"},{"id":"cl-3886176","label":"La Cruz","lat":-32.82748,"lon":-71.22634,"type":"city"},{"id":"cl-3885577","label":"La Islita","lat":-33.75,"lon":-70.86667,"type":"city"},{"id":"cl-3885456","label":"La Ligua","lat":-32.45242,"lon":-71.23106,"type":"city"},{"id":"cl-7281017","label":"La Pintana","lat":-33.58331,"lon":-70.63419,"type":"city"},{"id":"cl-3884373","label":"La Serena","lat":-29.90591,"lon":-71.25014,"type":"city"},{"id":"cl-3883629","label":"La Union","lat":-40.29313,"lon":-73.08167,"type":"city"},{"id":"cl-3886460","label":"Labranza","lat":-38.76523,"lon":-72.75296,"type":"city"},{"id":"cl-3885509","label":"Laja","lat":-37.28415,"lon":-72.71105,"type":"city"},{"id":"cl-3885273","label":"Lampa","lat":-33.2863,"lon":-70.87561,"type":"city"},{"id":"cl-3885251","label":"Lanco","lat":-39.45246,"lon":-72.77117,"type":"city"},{"id":"cl-6458708","label":"Las Animas","lat":-39.80867,"lon":-73.21821,"type":"city"},{"id":"cl-3884580","label":"Las Cabras","lat":-34.29027,"lon":-71.30616,"type":"city"},{"id":"cl-3883615","label":"Lautaro","lat":-38.53066,"lon":-72.43652,"type":"city"},{"id":"cl-3883457","label":"Lebu","lat":-37.60825,"lon":-73.65356,"type":"city"},{"id":"cl-3883214","label":"Limache","lat":-33.01327,"lon":-71.26084,"type":"city"},{"id":"cl-3883167","label":"Linares","lat":-35.84667,"lon":-71.59308,"type":"city"},{"id":"cl-3883035","label":"Llaillay","lat":-32.84043,"lon":-70.95623,"type":"city"},{"id":"cl-3882957","label":"Llanquihue","lat":-41.25603,"lon":-73.00649,"type":"city"},{"id":"cl-7281020","label":"Lo Prado","lat":-33.4443,"lon":-70.72552,"type":"city"},{"id":"cl-3882582","label":"Loncoche","lat":-39.36708,"lon":-72.63087,"type":"city"},{"id":"cl-3950062","label":"Loncura","lat":-32.78778,"lon":-71.50556,"type":"city"},{"id":"cl-3882559","label":"Longavi","lat":-35.96496,"lon":-71.6836,"type":"city"},{"id":"cl-3882460","label":"Los Alamos","lat":-37.62797,"lon":-73.46008,"type":"city"},{"id":"cl-3882434","label":"Los Andes","lat":-32.83369,"lon":-70.59827,"type":"city"},{"id":"cl-3882428","label":"Los Angeles","lat":-37.46973,"lon":-72.35366,"type":"city"},{"id":"cl-3881976","label":"Los Lagos","lat":-39.8635,"lon":-72.80914,"type":"city"},{"id":"cl-3881703","label":"Los Muermos","lat":-41.39556,"lon":-73.46237,"type":"city"},{"id":"cl-3881357","label":"Los Sauces","lat":-37.98119,"lon":-72.83393,"type":"city"},{"id":"cl-3881285","label":"Los Vilos","lat":-31.91292,"lon":-71.50045,"type":"city"},{"id":"cl-3881276","label":"Lota","lat":-37.08994,"lon":-73.1577,"type":"city"},{"id":"cl-3881179","label":"Lumaco","lat":-38.16485,"lon":-72.90551,"type":"city"},{"id":"cl-3881102","label":"Machali","lat":-34.18082,"lon":-70.64933,"type":"city"},{"id":"cl-3880980","label":"Maipu","lat":-33.51421,"lon":-70.7651,"type":"city"},{"id":"cl-3878253","label":"Maria Elena","lat":-22.34449,"lon":-69.66178,"type":"city"},{"id":"cl-3880312","label":"Maule","lat":-35.52249,"lon":-71.68891,"type":"city"},{"id":"cl-3880302","label":"Maullin","lat":-41.61778,"lon":-73.59833,"type":"city"},{"id":"cl-3880143","label":"Mejillones","lat":-23.10003,"lon":-70.44703,"type":"city"},{"id":"cl-3880107","label":"Melipilla","lat":-33.68909,"lon":-71.21528,"type":"city"},{"id":"cl-3879627","label":"Molina","lat":-35.11428,"lon":-71.28232,"type":"city"},{"id":"cl-3879429","label":"Monte Patria","lat":-30.69496,"lon":-70.9577,"type":"city"},{"id":"cl-3879200","label":"Mulchen","lat":-37.71893,"lon":-72.24099,"type":"city"},{"id":"cl-3879123","label":"Nacimiento","lat":-37.50253,"lon":-72.67307,"type":"city"},{"id":"cl-3879062","label":"Nancagua","lat":-34.65187,"lon":-71.19724,"type":"city"},{"id":"cl-3878898","label":"Negrete","lat":-37.58668,"lon":-72.52833,"type":"city"},{"id":"cl-3878630","label":"Ninhue","lat":-36.39418,"lon":-72.3987,"type":"city"},{"id":"cl-3878575","label":"Nogales","lat":-32.71667,"lon":-71.23333,"type":"city"},{"id":"cl-3878456","label":"Nueva Imperial","lat":-38.74451,"lon":-72.95025,"type":"city"},{"id":"cl-3878431","label":"Nunoa","lat":-33.44735,"lon":-70.58279,"type":"city"},{"id":"cl-3878075","label":"Olmue","lat":-32.99577,"lon":-71.19136,"type":"city"},{"id":"cl-3877949","label":"Osorno","lat":-40.57395,"lon":-73.13348,"type":"city"},{"id":"cl-3877918","label":"Ovalle","lat":-30.60106,"lon":-71.19901,"type":"city"},{"id":"cl-3877794","label":"Padre Hurtado","lat":-33.56839,"lon":-70.80584,"type":"city"},{"id":"cl-3877793","label":"Padre Las Casas","lat":-38.76081,"lon":-72.5982,"type":"city"},{"id":"cl-3877744","label":"Paillaco","lat":-40.06822,"lon":-72.87935,"type":"city"},{"id":"cl-3877739","label":"Paine","lat":-33.80796,"lon":-70.74109,"type":"city"},{"id":"cl-3877348","label":"Panguipulli","lat":-39.64355,"lon":-72.33269,"type":"city"},{"id":"cl-3877310","label":"Panquehue","lat":-32.77143,"lon":-70.83614,"type":"city"},{"id":"cl-3877146","label":"Parral","lat":-36.14311,"lon":-71.82605,"type":"city"},{"id":"cl-3876800","label":"Pelarco","lat":-35.38442,"lon":-71.44508,"type":"city"},{"id":"cl-3876729","label":"Pemuco","lat":-36.97792,"lon":-72.09611,"type":"city"},{"id":"cl-3876685","label":"Penaflor","lat":-33.60627,"lon":-70.87649,"type":"city"},{"id":"cl-3876682","label":"Penalolen","lat":-33.46836,"lon":-70.53411,"type":"city"},{"id":"cl-3876667","label":"Pencahue","lat":-35.39346,"lon":-71.80054,"type":"city"},{"id":"cl-3876664","label":"Penco","lat":-36.74075,"lon":-72.99528,"type":"city"},{"id":"cl-3876556","label":"Peralillo","lat":-34.47804,"lon":-71.48043,"type":"city"},{"id":"cl-3876383","label":"Peumo","lat":-34.38689,"lon":-71.17559,"type":"city"},{"id":"cl-3876353","label":"Pica","lat":-20.49128,"lon":-69.33118,"type":"city"},{"id":"cl-3876272","label":"Pichidegua","lat":-34.35497,"lon":-71.28826,"type":"city"},{"id":"cl-3876256","label":"Pichilemu","lat":-34.38333,"lon":-72,"type":"city"},{"id":"cl-3875882","label":"Pinto","lat":-36.70356,"lon":-71.89226,"type":"city"},{"id":"cl-3875746","label":"Pitrufquen","lat":-38.98635,"lon":-72.63721,"type":"city"},{"id":"cl-3875684","label":"Placilla","lat":-33.1144,"lon":-71.56806,"type":"city"},{"id":"cl-3875367","label":"Porvenir","lat":-53.296,"lon":-70.36629,"type":"city"},{"id":"cl-3875235","label":"Pozo Almonte","lat":-20.25585,"lon":-69.7863,"type":"city"},{"id":"cl-3875080","label":"Puchuncavi","lat":-32.72575,"lon":-71.41514,"type":"city"},{"id":"cl-3875070","label":"Pucon","lat":-39.28223,"lon":-71.95427,"type":"city"},{"id":"cl-3875024","label":"Puente Alto","lat":-33.61169,"lon":-70.57577,"type":"city"},{"id":"cl-3874997","label":"Puerto Aysen","lat":-45.40303,"lon":-72.69184,"type":"city"},{"id":"cl-3874982","label":"Puerto Cisnes","lat":-44.74736,"lon":-72.69695,"type":"city"},{"id":"cl-3874960","label":"Puerto Montt","lat":-41.4693,"lon":-72.94237,"type":"city"},{"id":"cl-3874958","label":"Puerto Natales","lat":-51.72987,"lon":-72.50603,"type":"city"},{"id":"cl-3874930","label":"Puerto Varas","lat":-41.31946,"lon":-72.98538,"type":"city"},{"id":"cl-3874815","label":"Punitaqui","lat":-30.83448,"lon":-71.2586,"type":"city"},{"id":"cl-3874787","label":"Punta Arenas","lat":-53.16282,"lon":-70.90922,"type":"city"},{"id":"cl-3874612","label":"Puren","lat":-38.0334,"lon":-73.07145,"type":"city"},{"id":"cl-3874579","label":"Purranque","lat":-40.91305,"lon":-73.15913,"type":"city"},{"id":"cl-3874570","label":"Putaendo","lat":-32.62642,"lon":-70.7184,"type":"city"},{"id":"cl-3874943","label":"Quellon","lat":-43.11819,"lon":-73.61661,"type":"city"},{"id":"cl-3874212","label":"Quilicura","lat":-33.36799,"lon":-70.71388,"type":"city"},{"id":"cl-3874122","label":"Quillon","lat":-36.74553,"lon":-72.47481,"type":"city"},{"id":"cl-3874119","label":"Quillota","lat":-32.88341,"lon":-71.24882,"type":"city"},{"id":"cl-3874096","label":"Quilpue","lat":-33.04752,"lon":-71.44249,"type":"city"},{"id":"cl-3873999","label":"Quinta de Tilcoco","lat":-34.3555,"lon":-70.96527,"type":"city"},{"id":"cl-3873983","label":"Quintero","lat":-32.78588,"lon":-71.53222,"type":"city"},{"id":"cl-3873958","label":"Quirihue","lat":-36.27998,"lon":-72.54118,"type":"city"},{"id":"cl-3873775","label":"Rancagua","lat":-34.1691,"lon":-70.74053,"type":"city"},{"id":"cl-3873668","label":"Rauco","lat":-34.92546,"lon":-71.31722,"type":"city"},{"id":"cl-3873459","label":"Renaico","lat":-37.67141,"lon":-72.58412,"type":"city"},{"id":"cl-3873454","label":"Renca","lat":-33.4019,"lon":-70.70619,"type":"city"},{"id":"cl-3873441","label":"Rengo","lat":-34.40639,"lon":-70.85834,"type":"city"},{"id":"cl-3873414","label":"Requinoa","lat":-34.28557,"lon":-70.81683,"type":"city"},{"id":"cl-3873372","label":"Retiro","lat":-36.05172,"lon":-71.75771,"type":"city"},{"id":"cl-3873249","label":"Rinconada de Los Andes","lat":-32.83316,"lon":-70.68841,"type":"city"},{"id":"cl-3873145","label":"Rio Bueno","lat":-40.33494,"lon":-72.95564,"type":"city"},{"id":"cl-3872900","label":"Romeral","lat":-34.96127,"lon":-71.1235,"type":"city"},{"id":"cl-3874937","label":"Saavedra","lat":-38.78702,"lon":-73.39713,"type":"city"},{"id":"cl-3872648","label":"Sagrada Familia","lat":-34.99919,"lon":-71.38424,"type":"city"},{"id":"cl-3872594","label":"Salamanca","lat":-31.77922,"lon":-70.96389,"type":"city"},{"id":"cl-3872395","label":"San Antonio","lat":-33.59473,"lon":-71.60746,"type":"city"},{"id":"cl-3872348","label":"San Bernardo","lat":-33.59217,"lon":-70.6996,"type":"city"},{"id":"cl-3872326","label":"San Carlos","lat":-36.42477,"lon":-71.958,"type":"city"},{"id":"cl-3872306","label":"San Clemente","lat":-35.53777,"lon":-71.487,"type":"city"},{"id":"cl-3872264","label":"San Esteban","lat":-32.79871,"lon":-70.5807,"type":"city"},{"id":"cl-3872255","label":"San Felipe","lat":-32.74976,"lon":-70.72584,"type":"city"},{"id":"cl-3872205","label":"San Francisco de Mostazal","lat":-33.98219,"lon":-70.7104,"type":"city"},{"id":"cl-3872154","label":"San Javier","lat":-35.5952,"lon":-71.72924,"type":"city"},{"id":"cl-3872079","label":"San Jose de la Mariquina","lat":-39.53635,"lon":-72.9657,"type":"city"},{"id":"cl-3872073","label":"San Jose de Maipo","lat":-33.63912,"lon":-70.35318,"type":"city"},{"id":"cl-3871865","label":"San Pablo","lat":-40.41348,"lon":-73.01085,"type":"city"},{"id":"cl-3871781","label":"San Pedro de Atacama","lat":-22.9111,"lon":-68.20113,"type":"city"},{"id":"cl-6693576","label":"San Pedro de la Paz","lat":-36.83897,"lon":-73.10028,"type":"city"},{"id":"cl-3871760","label":"San Rafael","lat":-35.30624,"lon":-71.51906,"type":"city"},{"id":"cl-3871286","label":"San Vicente","lat":-34.43333,"lon":-71.08333,"type":"city"},{"id":"cl-3871276","label":"San Vicente de Tagua Tagua","lat":-34.43859,"lon":-71.07751,"type":"city"},{"id":"cl-3871655","label":"Santa Barbara","lat":-37.66824,"lon":-72.02252,"type":"city"},{"id":"cl-3871616","label":"Santa Cruz","lat":-34.63881,"lon":-71.36576,"type":"city"},{"id":"cl-3871524","label":"Santa Juana","lat":-37.1751,"lon":-72.9433,"type":"city"},{"id":"cl-3871476","label":"Santa Maria","lat":-32.74732,"lon":-70.65666,"type":"city"},{"id":"cl-3871336","label":"Santiago","lat":-33.45694,"lon":-70.64827,"type":"city"},{"id":"cl-3872988","label":"Santo Domingo","lat":-33.63615,"lon":-71.62723,"type":"city"},{"id":"cl-3870306","label":"Talagante","lat":-33.66386,"lon":-70.92734,"type":"city"},{"id":"cl-3870294","label":"Talca","lat":-35.4232,"lon":-71.64974,"type":"city"},{"id":"cl-3870282","label":"Talcahuano","lat":-36.72494,"lon":-73.11684,"type":"city"},{"id":"cl-3870243","label":"Taltal","lat":-25.40713,"lon":-70.48554,"type":"city"},{"id":"cl-3870011","label":"Temuco","lat":-38.73628,"lon":-72.59738,"type":"city"},{"id":"cl-3869979","label":"Teno","lat":-34.87055,"lon":-71.16219,"type":"city"},{"id":"cl-3869967","label":"Teodoro Schmidt","lat":-38.99442,"lon":-73.08927,"type":"city"},{"id":"cl-3869877","label":"Tierra Amarilla","lat":-27.46633,"lon":-70.26255,"type":"city"},{"id":"cl-3869821","label":"Tiltil","lat":-33.0831,"lon":-70.92924,"type":"city"},{"id":"cl-3869716","label":"Tocopilla","lat":-22.09198,"lon":-70.19792,"type":"city"},{"id":"cl-3869657","label":"Tome","lat":-36.61756,"lon":-72.95593,"type":"city"},{"id":"cl-3869381","label":"Traiguen","lat":-38.2496,"lon":-72.67027,"type":"city"},{"id":"cl-3868988","label":"Tucapel","lat":-37.29079,"lon":-71.94929,"type":"city"},{"id":"cl-3868707","label":"Valdivia","lat":-39.81422,"lon":-73.24589,"type":"city"},{"id":"cl-3868633","label":"Vallenar","lat":-28.57617,"lon":-70.75938,"type":"city"},{"id":"cl-3868626","label":"Valparaiso","lat":-33.036,"lon":-71.62963,"type":"city"},{"id":"cl-3868326","label":"Victoria","lat":-38.23291,"lon":-72.33292,"type":"city"},{"id":"cl-3868308","label":"Vicuna","lat":-30.03541,"lon":-70.71274,"type":"city"},{"id":"cl-3868210","label":"Vilcun","lat":-38.66875,"lon":-72.22565,"type":"city"},{"id":"cl-3868194","label":"Villa Alegre","lat":-35.67296,"lon":-71.7443,"type":"city"},{"id":"cl-3868192","label":"Villa Alemana","lat":-33.04823,"lon":-71.3729,"type":"city"},{"id":"cl-11947989","label":"Villa Mercedes","lat":-37.40421,"lon":-71.97949,"type":"city"},{"id":"cl-7874740","label":"Villa Presidente Frei","lat":-33.46069,"lon":-70.58024,"type":"city"},{"id":"cl-3868158","label":"Villarrica","lat":-39.28569,"lon":-72.2279,"type":"city"},{"id":"cl-3868121","label":"Vina del Mar","lat":-33.02457,"lon":-71.55183,"type":"city"},{"id":"cl-3867625","label":"Yumbel","lat":-37.0982,"lon":-72.56084,"type":"city"},{"id":"cl-3867616","label":"Yungay","lat":-37.11977,"lon":-72.01984,"type":"city"}]