[{"id":"cw-13308488","label":"Bandabou","lat":12.27177,"lon":-69.06533,"type":"city"},{"id":"cw-13308487","label":"Bandariba","lat":12.09257,"lon":-68.83092,"type":"city"},{"id":"cw-3513264","label":"Santa Rosa","lat":12.11667,"lon":-68.88333,"type":"city"},{"id":"cw-3513221","label":"Sint Michiel Liber","lat":12.15,"lon":-68.98333,"type":"city"},{"id":"cw-6692389","label":"St. Michiel","lat":12.14335,"lon":-68.99487,"type":"city"},{"id":"cw-3513090","label":"Willemstad","lat":12.12246,"lon":-68.88641,"type":"city"}]