[{"id":"de-3247449","label":"Aachen","lat":50.77664,"lon":6.08342,"type":"city"},{"id":"de-2959927","label":"Aalen","lat":48.83777,"lon":10.0933,"type":"city"},{"id":"de-2959855","label":"Abenberg","lat":49.24282,"lon":10.96401,"type":"city"},{"id":"de-2959842","label":"Abensberg","lat":48.81684,"lon":11.8498,"type":"city"},{"id":"de-2959766","label":"Abtsgmund","lat":48.89503,"lon":10.00172,"type":"city"},{"id":"de-2959686","label":"Achern","lat":48.63115,"lon":8.07607,"type":"city"},{"id":"de-2959681","label":"Achim","lat":53.01416,"lon":9.0263,"type":"city"},{"id":"de-2959548","label":"Adelebsen","lat":51.58272,"lon":9.75461,"type":"city"},{"id":"de-2959514","label":"Adelsdorf","lat":49.47022,"lon":10.68522,"type":"city"},{"id":"de-2959508","label":"Adelsheim","lat":49.4015,"lon":9.3925,"type":"city"},{"id":"de-2959479","label":"Adendorf","lat":53.28189,"lon":10.43787,"type":"city"},{"id":"de-2959441","label":"Adlershof","lat":52.43548,"lon":13.54825,"type":"city"},{"id":"de-2959390","label":"Adorf","lat":50.32011,"lon":12.25986,"type":"city"},{"id":"de-2959374","label":"Aerzen","lat":52.04953,"lon":9.25856,"type":"city"},{"id":"de-7627288","label":"AEussere Neustadt","lat":51.06859,"lon":13.75591,"type":"city"},{"id":"de-2959343","label":"Affing","lat":48.46667,"lon":10.98333,"type":"city"},{"id":"de-2959279","label":"Ahaus","lat":52.07936,"lon":7.01344,"type":"city"},{"id":"de-2959226","label":"Ahlem","lat":52.37811,"lon":9.66436,"type":"city"},{"id":"de-2959223","label":"Ahlen","lat":51.76338,"lon":7.8887,"type":"city"},{"id":"de-2959205","label":"Ahlerstedt","lat":53.40675,"lon":9.45392,"type":"city"},{"id":"de-2959084","label":"Ahrensbok","lat":54.00862,"lon":10.57434,"type":"city"},{"id":"de-2959083","label":"Ahrensburg","lat":53.67661,"lon":10.23705,"type":"city"},{"id":"de-2958975","label":"Aichach","lat":48.45755,"lon":11.13413,"type":"city"},{"id":"de-2958904","label":"Aidlingen","lat":48.67849,"lon":8.89524,"type":"city"},{"id":"de-2958831","label":"Ainring","lat":47.81311,"lon":12.94048,"type":"city"},{"id":"de-2958781","label":"Aken","lat":51.85274,"lon":12.04461,"type":"city"},{"id":"de-2958744","label":"Albbruck","lat":47.59077,"lon":8.12954,"type":"city"},{"id":"de-2958595","label":"Albstadt","lat":48.21644,"lon":9.02596,"type":"city"},{"id":"de-2958580","label":"Aldenhoven","lat":50.9,"lon":6.28333,"type":"city"},{"id":"de-2958575","label":"Aldingen","lat":48.1,"lon":8.7,"type":"city"},{"id":"de-2958535","label":"Alfdorf","lat":48.84385,"lon":9.71857,"type":"city"},{"id":"de-2958533","label":"Alfeld","lat":51.98382,"lon":9.81989,"type":"city"},{"id":"de-2958516","label":"Alfter","lat":50.73333,"lon":7.01667,"type":"city"},{"id":"de-2958509","label":"Algermissen","lat":52.25332,"lon":9.96915,"type":"city"},{"id":"de-2958438","label":"Allendorf","lat":51.02995,"lon":8.67232,"type":"city"},{"id":"de-2958429","label":"Allensbach","lat":47.71536,"lon":9.07145,"type":"city"},{"id":"de-2958391","label":"Allersberg","lat":49.25132,"lon":11.23659,"type":"city"},{"id":"de-2958313","label":"Allmannsdorf","lat":47.68034,"lon":9.20364,"type":"city"},{"id":"de-2958188","label":"Alpen","lat":51.58333,"lon":6.51667,"type":"city"},{"id":"de-2958173","label":"Alpirsbach","lat":48.34507,"lon":8.40197,"type":"city"},{"id":"de-2958155","label":"Alsbach","lat":49.74083,"lon":8.62337,"type":"city"},{"id":"de-3272934","label":"Alsbach-Hahnlein","lat":49.73861,"lon":8.59583,"type":"city"},{"id":"de-2958141","label":"Alsdorf","lat":50.87673,"lon":6.16399,"type":"city"},{"id":"de-2958128","label":"Alsfeld","lat":50.75185,"lon":9.27082,"type":"city"},{"id":"de-2958105","label":"Alsterdorf","lat":53.61083,"lon":10.01306,"type":"city"},{"id":"de-8334624","label":"Alt-Hohenschoenhausen","lat":52.54608,"lon":13.5013,"type":"city"},{"id":"de-2841684","label":"Alt-Sanitz","lat":53.81363,"lon":13.58786,"type":"city"},{"id":"de-2821292","label":"Alt-Treptow","lat":52.48863,"lon":13.4586,"type":"city"},{"id":"de-2958085","label":"Altbach","lat":48.72268,"lon":9.38078,"type":"city"},{"id":"de-2958032","label":"Altdorf","lat":48.15374,"lon":12.18419,"type":"city"},{"id":"de-2958024","label":"Altdorf bei Nuernberg","lat":49.3856,"lon":11.3573,"type":"city"},{"id":"de-2957886","label":"Altena","lat":51.29472,"lon":7.67337,"type":"city"},{"id":"de-2957864","label":"Altenbeken","lat":51.76455,"lon":8.94201,"type":"city"},{"id":"de-2957834","label":"Altenberg","lat":50.76556,"lon":13.75334,"type":"city"},{"id":"de-2957829","label":"Altenberge","lat":52.05,"lon":7.46667,"type":"city"},{"id":"de-2957773","label":"Altenburg","lat":50.98763,"lon":12.43684,"type":"city"},{"id":"de-2957588","label":"Altenholz","lat":54.39793,"lon":10.1279,"type":"city"},{"id":"de-2957567","label":"Altenkirchen","lat":50.68594,"lon":7.64176,"type":"city"},{"id":"de-2957555","label":"Altenkunstadt","lat":50.12504,"lon":11.2503,"type":"city"},{"id":"de-2957463","label":"Altenstadt","lat":50.28747,"lon":8.94373,"type":"city"},{"id":"de-2957459","label":"Altensteig","lat":48.58649,"lon":8.60395,"type":"city"},{"id":"de-2957437","label":"Altentreptow","lat":53.69269,"lon":13.25605,"type":"city"},{"id":"de-3206149","label":"Altes Lager","lat":48.41755,"lon":9.53606,"type":"city"},{"id":"de-2957185","label":"Altglienicke","lat":52.41116,"lon":13.5355,"type":"city"},{"id":"de-2957133","label":"Althengstett","lat":48.72325,"lon":8.79434,"type":"city"},{"id":"de-2957051","label":"Altlandsberg","lat":52.56503,"lon":13.72815,"type":"city"},{"id":"de-2957021","label":"Altlussheim","lat":49.30167,"lon":8.49917,"type":"city"},{"id":"de-2956940","label":"Altoetting","lat":48.22533,"lon":12.67665,"type":"city"},{"id":"de-2956951","label":"Altomunster","lat":48.38767,"lon":11.25691,"type":"city"},{"id":"de-2911296","label":"Altona","lat":53.55,"lon":9.93333,"type":"city"},{"id":"de-11669492","label":"Altona-Altstadt","lat":53.55018,"lon":9.94653,"type":"city"},{"id":"de-11669493","label":"Altona-Nord","lat":53.56321,"lon":9.94257,"type":"city"},{"id":"de-2956891","label":"Altrip","lat":49.43556,"lon":8.49472,"type":"city"},{"id":"de-11952856","label":"Altstadt","lat":47.66056,"lon":9.17345,"type":"city"},{"id":"de-6691073","label":"Altstadt Nord","lat":50.93893,"lon":6.95752,"type":"city"},{"id":"de-6691072","label":"Altstadt Sud","lat":50.93331,"lon":6.95954,"type":"city"},{"id":"de-2956787","label":"Altusried","lat":47.8041,"lon":10.21429,"type":"city"},{"id":"de-2956715","label":"Alzenau in Unterfranken","lat":50.0888,"lon":9.06455,"type":"city"},{"id":"de-2956710","label":"Alzey","lat":49.74657,"lon":8.11513,"type":"city"},{"id":"de-12110941","label":"Am Hagenring","lat":52.27256,"lon":10.54213,"type":"city"},{"id":"de-2956656","label":"Amberg","lat":49.44287,"lon":11.86267,"type":"city"},{"id":"de-2956404","label":"Amoeneburg","lat":50.79595,"lon":8.9233,"type":"city"},{"id":"de-2956378","label":"Ampfing","lat":48.254,"lon":12.41515,"type":"city"},{"id":"de-2956206","label":"Andernach","lat":50.43109,"lon":7.40425,"type":"city"},{"id":"de-2956191","label":"Anderten","lat":52.36292,"lon":9.85714,"type":"city"},{"id":"de-2956093","label":"Angermuende","lat":53.01499,"lon":13.99924,"type":"city"},{"id":"de-2956018","label":"Anklam","lat":53.85637,"lon":13.68965,"type":"city"},{"id":"de-2956014","label":"Ankum","lat":52.54153,"lon":7.87478,"type":"city"},{"id":"de-2956005","label":"Annaberg-Buchholz","lat":50.57953,"lon":13.00627,"type":"city"},{"id":"de-2955951","label":"Annweiler am Trifels","lat":49.20613,"lon":7.97527,"type":"city"},{"id":"de-2955940","label":"Anroechte","lat":51.56667,"lon":8.33333,"type":"city"},{"id":"de-2955936","label":"Ansbach","lat":49.30481,"lon":10.5931,"type":"city"},{"id":"de-2955817","label":"Apen","lat":53.22128,"lon":7.80947,"type":"city"},{"id":"de-2955773","label":"Aplerbeck","lat":51.48333,"lon":7.55,"type":"city"},{"id":"de-2955770","label":"Apolda","lat":51.02624,"lon":11.51638,"type":"city"},{"id":"de-2955745","label":"Appen","lat":53.65813,"lon":9.74582,"type":"city"},{"id":"de-2955599","label":"Arheilgen","lat":49.9128,"lon":8.65695,"type":"city"},{"id":"de-2955471","label":"Arnsberg","lat":51.38333,"lon":8.08333,"type":"city"},{"id":"de-2955439","label":"Arnstadt","lat":50.84048,"lon":10.95198,"type":"city"},{"id":"de-2955431","label":"Arnstein","lat":49.97767,"lon":9.96983,"type":"city"},{"id":"de-2955429","label":"Arnstorf","lat":48.5584,"lon":12.81674,"type":"city"},{"id":"de-2955394","label":"Artern","lat":51.36431,"lon":11.29167,"type":"city"},{"id":"de-2955368","label":"Arzberg","lat":50.05774,"lon":12.18676,"type":"city"},{"id":"de-2955315","label":"Asbach","lat":50.66667,"lon":7.41667,"type":"city"},{"id":"de-2955272","label":"Aschaffenburg","lat":49.97704,"lon":9.15214,"type":"city"},{"id":"de-2863652","label":"Aschau im Chiemgau","lat":47.77689,"lon":12.32297,"type":"city"},{"id":"de-2955224","label":"Ascheberg","lat":51.78333,"lon":7.61667,"type":"city"},{"id":"de-2955168","label":"Aschersleben","lat":51.75742,"lon":11.46084,"type":"city"},{"id":"de-2955159","label":"Aschheim","lat":48.17112,"lon":11.71675,"type":"city"},{"id":"de-3206150","label":"Aspach","lat":48.96667,"lon":9.4,"type":"city"},{"id":"de-2955068","label":"Asperg","lat":48.90525,"lon":9.13502,"type":"city"},{"id":"de-2955023","label":"Asseln","lat":51.52829,"lon":7.58914,"type":"city"},{"id":"de-2955009","label":"Asslar","lat":50.59163,"lon":8.46273,"type":"city"},{"id":"de-2954932","label":"Attendorn","lat":51.12645,"lon":7.90333,"type":"city"},{"id":"de-2954088","label":"Au in der Hallertau","lat":48.55838,"lon":11.74138,"type":"city"},{"id":"de-2954695","label":"Aue","lat":50.59034,"lon":12.70657,"type":"city"},{"id":"de-2954602","label":"Auerbach","lat":50.51155,"lon":12.40083,"type":"city"},{"id":"de-2954603","label":"Auerbach","lat":49.69201,"lon":11.63327,"type":"city"},{"id":"de-9072532","label":"Auf der Horst","lat":52.41943,"lon":9.60248,"type":"city"},{"id":"de-2954172","label":"Augsburg","lat":48.37154,"lon":10.89851,"type":"city"},{"id":"de-2954164","label":"Augustdorf","lat":51.90944,"lon":8.73173,"type":"city"},{"id":"de-2954127","label":"Augustusburg","lat":50.81192,"lon":13.10197,"type":"city"},{"id":"de-2954065","label":"Aulendorf","lat":47.95083,"lon":9.63745,"type":"city"},{"id":"de-2954006","label":"Aurich","lat":53.46963,"lon":7.48239,"type":"city"},{"id":"de-2953770","label":"Babenhausen","lat":49.96519,"lon":8.95129,"type":"city"},{"id":"de-2953771","label":"Babenhausen","lat":48.14497,"lon":10.25325,"type":"city"},{"id":"de-2953568","label":"Backnang","lat":48.94743,"lon":9.43718,"type":"city"},{"id":"de-2953559","label":"Bad Abbach","lat":48.93754,"lon":12.04494,"type":"city"},{"id":"de-2953558","label":"Bad Aibling","lat":47.8638,"lon":12.01055,"type":"city"},{"id":"de-2955421","label":"Bad Arolsen","lat":51.37982,"lon":9.01445,"type":"city"},{"id":"de-2951134","label":"Bad Belzig","lat":52.14184,"lon":12.59272,"type":"city"},{"id":"de-2953552","label":"Bad Bentheim","lat":52.30066,"lon":7.15763,"type":"city"},{"id":"de-2953549","label":"Bad Bergzabern","lat":49.10245,"lon":8.00092,"type":"city"},{"id":"de-2953548","label":"Bad Berka","lat":50.89982,"lon":11.28245,"type":"city"},{"id":"de-2953545","label":"Bad Berleburg","lat":51.05224,"lon":8.39227,"type":"city"},{"id":"de-2949511","label":"Bad Bevensen","lat":53.07923,"lon":10.58129,"type":"city"},{"id":"de-2948384","label":"Bad Birnbach","lat":48.44489,"lon":13.09103,"type":"city"},{"id":"de-2953541","label":"Bad Blankenburg","lat":50.68189,"lon":11.27369,"type":"city"},{"id":"de-2953537","label":"Bad Bramstedt","lat":53.91827,"lon":9.88243,"type":"city"},{"id":"de-2953536","label":"Bad Breisig","lat":50.50523,"lon":7.28861,"type":"city"},{"id":"de-2953535","label":"Bad Bruckenau","lat":50.30853,"lon":9.78985,"type":"city"},{"id":"de-2940381","label":"Bad Camberg","lat":50.29695,"lon":8.26896,"type":"city"},{"id":"de-2953528","label":"Bad Doberan","lat":54.10712,"lon":11.90051,"type":"city"},{"id":"de-2953525","label":"Bad Driburg","lat":51.73297,"lon":9.01969,"type":"city"},{"id":"de-2953524","label":"Bad Dueben","lat":51.59174,"lon":12.58492,"type":"city"},{"id":"de-2953522","label":"Bad Duerkheim","lat":49.4618,"lon":8.17236,"type":"city"},{"id":"de-2953521","label":"Bad Duerrenberg","lat":51.29545,"lon":12.06583,"type":"city"},{"id":"de-2953520","label":"Bad Durrheim","lat":48.02093,"lon":8.53056,"type":"city"},{"id":"de-2953507","label":"Bad Ems","lat":50.33544,"lon":7.71369,"type":"city"},{"id":"de-2930408","label":"Bad Endbach","lat":50.75,"lon":8.5,"type":"city"},{"id":"de-2930367","label":"Bad Endorf","lat":47.90901,"lon":12.29795,"type":"city"},{"id":"de-2953464","label":"Bad Essen","lat":52.31667,"lon":8.33333,"type":"city"},{"id":"de-2927871","label":"Bad Fallingbostel","lat":52.86604,"lon":9.69486,"type":"city"},{"id":"de-2953460","label":"Bad Feilnbach","lat":47.77331,"lon":12.00973,"type":"city"},{"id":"de-2953459","label":"Bad Frankenhausen","lat":51.35609,"lon":11.09977,"type":"city"},{"id":"de-2953458","label":"Bad Freienwalde","lat":52.7873,"lon":14.0304,"type":"city"},{"id":"de-2923500","label":"Bad Fussing","lat":48.351,"lon":13.312,"type":"city"},{"id":"de-2953456","label":"Bad Gandersheim","lat":51.87167,"lon":10.02537,"type":"city"},{"id":"de-2917461","label":"Bad Griesbach","lat":48.45181,"lon":13.19329,"type":"city"},{"id":"de-2953449","label":"Bad Harzburg","lat":51.88268,"lon":10.56157,"type":"city"},{"id":"de-2953440","label":"Bad Herrenalb","lat":48.79787,"lon":8.43617,"type":"city"},{"id":"de-2953439","label":"Bad Hersfeld","lat":50.87197,"lon":9.70891,"type":"city"},{"id":"de-2953434","label":"Bad Hoenningen","lat":50.51689,"lon":7.31195,"type":"city"},{"id":"de-2953436","label":"Bad Homburg vor der Hoehe","lat":50.22683,"lon":8.61816,"type":"city"},{"id":"de-2953435","label":"Bad Honnef","lat":50.64336,"lon":7.2278,"type":"city"},{"id":"de-2953430","label":"Bad Iburg","lat":52.1549,"lon":8.04216,"type":"city"},{"id":"de-2953424","label":"Bad Kissingen","lat":50.20228,"lon":10.07784,"type":"city"},{"id":"de-2953419","label":"Bad Koenig","lat":49.7432,"lon":9.0075,"type":"city"},{"id":"de-2953418","label":"Bad Koesen","lat":51.13431,"lon":11.72203,"type":"city"},{"id":"de-2885829","label":"Bad Konigshofen im Grabfeld","lat":50.30082,"lon":10.46887,"type":"city"},{"id":"de-2953416","label":"Bad Kreuznach","lat":49.8414,"lon":7.86713,"type":"city"},{"id":"de-2882091","label":"Bad Laasphe","lat":50.93139,"lon":8.42502,"type":"city"},{"id":"de-2881972","label":"Bad Laer","lat":52.1,"lon":8.08333,"type":"city"},{"id":"de-2953413","label":"Bad Langensalza","lat":51.10771,"lon":10.646,"type":"city"},{"id":"de-2953412","label":"Bad Lauchstaedt","lat":51.38652,"lon":11.86956,"type":"city"},{"id":"de-2953411","label":"Bad Lausick","lat":51.14495,"lon":12.64449,"type":"city"},{"id":"de-2953410","label":"Bad Lauterberg im Harz","lat":51.63272,"lon":10.47031,"type":"city"},{"id":"de-2953408","label":"Bad Liebenwerda","lat":51.51826,"lon":13.39459,"type":"city"},{"id":"de-2953407","label":"Bad Liebenzell","lat":48.77427,"lon":8.72971,"type":"city"},{"id":"de-2953405","label":"Bad Lippspringe","lat":51.78333,"lon":8.81683,"type":"city"},{"id":"de-2876721","label":"Bad Lobenstein","lat":50.45223,"lon":11.6393,"type":"city"},{"id":"de-2953404","label":"Bad Marienberg","lat":50.64947,"lon":7.94958,"type":"city"},{"id":"de-2953402","label":"Bad Mergentheim","lat":49.4925,"lon":9.77361,"type":"city"},{"id":"de-2953400","label":"Bad Muender am Deister","lat":52.19551,"lon":9.46421,"type":"city"},{"id":"de-2953398","label":"Bad Muenstereifel","lat":50.55667,"lon":6.76424,"type":"city"},{"id":"de-2953395","label":"Bad Nauheim","lat":50.36463,"lon":8.73859,"type":"city"},{"id":"de-2953394","label":"Bad Nenndorf","lat":52.33703,"lon":9.37904,"type":"city"},{"id":"de-2953391","label":"Bad Neuenahr-Ahrweiler","lat":50.54322,"lon":7.1113,"type":"city"},{"id":"de-2953389","label":"Bad Neustadt an der Saale","lat":50.32174,"lon":10.20673,"type":"city"},{"id":"de-2953386","label":"Bad Oeynhausen","lat":52.20699,"lon":8.80365,"type":"city"},{"id":"de-2953385","label":"Bad Oldesloe","lat":53.81167,"lon":10.37417,"type":"city"},{"id":"de-2953384","label":"Bad Orb","lat":50.22788,"lon":9.34782,"type":"city"},{"id":"de-2953379","label":"Bad Pyrmont","lat":51.98589,"lon":9.25246,"type":"city"},{"id":"de-2953374","label":"Bad Rappenau","lat":49.23848,"lon":9.1018,"type":"city"},{"id":"de-2953371","label":"Bad Reichenhall","lat":47.72947,"lon":12.87819,"type":"city"},{"id":"de-2953367","label":"Bad Rothenfelde","lat":52.11667,"lon":8.16667,"type":"city"},{"id":"de-2953364","label":"Bad Sachsa","lat":51.59499,"lon":10.55546,"type":"city"},{"id":"de-2953363","label":"Bad Sackingen","lat":47.55371,"lon":7.94612,"type":"city"},{"id":"de-2953362","label":"Bad Salzdetfurth","lat":52.05777,"lon":10.0058,"type":"city"},{"id":"de-2953358","label":"Bad Salzuflen","lat":52.0862,"lon":8.74434,"type":"city"},{"id":"de-2953357","label":"Bad Salzungen","lat":50.81342,"lon":10.2361,"type":"city"},{"id":"de-2953355","label":"Bad Sassendorf","lat":51.58333,"lon":8.16667,"type":"city"},{"id":"de-2841125","label":"Bad Saulgau","lat":48.01676,"lon":9.50064,"type":"city"},{"id":"de-2838671","label":"Bad Schlema","lat":50.60257,"lon":12.67288,"type":"city"},{"id":"de-2835635","label":"Bad Schussenried","lat":48.00468,"lon":9.65741,"type":"city"},{"id":"de-2953348","label":"Bad Schwalbach","lat":50.14196,"lon":8.06964,"type":"city"},{"id":"de-2953347","label":"Bad Schwartau","lat":53.91887,"lon":10.69691,"type":"city"},{"id":"de-2953341","label":"Bad Segeberg","lat":53.93775,"lon":10.30745,"type":"city"},{"id":"de-2831736","label":"Bad Sobernheim","lat":49.78636,"lon":7.65146,"type":"city"},{"id":"de-2953339","label":"Bad Soden am Taunus","lat":50.1408,"lon":8.50449,"type":"city"},{"id":"de-2953338","label":"Bad Soden-Salmuenster","lat":50.27574,"lon":9.36705,"type":"city"},{"id":"de-2953336","label":"Bad Sooden-Allendorf","lat":51.27092,"lon":9.97483,"type":"city"},{"id":"de-2829701","label":"Bad Staffelstein","lat":50.10199,"lon":11.00128,"type":"city"},{"id":"de-2953324","label":"Bad Toelz","lat":47.76111,"lon":11.5589,"type":"city"},{"id":"de-2818246","label":"Bad Urach","lat":48.49107,"lon":9.40009,"type":"city"},{"id":"de-2953321","label":"Bad Vilbel","lat":50.17866,"lon":8.73756,"type":"city"},{"id":"de-2953320","label":"Bad Waldsee","lat":47.92027,"lon":9.7549,"type":"city"},{"id":"de-2809025","label":"Bad Wildbad","lat":48.75071,"lon":8.5504,"type":"city"},{"id":"de-2953317","label":"Bad Wildungen","lat":51.11963,"lon":9.12475,"type":"city"},{"id":"de-2953315","label":"Bad Wimpfen","lat":49.22971,"lon":9.15648,"type":"city"},{"id":"de-2953314","label":"Bad Windsheim","lat":49.50274,"lon":10.41539,"type":"city"},{"id":"de-2953313","label":"Bad Worishofen","lat":48.00674,"lon":10.59666,"type":"city"},{"id":"de-2805785","label":"Bad Wuennenberg","lat":51.52002,"lon":8.69934,"type":"city"},{"id":"de-2953312","label":"Bad Wurzach","lat":47.90799,"lon":9.89686,"type":"city"},{"id":"de-2953310","label":"Bad Zwischenahn","lat":53.18475,"lon":8.00286,"type":"city"},{"id":"de-2953504","label":"Baden-Baden","lat":48.7606,"lon":8.23975,"type":"city"},{"id":"de-2953485","label":"Badenstedt","lat":52.35809,"lon":9.67072,"type":"city"},{"id":"de-2953302","label":"Baesweiler","lat":50.90964,"lon":6.18874,"type":"city"},{"id":"de-2953222","label":"Baienfurt","lat":47.82857,"lon":9.65157,"type":"city"},{"id":"de-2953197","label":"Baiersbronn","lat":48.50318,"lon":8.37699,"type":"city"},{"id":"de-2953194","label":"Baiersdorf","lat":49.65807,"lon":11.03594,"type":"city"},{"id":"de-2953136","label":"Bakum","lat":52.74118,"lon":8.19546,"type":"city"},{"id":"de-2953089","label":"Balingen","lat":48.27525,"lon":8.85464,"type":"city"},{"id":"de-2953060","label":"Ballenstedt","lat":51.719,"lon":11.23265,"type":"city"},{"id":"de-2953008","label":"Baltmannsweiler","lat":48.74215,"lon":9.4494,"type":"city"},{"id":"de-2953003","label":"Balve","lat":51.3315,"lon":7.86424,"type":"city"},{"id":"de-2952984","label":"Bamberg","lat":49.89873,"lon":10.90067,"type":"city"},{"id":"de-2952973","label":"Bammental","lat":49.35611,"lon":8.77944,"type":"city"},{"id":"de-2952916","label":"Bannewitz","lat":50.99291,"lon":13.71712,"type":"city"},{"id":"de-2952814","label":"Bardowick","lat":53.29354,"lon":10.38811,"type":"city"},{"id":"de-2952633","label":"Bargteheide","lat":53.72989,"lon":10.26739,"type":"city"},{"id":"de-2952564","label":"Barleben","lat":52.20193,"lon":11.6177,"type":"city"},{"id":"de-7932342","label":"Barmbek-Nord","lat":53.6052,"lon":10.03988,"type":"city"},{"id":"de-7932343","label":"Barmbek-Sued","lat":53.58007,"lon":10.04067,"type":"city"},{"id":"de-2952531","label":"Barmstedt","lat":53.79175,"lon":9.77021,"type":"city"},{"id":"de-2952452","label":"Barnstorf","lat":52.71009,"lon":8.50256,"type":"city"},{"id":"de-2952444","label":"Barntrup","lat":51.99038,"lon":9.11642,"type":"city"},{"id":"de-2952436","label":"Barop","lat":51.48173,"lon":7.43197,"type":"city"},{"id":"de-2952415","label":"Barsbuettel","lat":53.56912,"lon":10.16795,"type":"city"},{"id":"de-2952406","label":"Barsinghausen","lat":52.3,"lon":9.45,"type":"city"},{"id":"de-2952398","label":"Barssel","lat":53.16981,"lon":7.75012,"type":"city"},{"id":"de-2952372","label":"Barth","lat":54.36346,"lon":12.72491,"type":"city"},{"id":"de-2952252","label":"Bassum","lat":52.85059,"lon":8.72791,"type":"city"},{"id":"de-2952213","label":"Battenberg","lat":51.01391,"lon":8.64603,"type":"city"},{"id":"de-2951935","label":"Baumschulenweg","lat":52.46583,"lon":13.48523,"type":"city"},{"id":"de-2951923","label":"Baunatal","lat":51.25182,"lon":9.40747,"type":"city"},{"id":"de-2951881","label":"Bautzen","lat":51.18035,"lon":14.43494,"type":"city"},{"id":"de-2951860","label":"Bayenthal","lat":50.91218,"lon":6.96799,"type":"city"},{"id":"de-2951825","label":"Bayreuth","lat":49.94782,"lon":11.57893,"type":"city"},{"id":"de-2951793","label":"Bebra","lat":50.97445,"lon":9.79562,"type":"city"},{"id":"de-2951679","label":"Beckingen","lat":49.4,"lon":6.7,"type":"city"},{"id":"de-2951654","label":"Beckum","lat":51.75571,"lon":8.04075,"type":"city"},{"id":"de-2951648","label":"Bedburg","lat":50.99258,"lon":6.57128,"type":"city"},{"id":"de-2951596","label":"Beelen","lat":51.92906,"lon":8.11117,"type":"city"},{"id":"de-2951595","label":"Beelitz","lat":52.23812,"lon":12.9714,"type":"city"},{"id":"de-2951556","label":"Beerfelden","lat":49.56858,"lon":8.97444,"type":"city"},{"id":"de-2951528","label":"Beeskow","lat":52.17291,"lon":14.24597,"type":"city"},{"id":"de-2951346","label":"Beilstein","lat":49.0414,"lon":9.3137,"type":"city"},{"id":"de-2951265","label":"Belecke","lat":51.48111,"lon":8.33196,"type":"city"},{"id":"de-2951258","label":"Belgern","lat":51.48263,"lon":13.12382,"type":"city"},{"id":"de-2951206","label":"Bellheim","lat":49.19833,"lon":8.27944,"type":"city"},{"id":"de-2951175","label":"Belm","lat":52.3,"lon":8.13333,"type":"city"},{"id":"de-2951125","label":"Bemerode","lat":52.35,"lon":9.83333,"type":"city"},{"id":"de-2951111","label":"Bendorf","lat":50.42289,"lon":7.57924,"type":"city"},{"id":"de-2951026","label":"Bennewitz","lat":51.36074,"lon":12.71376,"type":"city"},{"id":"de-2951013","label":"Benningen am Neckar","lat":48.94672,"lon":9.24212,"type":"city"},{"id":"de-2951006","label":"Benninghofen","lat":51.47524,"lon":7.51778,"type":"city"},{"id":"de-2950978","label":"Bensheim","lat":49.68369,"lon":8.61839,"type":"city"},{"id":"de-2950898","label":"Beratzhausen","lat":49.09517,"lon":11.8097,"type":"city"},{"id":"de-2950882","label":"Berching","lat":49.10695,"lon":11.44138,"type":"city"},{"id":"de-2950881","label":"Berchtesgaden","lat":47.63236,"lon":13.00187,"type":"city"},{"id":"de-2950725","label":"Berg","lat":49.81417,"lon":12.14161,"type":"city"},{"id":"de-7290243","label":"Bergedorf","lat":53.48462,"lon":10.22904,"type":"city"},{"id":"de-2950622","label":"Bergen","lat":52.80837,"lon":9.96374,"type":"city"},{"id":"de-2950620","label":"Bergen auf Ruegen","lat":54.41823,"lon":13.43349,"type":"city"},{"id":"de-2950438","label":"Bergheim","lat":50.95572,"lon":6.63986,"type":"city"},{"id":"de-2950382","label":"Berghofen","lat":51.46691,"lon":7.5286,"type":"city"},{"id":"de-2950349","label":"Bergisch Gladbach","lat":50.9856,"lon":7.13298,"type":"city"},{"id":"de-2950344","label":"Bergkamen","lat":51.61633,"lon":7.64451,"type":"city"},{"id":"de-2950340","label":"Bergkirchen","lat":48.25671,"lon":11.36488,"type":"city"},{"id":"de-2950294","label":"Bergneustadt","lat":51.02496,"lon":7.65599,"type":"city"},{"id":"de-2950265","label":"Bergstedt","lat":53.67111,"lon":10.12694,"type":"city"},{"id":"de-2950159","label":"Berlin","lat":52.52437,"lon":13.41053,"type":"city"},{"id":"de-2885657","label":"Berlin Koepenick","lat":52.44254,"lon":13.58228,"type":"city"},{"id":"de-2950095","label":"Bernau am Chiemsee","lat":47.81167,"lon":12.37566,"type":"city"},{"id":"de-2950096","label":"Bernau bei Berlin","lat":52.67982,"lon":13.58708,"type":"city"},{"id":"de-2950073","label":"Bernburg","lat":51.79464,"lon":11.7401,"type":"city"},{"id":"de-2950019","label":"Bernhardswald","lat":49.09123,"lon":12.24744,"type":"city"},{"id":"de-2949998","label":"Bernkastel-Kues","lat":49.91602,"lon":7.07664,"type":"city"},{"id":"de-2949961","label":"Bernsdorf","lat":51.3735,"lon":14.06886,"type":"city"},{"id":"de-2949906","label":"Bersenbrueck","lat":52.5502,"lon":7.94829,"type":"city"},{"id":"de-2949803","label":"Besigheim","lat":48.99797,"lon":9.14268,"type":"city"},{"id":"de-2949777","label":"Bestensee","lat":52.23978,"lon":13.63732,"type":"city"},{"id":"de-2949773","label":"Bestwig","lat":51.36081,"lon":8.40082,"type":"city"},{"id":"de-2949669","label":"Betzdorf","lat":50.79094,"lon":7.87189,"type":"city"},{"id":"de-2949475","label":"Beverungen","lat":51.66801,"lon":9.37417,"type":"city"},{"id":"de-2949470","label":"Bexbach","lat":49.34615,"lon":7.25527,"type":"city"},{"id":"de-2949423","label":"Biberach an der Riss","lat":48.09345,"lon":9.79053,"type":"city"},{"id":"de-2949367","label":"Biblis","lat":49.69167,"lon":8.45861,"type":"city"},{"id":"de-2949296","label":"Bickenbach","lat":49.75917,"lon":8.6175,"type":"city"},{"id":"de-2949240","label":"Biebesheim","lat":49.78088,"lon":8.46696,"type":"city"},{"id":"de-2949235","label":"Biebrich","lat":50.0415,"lon":8.24878,"type":"city"},{"id":"de-2949229","label":"Biedenkopf","lat":50.91125,"lon":8.53016,"type":"city"},{"id":"de-2949186","label":"Bielefeld","lat":52.03333,"lon":8.53333,"type":"city"},{"id":"de-2949150","label":"Bienenbuttel","lat":53.14157,"lon":10.48679,"type":"city"},{"id":"de-2949082","label":"Bierstadt","lat":50.08295,"lon":8.28569,"type":"city"},{"id":"de-2949073","label":"Biesdorf","lat":52.50906,"lon":13.5534,"type":"city"},{"id":"de-2949046","label":"Biesenthal","lat":52.76616,"lon":13.64416,"type":"city"},{"id":"de-2949014","label":"Bietigheim","lat":48.90919,"lon":8.25202,"type":"city"},{"id":"de-2949012","label":"Bietigheim-Bissingen","lat":48.94407,"lon":9.11755,"type":"city"},{"id":"de-6691078","label":"Bilderstoeckchen","lat":50.96983,"lon":6.92997,"type":"city"},{"id":"de-2948944","label":"Billerbeck","lat":51.97829,"lon":7.29261,"type":"city"},{"id":"de-2948934","label":"Billigheim","lat":49.34861,"lon":9.25389,"type":"city"},{"id":"de-2948917","label":"Billstedt","lat":53.55,"lon":10.13333,"type":"city"},{"id":"de-2948840","label":"Bindlach","lat":49.98167,"lon":11.61389,"type":"city"},{"id":"de-2948825","label":"Bingen am Rhein","lat":49.96675,"lon":7.8992,"type":"city"},{"id":"de-2948652","label":"Birkenau","lat":49.5625,"lon":8.70694,"type":"city"},{"id":"de-2948595","label":"Birkenfeld","lat":49.65245,"lon":7.16668,"type":"city"},{"id":"de-2948598","label":"Birkenfeld","lat":48.86667,"lon":8.63333,"type":"city"},{"id":"de-2948503","label":"Birkenwerder","lat":52.69106,"lon":13.27833,"type":"city"},{"id":"de-2948351","label":"Birstein","lat":50.35,"lon":9.3,"type":"city"},{"id":"de-2948339","label":"Bischberg","lat":49.91087,"lon":10.83212,"type":"city"},{"id":"de-2948290","label":"Bischofsheim","lat":49.99389,"lon":8.36722,"type":"city"},{"id":"de-2948287","label":"Bischofsheim in der Rhoen","lat":50.40239,"lon":10.00751,"type":"city"},{"id":"de-2948267","label":"Bischofswerda","lat":51.12771,"lon":14.17974,"type":"city"},{"id":"de-2948265","label":"Bischofswiesen","lat":47.63115,"lon":12.98305,"type":"city"},{"id":"de-2948246","label":"Bisingen","lat":48.31012,"lon":8.91738,"type":"city"},{"id":"de-2948222","label":"Bispingen","lat":53.08312,"lon":9.99772,"type":"city"},{"id":"de-2948212","label":"Bissendorf","lat":52.23333,"lon":8.16667,"type":"city"},{"id":"de-2948184","label":"Bitburg","lat":49.96794,"lon":6.52734,"type":"city"},{"id":"de-2948164","label":"Bitterfeld-Wolfen","lat":51.62355,"lon":12.32395,"type":"city"},{"id":"de-2948114","label":"Blaichach","lat":47.54208,"lon":10.25846,"type":"city"},{"id":"de-2948069","label":"Blankenburg","lat":52.59293,"lon":13.45516,"type":"city"},{"id":"de-2948071","label":"Blankenburg","lat":51.79025,"lon":10.95509,"type":"city"},{"id":"de-2948066","label":"Blankenese","lat":53.55698,"lon":9.8059,"type":"city"},{"id":"de-2948065","label":"Blankenfelde","lat":52.33722,"lon":13.41205,"type":"city"},{"id":"de-13526830","label":"Blankenfelde-Mahlow","lat":52.33645,"lon":13.41316,"type":"city"},{"id":"de-2948058","label":"Blankenhain","lat":50.85993,"lon":11.3439,"type":"city"},{"id":"de-2948056","label":"Blankenheim","lat":50.43333,"lon":6.65,"type":"city"},{"id":"de-2948000","label":"Blasewitz","lat":51.05305,"lon":13.79831,"type":"city"},{"id":"de-2947949","label":"Blaubeuren","lat":48.41215,"lon":9.78427,"type":"city"},{"id":"de-2947919","label":"Blaufelden","lat":49.29778,"lon":9.97389,"type":"city"},{"id":"de-2947894","label":"Bleckede","lat":53.28727,"lon":10.7349,"type":"city"},{"id":"de-2947837","label":"Bleicherode","lat":51.44026,"lon":10.57202,"type":"city"},{"id":"de-2947739","label":"Blieskastel","lat":49.23724,"lon":7.25617,"type":"city"},{"id":"de-2947641","label":"Blomberg","lat":51.94331,"lon":9.09067,"type":"city"},{"id":"de-2947584","label":"Blumberg","lat":47.84058,"lon":8.53329,"type":"city"},{"id":"de-2947465","label":"Bobenheim-Roxheim","lat":49.5875,"lon":8.35778,"type":"city"},{"id":"de-2947449","label":"Bobingen","lat":48.27091,"lon":10.8339,"type":"city"},{"id":"de-2947421","label":"Bocholt","lat":51.83879,"lon":6.61531,"type":"city"},{"id":"de-2947416","label":"Bochum","lat":51.48165,"lon":7.21648,"type":"city"},{"id":"de-2810834","label":"Bochum-Werne","lat":51.48796,"lon":7.31217,"type":"city"},{"id":"de-2947359","label":"Bockenem","lat":52.00993,"lon":10.13197,"type":"city"},{"id":"de-2947312","label":"Bockhorn","lat":53.39514,"lon":8.02009,"type":"city"},{"id":"de-2947214","label":"Bockum","lat":51.34696,"lon":6.61589,"type":"city"},{"id":"de-2947172","label":"Bodelshausen","lat":48.38886,"lon":8.97703,"type":"city"},{"id":"de-2947133","label":"Bodenheim","lat":49.93528,"lon":8.32,"type":"city"},{"id":"de-2947125","label":"Bodenkirchen","lat":48.38333,"lon":12.38333,"type":"city"},{"id":"de-2947092","label":"Bodenwerder","lat":51.97156,"lon":9.51931,"type":"city"},{"id":"de-2947444","label":"Boeblingen","lat":48.68212,"lon":9.01171,"type":"city"},{"id":"de-11668503","label":"Boecklersiedlung-Bugenhagen","lat":54.07438,"lon":9.95533,"type":"city"},{"id":"de-2946980","label":"Boehlen","lat":51.20061,"lon":12.38622,"type":"city"},{"id":"de-2946428","label":"Boennigheim","lat":49.04018,"lon":9.09386,"type":"city"},{"id":"de-2945710","label":"Boevinghausen","lat":51.51667,"lon":7.31667,"type":"city"},{"id":"de-2947026","label":"Bogen","lat":48.91122,"lon":12.68955,"type":"city"},{"id":"de-2947022","label":"Bogenhausen","lat":48.15221,"lon":11.61585,"type":"city"},{"id":"de-3272463","label":"Bohl-Iggelheim","lat":49.38056,"lon":8.30389,"type":"city"},{"id":"de-2946950","label":"Bohmenkirch","lat":48.68333,"lon":9.93333,"type":"city"},{"id":"de-2946923","label":"Bohmte","lat":52.36667,"lon":8.31667,"type":"city"},{"id":"de-2946887","label":"Bohnsdorf","lat":52.39434,"lon":13.57339,"type":"city"},{"id":"de-2946821","label":"Boizenburg","lat":53.38081,"lon":10.73758,"type":"city"},{"id":"de-2946696","label":"Boll","lat":48.64357,"lon":9.61295,"type":"city"},{"id":"de-2946524","label":"Bomlitz","lat":52.90297,"lon":9.6606,"type":"city"},{"id":"de-2946485","label":"Bondorf","lat":48.52064,"lon":8.83704,"type":"city"},{"id":"de-2946478","label":"Bonen","lat":51.6,"lon":7.76667,"type":"city"},{"id":"de-2946447","label":"Bonn","lat":50.73438,"lon":7.09549,"type":"city"},{"id":"de-6472198","label":"Bonn Hardtberg","lat":50.704,"lon":7.054,"type":"city"},{"id":"de-2946445","label":"Bonndorf","lat":47.81863,"lon":8.34139,"type":"city"},{"id":"de-2946368","label":"Bopfingen","lat":48.85847,"lon":10.35417,"type":"city"},{"id":"de-2946366","label":"Boppard","lat":50.23085,"lon":7.58992,"type":"city"},{"id":"de-2946321","label":"Bordesholm","lat":54.17611,"lon":10.03146,"type":"city"},{"id":"de-2946291","label":"Borgentreich","lat":51.56917,"lon":9.24113,"type":"city"},{"id":"de-2946281","label":"Borgfelde","lat":53.55475,"lon":10.03447,"type":"city"},{"id":"de-2946270","label":"Borgholzhausen","lat":52.10343,"lon":8.30211,"type":"city"},{"id":"de-2946228","label":"Borken","lat":51.84382,"lon":6.85774,"type":"city"},{"id":"de-2946230","label":"Borken","lat":51.04501,"lon":9.2844,"type":"city"},{"id":"de-2946206","label":"Borkum","lat":53.58094,"lon":6.69153,"type":"city"},{"id":"de-2946172","label":"Borna","lat":51.12416,"lon":12.49639,"type":"city"},{"id":"de-2946111","label":"Bornheim","lat":50.76313,"lon":6.99089,"type":"city"},{"id":"de-2946016","label":"Borsdorf","lat":51.35,"lon":12.53333,"type":"city"},{"id":"de-2945907","label":"Bosel","lat":53.00447,"lon":7.95422,"type":"city"},{"id":"de-2945798","label":"Bothfeld","lat":52.41732,"lon":9.79612,"type":"city"},{"id":"de-2945756","label":"Bottrop","lat":51.52392,"lon":6.9285,"type":"city"},{"id":"de-2945740","label":"Botzingen","lat":48.07642,"lon":7.72485,"type":"city"},{"id":"de-2945730","label":"Bous","lat":49.27732,"lon":6.80131,"type":"city"},{"id":"de-2945726","label":"Bovenden","lat":51.58836,"lon":9.9222,"type":"city"},{"id":"de-2945703","label":"Boxberg","lat":49.47965,"lon":9.64006,"type":"city"},{"id":"de-12216686","label":"Brachenfeld-Ruthenberg","lat":54.07154,"lon":10.0092,"type":"city"},{"id":"de-2945601","label":"Brackel","lat":51.52573,"lon":7.54438,"type":"city"},{"id":"de-2945591","label":"Brackenheim","lat":49.07787,"lon":9.06601,"type":"city"},{"id":"de-2945545","label":"Brake (Unterweser)","lat":53.33333,"lon":8.48333,"type":"city"},{"id":"de-2945542","label":"Brakel","lat":51.7175,"lon":9.18596,"type":"city"},{"id":"de-2945474","label":"Bramsche","lat":52.40839,"lon":7.98327,"type":"city"},{"id":"de-2945341","label":"Brand-Erbisdorf","lat":50.86643,"lon":13.32285,"type":"city"},{"id":"de-2945358","label":"Brandenburg an der Havel","lat":52.41667,"lon":12.55,"type":"city"},{"id":"de-2945270","label":"Brandis","lat":51.33597,"lon":12.61024,"type":"city"},{"id":"de-2945165","label":"Brannenburg","lat":47.73996,"lon":12.09166,"type":"city"},{"id":"de-2945073","label":"Braunfels","lat":50.51545,"lon":8.38918,"type":"city"},{"id":"de-2945055","label":"Braunlage","lat":51.72651,"lon":10.6109,"type":"city"},{"id":"de-2945051","label":"Braunlingen","lat":47.92957,"lon":8.44806,"type":"city"},{"id":"de-2945041","label":"Braunsbedra","lat":51.28602,"lon":11.88987,"type":"city"},{"id":"de-2945024","label":"Braunschweig","lat":52.26594,"lon":10.52673,"type":"city"},{"id":"de-2945009","label":"Braunshardt","lat":49.91419,"lon":8.56722,"type":"city"},{"id":"de-2944960","label":"Brechten","lat":51.57606,"lon":7.4674,"type":"city"},{"id":"de-2944955","label":"Breckerfeld","lat":51.25926,"lon":7.46807,"type":"city"},{"id":"de-2944879","label":"Bredstedt","lat":54.61868,"lon":8.96441,"type":"city"},{"id":"de-2944820","label":"Breidenbach","lat":50.88734,"lon":8.45748,"type":"city"},{"id":"de-2944800","label":"Breisach am Rhein","lat":48.03279,"lon":7.58294,"type":"city"},{"id":"de-2944630","label":"Breitenbrunn","lat":50.47553,"lon":12.76649,"type":"city"},{"id":"de-2944612","label":"Breitenfeld","lat":51.40354,"lon":12.34177,"type":"city"},{"id":"de-2944388","label":"Bremen","lat":53.07582,"lon":8.80717,"type":"city"},{"id":"de-2944368","label":"Bremerhaven","lat":53.55357,"lon":8.57553,"type":"city"},{"id":"de-2944354","label":"Bremervoerde","lat":53.48513,"lon":9.14644,"type":"city"},{"id":"de-2944254","label":"Brensbach","lat":49.77389,"lon":8.88444,"type":"city"},{"id":"de-2944200","label":"Bretten","lat":49.03685,"lon":8.70745,"type":"city"},{"id":"de-2944178","label":"Bretzfeld","lat":49.17944,"lon":9.43833,"type":"city"},{"id":"de-2944126","label":"Brieselang","lat":52.58856,"lon":12.99466,"type":"city"},{"id":"de-2944079","label":"Brilon","lat":51.39462,"lon":8.57146,"type":"city"},{"id":"de-2944027","label":"Britz","lat":52.44293,"lon":13.43388,"type":"city"},{"id":"de-2943855","label":"Broitzem","lat":52.23463,"lon":10.47718,"type":"city"},{"id":"de-2943587","label":"Bruchhausen-Vilsen","lat":52.82931,"lon":8.99066,"type":"city"},{"id":"de-2943573","label":"Bruchkoebel","lat":50.17853,"lon":8.92315,"type":"city"},{"id":"de-3207512","label":"Bruchmuhlbach-Miesau","lat":49.38333,"lon":7.43333,"type":"city"},{"id":"de-2943560","label":"Bruchsal","lat":49.12426,"lon":8.59804,"type":"city"},{"id":"de-2943501","label":"Bruckberg","lat":48.52244,"lon":11.99448,"type":"city"},{"id":"de-2943408","label":"Bruckmuhl","lat":47.87859,"lon":11.91098,"type":"city"},{"id":"de-2943320","label":"Bruehl","lat":50.82928,"lon":6.90499,"type":"city"},{"id":"de-2943336","label":"Bruggen","lat":51.24053,"lon":6.18376,"type":"city"},{"id":"de-2943321","label":"Bruhl","lat":49.39722,"lon":8.53361,"type":"city"},{"id":"de-2943049","label":"Brunsbuettel","lat":53.8962,"lon":9.10459,"type":"city"},{"id":"de-2942827","label":"Buch","lat":52.6347,"lon":13.49679,"type":"city"},{"id":"de-2942627","label":"Buchen","lat":53.48008,"lon":10.6176,"type":"city"},{"id":"de-2942634","label":"Buchen in Odenwald","lat":49.52416,"lon":9.32293,"type":"city"},{"id":"de-2942612","label":"Buchenbach","lat":49.26778,"lon":11.05889,"type":"city"},{"id":"de-8593860","label":"Buchforst","lat":50.95093,"lon":7.00579,"type":"city"},{"id":"de-2942446","label":"Buchheim","lat":50.95152,"lon":7.02093,"type":"city"},{"id":"de-2942323","label":"Buchholz in der Nordheide","lat":53.33038,"lon":9.86596,"type":"city"},{"id":"de-2942281","label":"Buchloe","lat":48.03719,"lon":10.72548,"type":"city"},{"id":"de-2942122","label":"Buckow","lat":52.42162,"lon":13.43613,"type":"city"},{"id":"de-2942087","label":"Budenheim","lat":50.01667,"lon":8.16667,"type":"city"},{"id":"de-2942159","label":"Bueckeburg","lat":52.26065,"lon":9.04939,"type":"city"},{"id":"de-2942093","label":"Buedelsdorf","lat":54.31824,"lon":9.67301,"type":"city"},{"id":"de-2942073","label":"Buedingen","lat":50.29013,"lon":9.1114,"type":"city"},{"id":"de-2941976","label":"Buehl","lat":48.69676,"lon":8.13523,"type":"city"},{"id":"de-2941694","label":"Buende","lat":52.19837,"lon":8.58644,"type":"city"},{"id":"de-2942056","label":"Buer","lat":51.5774,"lon":7.0518,"type":"city"},{"id":"de-2941570","label":"Bueren","lat":51.55109,"lon":8.55956,"type":"city"},{"id":"de-2940938","label":"Buerstadt","lat":49.64266,"lon":8.45936,"type":"city"},{"id":"de-2940476","label":"Buetzow","lat":53.84133,"lon":11.98145,"type":"city"},{"id":"de-2941928","label":"Buhlertal","lat":48.68569,"lon":8.18876,"type":"city"},{"id":"de-2941838","label":"Buldern","lat":51.86618,"lon":7.36724,"type":"city"},{"id":"de-2941693","label":"Bunde","lat":53.18387,"lon":7.27334,"type":"city"},{"id":"de-2941595","label":"Burbach","lat":50.75105,"lon":8.07939,"type":"city"},{"id":"de-2941496","label":"Burg auf Fehmarn","lat":54.43333,"lon":11.2,"type":"city"},{"id":"de-2941501","label":"Burg bei Magdeburg","lat":52.27152,"lon":11.85493,"type":"city"},{"id":"de-2941485","label":"Burgau","lat":48.43159,"lon":10.40989,"type":"city"},{"id":"de-2941405","label":"Burgdorf","lat":52.44628,"lon":10.0064,"type":"city"},{"id":"de-2941403","label":"Burgebrach","lat":49.82832,"lon":10.74338,"type":"city"},{"id":"de-2941283","label":"Burghaun","lat":50.69684,"lon":9.72453,"type":"city"},{"id":"de-2941279","label":"Burghausen","lat":48.16925,"lon":12.83139,"type":"city"},{"id":"de-2941216","label":"Burgkirchen an der Alz","lat":48.16753,"lon":12.7325,"type":"city"},{"id":"de-2941207","label":"Burgkunstadt","lat":50.14093,"lon":11.25205,"type":"city"},{"id":"de-2941190","label":"Burglengenfeld","lat":49.20379,"lon":12.04452,"type":"city"},{"id":"de-11594317","label":"Burglesum","lat":53.16532,"lon":8.68873,"type":"city"},{"id":"de-2941150","label":"Burgstaedt","lat":50.91333,"lon":12.806,"type":"city"},{"id":"de-2941090","label":"Burgthann","lat":49.35202,"lon":11.31154,"type":"city"},{"id":"de-2941034","label":"Burkardroth","lat":50.27125,"lon":9.99162,"type":"city"},{"id":"de-2940993","label":"Burkhardtsdorf","lat":50.73333,"lon":12.91667,"type":"city"},{"id":"de-2940977","label":"Burladingen","lat":48.29111,"lon":9.11286,"type":"city"},{"id":"de-2940942","label":"Burscheid","lat":51.08468,"lon":7.11393,"type":"city"},{"id":"de-3336894","label":"Butjadingen","lat":53.54722,"lon":8.335,"type":"city"},{"id":"de-2940633","label":"Buttelborn","lat":49.90333,"lon":8.52333,"type":"city"},{"id":"de-2940611","label":"Buttenwiesen","lat":48.6,"lon":10.71667,"type":"city"},{"id":"de-2940512","label":"Butzbach","lat":50.43395,"lon":8.67122,"type":"city"},{"id":"de-2940451","label":"Buxtehude","lat":53.46994,"lon":9.68968,"type":"city"},{"id":"de-2940428","label":"Cadolzburg","lat":49.4573,"lon":10.85329,"type":"city"},{"id":"de-2940419","label":"Calbe","lat":51.90668,"lon":11.77478,"type":"city"},{"id":"de-2940412","label":"Calden","lat":51.40943,"lon":9.40189,"type":"city"},{"id":"de-8629465","label":"Calenberger Neustadt","lat":52.37077,"lon":9.72863,"type":"city"},{"id":"de-2940397","label":"Callenberg","lat":50.85,"lon":12.63333,"type":"city"},{"id":"de-2940383","label":"Calw","lat":48.71419,"lon":8.74031,"type":"city"},{"id":"de-2940317","label":"Cappeln","lat":52.81047,"lon":8.11407,"type":"city"},{"id":"de-2940231","label":"Castrop-Rauxel","lat":51.55657,"lon":7.31155,"type":"city"},{"id":"de-2940213","label":"Celle","lat":52.62264,"lon":10.08047,"type":"city"},{"id":"de-2940204","label":"Cham","lat":49.22565,"lon":12.65501,"type":"city"},{"id":"de-2940187","label":"Charlottenburg","lat":52.51667,"lon":13.28333,"type":"city"},{"id":"de-6545288","label":"Charlottenburg-Nord","lat":52.53048,"lon":13.29371,"type":"city"},{"id":"de-2940132","label":"Chemnitz","lat":50.8357,"lon":12.92922,"type":"city"},{"id":"de-2905487","label":"Clarholz","lat":51.88141,"lon":8.23894,"type":"city"},{"id":"de-2939995","label":"Clausthal-Zellerfeld","lat":51.80949,"lon":10.33821,"type":"city"},{"id":"de-2939969","label":"Cloppenburg","lat":52.84755,"lon":8.04745,"type":"city"},{"id":"de-2939951","label":"Coburg","lat":50.25937,"lon":10.96384,"type":"city"},{"id":"de-2939949","label":"Cochem","lat":50.14511,"lon":7.16379,"type":"city"},{"id":"de-2939942","label":"Coelbe","lat":50.85098,"lon":8.78092,"type":"city"},{"id":"de-2939945","label":"Coesfeld","lat":51.94349,"lon":7.16809,"type":"city"},{"id":"de-2939927","label":"Colditz","lat":51.12821,"lon":12.80295,"type":"city"},{"id":"de-2939870","label":"Contwig","lat":49.25,"lon":7.43333,"type":"city"},{"id":"de-2939862","label":"Coppenbruegge","lat":52.11852,"lon":9.5487,"type":"city"},{"id":"de-2939819","label":"Coswig","lat":51.88618,"lon":12.45009,"type":"city"},{"id":"de-2939820","label":"Coswig","lat":51.13204,"lon":13.58312,"type":"city"},{"id":"de-2939811","label":"Cottbus","lat":51.75769,"lon":14.32888,"type":"city"},{"id":"de-2939797","label":"Crailsheim","lat":49.13444,"lon":10.07193,"type":"city"},{"id":"de-2939763","label":"Cremlingen","lat":52.24794,"lon":10.65506,"type":"city"},{"id":"de-2939747","label":"Crimmitschau","lat":50.81644,"lon":12.39045,"type":"city"},{"id":"de-2939687","label":"Cunewalde","lat":51.1,"lon":14.51667,"type":"city"},{"id":"de-2939658","label":"Cuxhaven","lat":53.86828,"lon":8.69902,"type":"city"},{"id":"de-2939623","label":"Dachau","lat":48.26,"lon":11.43402,"type":"city"},{"id":"de-2939440","label":"Dahlem","lat":52.4581,"lon":13.28702,"type":"city"},{"id":"de-2939434","label":"Dahlen","lat":51.36495,"lon":12.99881,"type":"city"},{"id":"de-2939406","label":"Dahlhausen","lat":51.427,"lon":7.14808,"type":"city"},{"id":"de-2939388","label":"Dahme","lat":51.87008,"lon":13.42743,"type":"city"},{"id":"de-6547590","label":"Dallgow-Doeberitz","lat":52.54269,"lon":13.05837,"type":"city"},{"id":"de-2939167","label":"Damme","lat":52.52148,"lon":8.19766,"type":"city"},{"id":"de-2938991","label":"Dannenberg","lat":53.0967,"lon":11.09001,"type":"city"},{"id":"de-3272455","label":"Dannstadt-Schauernheim","lat":49.44028,"lon":8.30861,"type":"city"},{"id":"de-2938913","label":"Darmstadt","lat":49.87167,"lon":8.65027,"type":"city"},{"id":"de-2938837","label":"Dasing","lat":48.38482,"lon":11.04667,"type":"city"},{"id":"de-2938813","label":"Dassel","lat":51.80179,"lon":9.68904,"type":"city"},{"id":"de-2938784","label":"Datteln","lat":51.65598,"lon":7.3453,"type":"city"},{"id":"de-2938714","label":"Daun","lat":50.19716,"lon":6.82942,"type":"city"},{"id":"de-2938695","label":"Davenstedt","lat":52.36646,"lon":9.67184,"type":"city"},{"id":"de-2938662","label":"Debschwitz","lat":50.85622,"lon":12.07228,"type":"city"},{"id":"de-2938540","label":"Deggendorf","lat":48.84085,"lon":12.96068,"type":"city"},{"id":"de-2938538","label":"Deggingen","lat":48.5971,"lon":9.71891,"type":"city"},{"id":"de-2938403","label":"Deisslingen","lat":48.1123,"lon":8.60736,"type":"city"},{"id":"de-2938391","label":"Deizisau","lat":48.7122,"lon":9.3861,"type":"city"},{"id":"de-2938389","label":"Delbrueck","lat":51.76503,"lon":8.56223,"type":"city"},{"id":"de-2938376","label":"Delitzsch","lat":51.52546,"lon":12.34284,"type":"city"},{"id":"de-2938344","label":"Delligsen","lat":51.9412,"lon":9.80272,"type":"city"},{"id":"de-2938323","label":"Delmenhorst","lat":53.0511,"lon":8.63091,"type":"city"},{"id":"de-2938284","label":"Demmin","lat":53.90762,"lon":13.03142,"type":"city"},{"id":"de-2938253","label":"Denkendorf","lat":48.69555,"lon":9.31675,"type":"city"},{"id":"de-2938190","label":"Denzlingen","lat":48.06667,"lon":7.88333,"type":"city"},{"id":"de-2938058","label":"Derne","lat":51.57081,"lon":7.52013,"type":"city"},{"id":"de-2937959","label":"Dessau","lat":51.83864,"lon":12.24555,"type":"city"},{"id":"de-2937937","label":"Detmerode","lat":52.39016,"lon":10.7448,"type":"city"},{"id":"de-2937936","label":"Detmold","lat":51.93855,"lon":8.87318,"type":"city"},{"id":"de-2937932","label":"Dettelbach","lat":49.80295,"lon":10.16519,"type":"city"},{"id":"de-2937919","label":"Dettenhausen","lat":48.60758,"lon":9.10041,"type":"city"},{"id":"de-2937898","label":"Dettingen an der Erms","lat":48.53077,"lon":9.34458,"type":"city"},{"id":"de-2937896","label":"Dettingen unter Teck","lat":48.61667,"lon":9.45,"type":"city"},{"id":"de-2937790","label":"Deutz","lat":50.93463,"lon":6.97495,"type":"city"},{"id":"de-2937591","label":"Dieburg","lat":49.89738,"lon":8.84613,"type":"city"},{"id":"de-2937553","label":"Diedorf","lat":48.3532,"lon":10.78206,"type":"city"},{"id":"de-2937449","label":"Diekholzen","lat":52.09617,"lon":9.91945,"type":"city"},{"id":"de-2937407","label":"Dielheim","lat":49.28417,"lon":8.73806,"type":"city"},{"id":"de-2937317","label":"Diepholz","lat":52.60695,"lon":8.37027,"type":"city"},{"id":"de-2937280","label":"Dierdorf","lat":50.54647,"lon":7.65271,"type":"city"},{"id":"de-9222696","label":"Dierkow-Neu","lat":54.10571,"lon":12.16753,"type":"city"},{"id":"de-2937217","label":"Diessen am Ammersee","lat":47.95085,"lon":11.10306,"type":"city"},{"id":"de-2937164","label":"Dietenheim","lat":48.21072,"lon":10.07163,"type":"city"},{"id":"de-2937160","label":"Dietenhofen","lat":49.39997,"lon":10.68975,"type":"city"},{"id":"de-2937110","label":"Dietfurt","lat":49.03578,"lon":11.58624,"type":"city"},{"id":"de-2937077","label":"Dietmannsried","lat":47.80787,"lon":10.28948,"type":"city"},{"id":"de-2937073","label":"Dietramszell","lat":47.84871,"lon":11.5953,"type":"city"},{"id":"de-2937040","label":"Dietzenbach","lat":50.00976,"lon":8.77783,"type":"city"},{"id":"de-2937018","label":"Diez","lat":50.37419,"lon":8.00735,"type":"city"},{"id":"de-2936985","label":"Dillenburg","lat":50.74114,"lon":8.28699,"type":"city"},{"id":"de-2936977","label":"Dillingen","lat":49.35557,"lon":6.72781,"type":"city"},{"id":"de-2936974","label":"Dillingen an der Donau","lat":48.58153,"lon":10.49527,"type":"city"},{"id":"de-2936942","label":"Dingden","lat":51.77009,"lon":6.61311,"type":"city"},{"id":"de-2936909","label":"Dingolfing","lat":48.64244,"lon":12.49283,"type":"city"},{"id":"de-2936886","label":"Dinkelsbuehl","lat":49.06942,"lon":10.31985,"type":"city"},{"id":"de-2936885","label":"Dinkelscherben","lat":48.34826,"lon":10.58893,"type":"city"},{"id":"de-2936881","label":"Dinklage","lat":52.66196,"lon":8.12604,"type":"city"},{"id":"de-2936871","label":"Dinslaken","lat":51.56227,"lon":6.7434,"type":"city"},{"id":"de-2936842","label":"Dippoldiswalde","lat":50.89621,"lon":13.66905,"type":"city"},{"id":"de-2936787","label":"Dissen","lat":52.11591,"lon":8.19956,"type":"city"},{"id":"de-2936759","label":"Dittelbrunn","lat":50.07212,"lon":10.21974,"type":"city"},{"id":"de-2936705","label":"Ditzingen","lat":48.82672,"lon":9.06703,"type":"city"},{"id":"de-2936631","label":"Doberlug-Kirchhain","lat":51.62578,"lon":13.56232,"type":"city"},{"id":"de-2936658","label":"Doebeln","lat":51.1221,"lon":13.11027,"type":"city"},{"id":"de-2936452","label":"Doehren","lat":52.3379,"lon":9.76265,"type":"city"},{"id":"de-2936470","label":"Dohna","lat":50.95621,"lon":13.85839,"type":"city"},{"id":"de-2936267","label":"Donaueschingen","lat":47.95514,"lon":8.49707,"type":"city"},{"id":"de-2936253","label":"Donauwoerth","lat":48.71804,"lon":10.7793,"type":"city"},{"id":"de-2936186","label":"Donzdorf","lat":48.68544,"lon":9.81053,"type":"city"},{"id":"de-2936153","label":"Dorentrup","lat":52.04109,"lon":9.00278,"type":"city"},{"id":"de-2936103","label":"Dorfen","lat":48.27037,"lon":12.16056,"type":"city"},{"id":"de-2935825","label":"Dormagen","lat":51.09683,"lon":6.83167,"type":"city"},{"id":"de-2935702","label":"Dornhan","lat":48.35008,"lon":8.50901,"type":"city"},{"id":"de-2935694","label":"Dornheim","lat":49.87778,"lon":8.48389,"type":"city"},{"id":"de-2935647","label":"Dornstadt","lat":48.46697,"lon":9.94434,"type":"city"},{"id":"de-2935642","label":"Dornstetten","lat":48.47198,"lon":8.49817,"type":"city"},{"id":"de-2935530","label":"Dorsten","lat":51.66166,"lon":6.96514,"type":"city"},{"id":"de-2935527","label":"Dorstfeld","lat":51.50135,"lon":7.41085,"type":"city"},{"id":"de-2935517","label":"Dortmund","lat":51.51494,"lon":7.466,"type":"city"},{"id":"de-2935491","label":"Dorverden","lat":52.84824,"lon":9.23698,"type":"city"},{"id":"de-2935453","label":"Dossenheim","lat":49.45028,"lon":8.67472,"type":"city"},{"id":"de-2935441","label":"Dotlingen","lat":52.93631,"lon":8.38157,"type":"city"},{"id":"de-2935414","label":"Dotzheim","lat":50.07438,"lon":8.19503,"type":"city"},{"id":"de-2935298","label":"Drebkau","lat":51.65412,"lon":14.22316,"type":"city"},{"id":"de-2935220","label":"Dreieich","lat":50.01997,"lon":8.69611,"type":"city"},{"id":"de-2935042","label":"Drensteinfurt","lat":51.79535,"lon":7.73815,"type":"city"},{"id":"de-2935022","label":"Dresden","lat":51.05089,"lon":13.73832,"type":"city"},{"id":"de-2934965","label":"Driedorf","lat":50.63333,"lon":8.18333,"type":"city"},{"id":"de-2934915","label":"Drochtersen","lat":53.71015,"lon":9.38463,"type":"city"},{"id":"de-2934886","label":"Drolshagen","lat":51.02358,"lon":7.77355,"type":"city"},{"id":"de-2934737","label":"Dudenhofen","lat":49.31861,"lon":8.38861,"type":"city"},{"id":"de-2934728","label":"Duderstadt","lat":51.51312,"lon":10.25951,"type":"city"},{"id":"de-2934662","label":"Duelmen","lat":51.83149,"lon":7.28075,"type":"city"},{"id":"de-2934486","label":"Dueren","lat":50.80434,"lon":6.49299,"type":"city"},{"id":"de-2934246","label":"Duesseldorf","lat":51.22319,"lon":6.77927,"type":"city"},{"id":"de-11258605","label":"Duesseldorf-Pempelfort","lat":51.23812,"lon":6.78678,"type":"city"},{"id":"de-2934691","label":"Duisburg","lat":51.43247,"lon":6.76516,"type":"city"},{"id":"de-11669496","label":"Dulsberg","lat":53.58383,"lon":10.06445,"type":"city"},{"id":"de-2934560","label":"Dunningen","lat":48.21242,"lon":8.50619,"type":"city"},{"id":"de-2934509","label":"Durach","lat":47.6944,"lon":10.34449,"type":"city"},{"id":"de-2934462","label":"Durmersheim","lat":48.93333,"lon":8.26667,"type":"city"},{"id":"de-2934235","label":"Dusslingen","lat":48.45357,"lon":9.05552,"type":"city"},{"id":"de-2934163","label":"Duvenstedt","lat":53.70806,"lon":10.10444,"type":"city"},{"id":"de-2934033","label":"Ebensfeld","lat":50.0664,"lon":10.95835,"type":"city"},{"id":"de-2934020","label":"Eberbach","lat":49.4668,"lon":8.99016,"type":"city"},{"id":"de-2934014","label":"Eberdingen","lat":48.87942,"lon":8.96502,"type":"city"},{"id":"de-2933986","label":"Ebermannstadt","lat":49.78154,"lon":11.18168,"type":"city"},{"id":"de-2933965","label":"Ebersbach","lat":51.00762,"lon":14.58621,"type":"city"},{"id":"de-3209001","label":"Ebersbach","lat":51.23333,"lon":13.65,"type":"city"},{"id":"de-2933959","label":"Ebersbach an der Fils","lat":48.716,"lon":9.5236,"type":"city"},{"id":"de-2933945","label":"Ebersberg","lat":48.0771,"lon":11.97063,"type":"city"},{"id":"de-2933922","label":"Ebersdorf","lat":50.32898,"lon":11.15266,"type":"city"},{"id":"de-2933882","label":"Eberswalde","lat":52.83492,"lon":13.81951,"type":"city"},{"id":"de-2933817","label":"Ebstorf","lat":53.02785,"lon":10.41839,"type":"city"},{"id":"de-2933799","label":"Eching","lat":48.3,"lon":11.61667,"type":"city"},{"id":"de-2933772","label":"Echzell","lat":50.38888,"lon":8.88605,"type":"city"},{"id":"de-2933627","label":"Eckernfoerde","lat":54.46854,"lon":9.83824,"type":"city"},{"id":"de-2933607","label":"Eckersdorf","lat":50.02874,"lon":11.39611,"type":"city"},{"id":"de-2933410","label":"Edenkoben","lat":49.28393,"lon":8.12714,"type":"city"},{"id":"de-13286471","label":"Edertal","lat":51.16717,"lon":9.07794,"type":"city"},{"id":"de-2933364","label":"Edewecht","lat":53.12814,"lon":7.98424,"type":"city"},{"id":"de-2933345","label":"Edingen-Neckarhausen","lat":49.45722,"lon":8.60639,"type":"city"},{"id":"de-2933274","label":"Efringen-Kirchen","lat":47.65,"lon":7.56667,"type":"city"},{"id":"de-2933246","label":"Egelsbach","lat":49.96792,"lon":8.66341,"type":"city"},{"id":"de-2933188","label":"Egestorf","lat":52.28568,"lon":9.51676,"type":"city"},{"id":"de-2933115","label":"Eggenfelden","lat":48.40509,"lon":12.75752,"type":"city"},{"id":"de-2933101","label":"Eggenstein-Leopoldshafen","lat":49.09006,"lon":8.39879,"type":"city"},{"id":"de-2933042","label":"Eggesin","lat":53.6783,"lon":14.08533,"type":"city"},{"id":"de-2933019","label":"Eggolsheim","lat":49.76961,"lon":11.05701,"type":"city"},{"id":"de-2932992","label":"Egling","lat":47.92316,"lon":11.50517,"type":"city"},{"id":"de-2932924","label":"Ehingen","lat":48.28259,"lon":9.72749,"type":"city"},{"id":"de-2932882","label":"Ehningen","lat":48.65882,"lon":8.94124,"type":"city"},{"id":"de-2932871","label":"Ehrang","lat":49.81606,"lon":6.69823,"type":"city"},{"id":"de-2932828","label":"Ehrenfriedersdorf","lat":50.64934,"lon":12.97009,"type":"city"},{"id":"de-2932788","label":"Ehringshausen","lat":50.6,"lon":8.38333,"type":"city"},{"id":"de-2932756","label":"Eibau","lat":50.98272,"lon":14.66214,"type":"city"},{"id":"de-2932738","label":"Eibenstock","lat":50.49431,"lon":12.59978,"type":"city"},{"id":"de-2932382","label":"Eichenau","lat":48.16667,"lon":11.31667,"type":"city"},{"id":"de-2932321","label":"Eichendorf","lat":48.63266,"lon":12.85586,"type":"city"},{"id":"de-2932266","label":"Eichenzell","lat":50.49536,"lon":9.69672,"type":"city"},{"id":"de-2932089","label":"Eichlinghofen","lat":51.47926,"lon":7.4086,"type":"city"},{"id":"de-2932069","label":"Eichstaett","lat":48.88854,"lon":11.19675,"type":"city"},{"id":"de-2932040","label":"Eichwalde","lat":52.36667,"lon":13.61667,"type":"city"},{"id":"de-7274677","label":"Eidelstedt","lat":53.60697,"lon":9.90538,"type":"city"},{"id":"de-2931881","label":"Eil","lat":50.89362,"lon":7.07967,"type":"city"},{"id":"de-2931877","label":"Eilbek","lat":53.56776,"lon":10.04718,"type":"city"},{"id":"de-2931871","label":"Eilenburg","lat":51.45984,"lon":12.63338,"type":"city"},{"id":"de-2911293","label":"Eimsbuettel","lat":53.57416,"lon":9.95679,"type":"city"},{"id":"de-2931804","label":"Einbeck","lat":51.82018,"lon":9.86961,"type":"city"},{"id":"de-2931779","label":"Einfeld","lat":54.12112,"lon":9.98902,"type":"city"},{"id":"de-2931753","label":"Einhausen","lat":49.67667,"lon":8.54833,"type":"city"},{"id":"de-2931574","label":"Eisenach","lat":50.9807,"lon":10.31522,"type":"city"},{"id":"de-2931521","label":"Eisenberg","lat":50.9686,"lon":11.90207,"type":"city"},{"id":"de-2931522","label":"Eisenberg","lat":49.55859,"lon":8.07199,"type":"city"},{"id":"de-2931481","label":"Eisenhuettenstadt","lat":52.15,"lon":14.65,"type":"city"},{"id":"de-2931433","label":"Eisfeld","lat":50.42648,"lon":10.90695,"type":"city"},{"id":"de-7284571","label":"Eisleben Lutherstadt","lat":51.52754,"lon":11.54835,"type":"city"},{"id":"de-2931414","label":"Eislingen","lat":48.69515,"lon":9.70676,"type":"city"},{"id":"de-2931396","label":"Eissendorf","lat":53.45222,"lon":9.95138,"type":"city"},{"id":"de-2931372","label":"Eiterfeld","lat":50.76667,"lon":9.8,"type":"city"},{"id":"de-2931361","label":"Eitorf","lat":50.76667,"lon":7.45,"type":"city"},{"id":"de-2931038","label":"Ellerau","lat":53.75579,"lon":9.93133,"type":"city"},{"id":"de-2930900","label":"Ellrich","lat":51.58656,"lon":10.66326,"type":"city"},{"id":"de-2930889","label":"Ellwangen","lat":48.96164,"lon":10.13173,"type":"city"},{"id":"de-2930831","label":"Elmpt","lat":51.21029,"lon":6.1532,"type":"city"},{"id":"de-2930826","label":"Elmschenhagen","lat":54.28949,"lon":10.1899,"type":"city"},{"id":"de-2930821","label":"Elmshorn","lat":53.74912,"lon":9.66176,"type":"city"},{"id":"de-2930778","label":"Elsdorf","lat":50.93739,"lon":6.56828,"type":"city"},{"id":"de-2930747","label":"Elsenfeld","lat":49.84289,"lon":9.16355,"type":"city"},{"id":"de-2930726","label":"Elsfleth","lat":53.23748,"lon":8.45664,"type":"city"},{"id":"de-2930687","label":"Elsterberg","lat":50.60841,"lon":12.16787,"type":"city"},{"id":"de-2930680","label":"Elsterwerda","lat":51.46043,"lon":13.52001,"type":"city"},{"id":"de-2930650","label":"Eltmann","lat":49.97148,"lon":10.66712,"type":"city"},{"id":"de-2930646","label":"Eltville","lat":50.02858,"lon":8.11754,"type":"city"},{"id":"de-2930628","label":"Elz","lat":50.41667,"lon":8.03333,"type":"city"},{"id":"de-2930626","label":"Elzach","lat":48.17247,"lon":8.06992,"type":"city"},{"id":"de-2930623","label":"Elze","lat":52.12263,"lon":9.73595,"type":"city"},{"id":"de-2930596","label":"Emden","lat":53.36592,"lon":7.20846,"type":"city"},{"id":"de-2930546","label":"Emlichheim","lat":52.61122,"lon":6.85059,"type":"city"},{"id":"de-2930523","label":"Emmendingen","lat":48.12096,"lon":7.85359,"type":"city"},{"id":"de-2930509","label":"Emmerich","lat":51.83933,"lon":6.24792,"type":"city"},{"id":"de-2930500","label":"Emmering","lat":48.18333,"lon":11.28333,"type":"city"},{"id":"de-2930454","label":"Emsburen","lat":52.4,"lon":7.3,"type":"city"},{"id":"de-2930449","label":"Emsdetten","lat":52.1734,"lon":7.52781,"type":"city"},{"id":"de-2930432","label":"Emskirchen","lat":49.55282,"lon":10.71278,"type":"city"},{"id":"de-2930426","label":"Emstek","lat":52.83404,"lon":8.15716,"type":"city"},{"id":"de-2930394","label":"Endenich","lat":50.72377,"lon":7.07278,"type":"city"},{"id":"de-2930383","label":"Endingen","lat":48.14221,"lon":7.70049,"type":"city"},{"id":"de-2930216","label":"Engelskirchen","lat":50.98854,"lon":7.41391,"type":"city"},{"id":"de-2930201","label":"Engen","lat":47.85534,"lon":8.77342,"type":"city"},{"id":"de-2930182","label":"Enger","lat":52.14063,"lon":8.55772,"type":"city"},{"id":"de-2930080","label":"Eningen unter Achalm","lat":48.48686,"lon":9.25946,"type":"city"},{"id":"de-2930071","label":"Enkenbach-Alsenborn","lat":49.48333,"lon":7.9,"type":"city"},{"id":"de-2930043","label":"Ennepetal","lat":51.29848,"lon":7.3629,"type":"city"},{"id":"de-2930030","label":"Ennigerloh","lat":51.83843,"lon":8.03093,"type":"city"},{"id":"de-2930019","label":"Ensdorf","lat":49.3,"lon":6.78333,"type":"city"},{"id":"de-2929865","label":"Eppelborn","lat":49.4,"lon":6.96667,"type":"city"},{"id":"de-2929863","label":"Eppelheim","lat":49.4019,"lon":8.63644,"type":"city"},{"id":"de-2929853","label":"Eppendorf","lat":53.5924,"lon":9.98752,"type":"city"},{"id":"de-2929837","label":"Eppertshausen","lat":49.95056,"lon":8.85389,"type":"city"},{"id":"de-2929831","label":"Eppingen","lat":49.13645,"lon":8.91229,"type":"city"},{"id":"de-2929817","label":"Eppstein","lat":50.14277,"lon":8.39231,"type":"city"},{"id":"de-2929802","label":"Erbach","lat":49.66148,"lon":8.99402,"type":"city"},{"id":"de-2929804","label":"Erbach","lat":48.32841,"lon":9.88752,"type":"city"},{"id":"de-2929783","label":"Erbendorf","lat":49.83983,"lon":12.04593,"type":"city"},{"id":"de-2929715","label":"Erding","lat":48.30603,"lon":11.90686,"type":"city"},{"id":"de-2929692","label":"Erdweg","lat":48.3318,"lon":11.30339,"type":"city"},{"id":"de-2929671","label":"Erftstadt","lat":50.81481,"lon":6.79387,"type":"city"},{"id":"de-2929670","label":"Erfurt","lat":50.97734,"lon":11.03536,"type":"city"},{"id":"de-2929650","label":"Ergolding","lat":48.57654,"lon":12.17102,"type":"city"},{"id":"de-2929649","label":"Ergoldsbach","lat":48.69263,"lon":12.20442,"type":"city"},{"id":"de-2929622","label":"Erkelenz","lat":51.07947,"lon":6.31531,"type":"city"},{"id":"de-2929602","label":"Erkner","lat":52.42,"lon":13.75437,"type":"city"},{"id":"de-2929600","label":"Erkrath","lat":51.22235,"lon":6.90831,"type":"city"},{"id":"de-2929567","label":"Erlangen","lat":49.59099,"lon":11.00783,"type":"city"},{"id":"de-2929484","label":"Erlenbach am Main","lat":49.80341,"lon":9.16311,"type":"city"},{"id":"de-2929451","label":"Erlensee","lat":50.16304,"lon":8.97823,"type":"city"},{"id":"de-2929370","label":"Erndtebrueck","lat":50.98927,"lon":8.25288,"type":"city"},{"id":"de-2929252","label":"Ertingen","lat":48.1,"lon":9.46667,"type":"city"},{"id":"de-2929247","label":"Erwitte","lat":51.6127,"lon":8.3384,"type":"city"},{"id":"de-2929224","label":"Erzhausen","lat":49.95528,"lon":8.6475,"type":"city"},{"id":"de-2929134","label":"Eschborn","lat":50.14328,"lon":8.57111,"type":"city"},{"id":"de-2928967","label":"Eschwege","lat":51.18386,"lon":10.05329,"type":"city"},{"id":"de-2928963","label":"Eschweiler","lat":50.81854,"lon":6.27184,"type":"city"},{"id":"de-11611400","label":"Eselsberg","lat":48.40978,"lon":9.95138,"type":"city"},{"id":"de-2928911","label":"Esens","lat":53.64866,"lon":7.61267,"type":"city"},{"id":"de-2928890","label":"Eslohe","lat":51.25369,"lon":8.16949,"type":"city"},{"id":"de-2928874","label":"Espelkamp","lat":52.38141,"lon":8.62303,"type":"city"},{"id":"de-2928809","label":"Essen","lat":52.7228,"lon":7.93721,"type":"city"},{"id":"de-2928810","label":"Essen","lat":51.45657,"lon":7.01228,"type":"city"},{"id":"de-2928804","label":"Essenbach","lat":48.61332,"lon":12.21833,"type":"city"},{"id":"de-2928761","label":"Essingen","lat":48.80859,"lon":10.02773,"type":"city"},{"id":"de-2928751","label":"Esslingen","lat":48.73961,"lon":9.30473,"type":"city"},{"id":"de-2928717","label":"Esterwegen","lat":52.99288,"lon":7.63327,"type":"city"},{"id":"de-2928659","label":"Ettenheim","lat":48.25696,"lon":7.81247,"type":"city"},{"id":"de-2928615","label":"Ettlingen","lat":48.94094,"lon":8.40763,"type":"city"},{"id":"de-2928396","label":"Euskirchen","lat":50.66057,"lon":6.78722,"type":"city"},{"id":"de-2928381","label":"Eutin","lat":54.13503,"lon":10.61148,"type":"city"},{"id":"de-2928379","label":"Eutingen an der Enz","lat":48.91246,"lon":8.74898,"type":"city"},{"id":"de-2928320","label":"Everswinkel","lat":51.92595,"lon":7.8469,"type":"city"},{"id":"de-2928313","label":"Eving","lat":51.55177,"lon":7.48087,"type":"city"},{"id":"de-11668501","label":"Faldera","lat":54.06128,"lon":9.94838,"type":"city"},{"id":"de-2928011","label":"Falkenberg","lat":51.58557,"lon":13.24347,"type":"city"},{"id":"de-8334621","label":"Falkenhagener Feld","lat":52.55191,"lon":13.16802,"type":"city"},{"id":"de-2927930","label":"Falkensee","lat":52.56014,"lon":13.0927,"type":"city"},{"id":"de-2927913","label":"Falkenstein","lat":50.47788,"lon":12.37129,"type":"city"},{"id":"de-7932386","label":"Farmsen-Berne","lat":53.60639,"lon":10.11972,"type":"city"},{"id":"de-2927750","label":"Fassberg","lat":52.89854,"lon":10.16737,"type":"city"},{"id":"de-8051091","label":"Fehmarn","lat":54.4378,"lon":11.19352,"type":"city"},{"id":"de-2927564","label":"Fehrbellin","lat":52.8135,"lon":12.7644,"type":"city"},{"id":"de-2927347","label":"Feldkirchen","lat":48.14811,"lon":11.731,"type":"city"},{"id":"de-2927339","label":"Feldkirchen-Westerham","lat":47.90748,"lon":11.84266,"type":"city"},{"id":"de-2927268","label":"Fellbach","lat":48.80912,"lon":9.27697,"type":"city"},{"id":"de-2927226","label":"Felsberg","lat":51.13763,"lon":9.42139,"type":"city"},{"id":"de-8334625","label":"Fennpfuhl","lat":52.52921,"lon":13.47267,"type":"city"},{"id":"de-2927054","label":"Feucht","lat":49.37597,"lon":11.21433,"type":"city"},{"id":"de-2927048","label":"Feuchtwangen","lat":49.16287,"lon":10.3385,"type":"city"},{"id":"de-3336891","label":"Filderstadt","lat":48.65698,"lon":9.22049,"type":"city"},{"id":"de-2926732","label":"Finkenwerder","lat":53.53274,"lon":9.86271,"type":"city"},{"id":"de-2926670","label":"Finsterwalde","lat":51.63388,"lon":13.70662,"type":"city"},{"id":"de-2926586","label":"Fischbachau","lat":47.71952,"lon":11.95081,"type":"city"},{"id":"de-2926565","label":"Fischeln","lat":51.30353,"lon":6.58836,"type":"city"},{"id":"de-2926304","label":"Flein","lat":49.10306,"lon":9.21083,"type":"city"},{"id":"de-2926271","label":"Flensburg","lat":54.78805,"lon":9.43722,"type":"city"},{"id":"de-2926226","label":"Flieden","lat":50.42389,"lon":9.5666,"type":"city"},{"id":"de-2926178","label":"Flintbek","lat":54.25,"lon":10.06667,"type":"city"},{"id":"de-2926147","label":"Floeha","lat":50.85613,"lon":13.07407,"type":"city"},{"id":"de-2926120","label":"Floersheim","lat":50.01311,"lon":8.42779,"type":"city"},{"id":"de-3208053","label":"Florstadt","lat":50.31667,"lon":8.86667,"type":"city"},{"id":"de-2926017","label":"Fockbek","lat":54.30501,"lon":9.59884,"type":"city"},{"id":"de-2925924","label":"Forbach","lat":48.68333,"lon":8.35,"type":"city"},{"id":"de-2925910","label":"Forchheim","lat":49.71754,"lon":11.05877,"type":"city"},{"id":"de-2925905","label":"Forchtenberg","lat":49.28867,"lon":9.56026,"type":"city"},{"id":"de-2925832","label":"Forst","lat":51.73544,"lon":14.63971,"type":"city"},{"id":"de-2925848","label":"Forst","lat":49.15861,"lon":8.58083,"type":"city"},{"id":"de-2925629","label":"Frankenberg","lat":51.0589,"lon":8.80077,"type":"city"},{"id":"de-2925630","label":"Frankenberg","lat":50.91297,"lon":13.04011,"type":"city"},{"id":"de-2925550","label":"Frankenthal","lat":49.53414,"lon":8.35357,"type":"city"},{"id":"de-2925535","label":"Frankfurt (Oder)","lat":52.34714,"lon":14.55062,"type":"city"},{"id":"de-2925533","label":"Frankfurt am Main","lat":50.11552,"lon":8.68417,"type":"city"},{"id":"de-2942341","label":"Franzoesisch Buchholz","lat":52.60242,"lon":13.43019,"type":"city"},{"id":"de-2925267","label":"Fraureuth","lat":50.7,"lon":12.35,"type":"city"},{"id":"de-2925259","label":"Frechen","lat":50.91485,"lon":6.8118,"type":"city"},{"id":"de-2925192","label":"Freiberg","lat":50.91089,"lon":13.33881,"type":"city"},{"id":"de-2925189","label":"Freiberg am Neckar","lat":48.93196,"lon":9.2024,"type":"city"},{"id":"de-2925177","label":"Freiburg","lat":47.9959,"lon":7.85222,"type":"city"},{"id":"de-2925080","label":"Freilassing","lat":47.84085,"lon":12.98114,"type":"city"},{"id":"de-2925038","label":"Freisen","lat":49.55,"lon":7.25,"type":"city"},{"id":"de-2925034","label":"Freising","lat":48.40351,"lon":11.74876,"type":"city"},{"id":"de-2925017","label":"Freital","lat":51.00166,"lon":13.6488,"type":"city"},{"id":"de-2924967","label":"Freren","lat":52.48679,"lon":7.54417,"type":"city"},{"id":"de-2924915","label":"Freudenberg","lat":50.89741,"lon":7.87415,"type":"city"},{"id":"de-2924894","label":"Freudenstadt","lat":48.46695,"lon":8.41371,"type":"city"},{"id":"de-2924854","label":"Freystadt","lat":49.20007,"lon":11.33032,"type":"city"},{"id":"de-2924850","label":"Freyung","lat":48.80952,"lon":13.54768,"type":"city"},{"id":"de-2924837","label":"Frickenhausen","lat":48.59353,"lon":9.36005,"type":"city"},{"id":"de-2924802","label":"Friedberg","lat":50.33739,"lon":8.75591,"type":"city"},{"id":"de-2924803","label":"Friedberg","lat":48.35693,"lon":10.98461,"type":"city"},{"id":"de-2924788","label":"Friedeburg","lat":53.45362,"lon":7.83146,"type":"city"},{"id":"de-2924770","label":"Friedenau","lat":52.47133,"lon":13.32813,"type":"city"},{"id":"de-2924679","label":"Friedland","lat":53.672,"lon":13.5506,"type":"city"},{"id":"de-9972705","label":"Friedland","lat":51.41917,"lon":9.91762,"type":"city"},{"id":"de-2924656","label":"Friedrichroda","lat":50.85754,"lon":10.56507,"type":"city"},{"id":"de-2924621","label":"Friedrichsdorf","lat":51.938,"lon":8.487,"type":"city"},{"id":"de-2924625","label":"Friedrichsdorf","lat":50.24962,"lon":8.64281,"type":"city"},{"id":"de-2924599","label":"Friedrichsfelde","lat":52.50575,"lon":13.50812,"type":"city"},{"id":"de-2924585","label":"Friedrichshafen","lat":47.65689,"lon":9.47554,"type":"city"},{"id":"de-2924577","label":"Friedrichshagen","lat":52.45052,"lon":13.62463,"type":"city"},{"id":"de-2924573","label":"Friedrichshain Bezirk","lat":52.51559,"lon":13.45482,"type":"city"},{"id":"de-2924476","label":"Friedrichstadt","lat":51.88751,"lon":12.66947,"type":"city"},{"id":"de-2924478","label":"Friedrichstadt","lat":51.06047,"lon":13.70787,"type":"city"},{"id":"de-2924461","label":"Friedrichsthal","lat":49.32786,"lon":7.09622,"type":"city"},{"id":"de-2924428","label":"Frielendorf","lat":50.97073,"lon":9.32269,"type":"city"},{"id":"de-2924398","label":"Friesdorf","lat":50.69608,"lon":7.12874,"type":"city"},{"id":"de-2924360","label":"Friesoythe","lat":53.02048,"lon":7.85879,"type":"city"},{"id":"de-2924326","label":"Fritzlar","lat":51.13181,"lon":9.27557,"type":"city"},{"id":"de-2924206","label":"Froendenberg","lat":51.47563,"lon":7.76946,"type":"city"},{"id":"de-2924313","label":"Frohburg","lat":51.05719,"lon":12.55746,"type":"city"},{"id":"de-2924302","label":"Frohnau","lat":52.63336,"lon":13.29024,"type":"city"},{"id":"de-2923658","label":"Fuerstenau","lat":52.51667,"lon":7.6767,"type":"city"},{"id":"de-2923637","label":"Fuerstenberg","lat":53.18525,"lon":13.14554,"type":"city"},{"id":"de-2923625","label":"Fuerstenfeldbruck","lat":48.17904,"lon":11.2547,"type":"city"},{"id":"de-2923588","label":"Fuerstenwalde","lat":52.36067,"lon":14.06185,"type":"city"},{"id":"de-2923544","label":"Fuerth","lat":49.47593,"lon":10.98856,"type":"city"},{"id":"de-2923507","label":"Fuessen","lat":47.57143,"lon":10.70171,"type":"city"},{"id":"de-2923850","label":"Fuhlsbuettel","lat":53.63459,"lon":10.01608,"type":"city"},{"id":"de-2923822","label":"Fulda","lat":50.55162,"lon":9.67518,"type":"city"},{"id":"de-2923815","label":"Fuldatal","lat":51.38333,"lon":9.56667,"type":"city"},{"id":"de-2923584","label":"Furstenzell","lat":48.52163,"lon":13.31749,"type":"city"},{"id":"de-2923543","label":"Furth","lat":49.65083,"lon":8.78472,"type":"city"},{"id":"de-2923529","label":"Furth im Wald","lat":49.30955,"lon":12.84156,"type":"city"},{"id":"de-2923521","label":"Furtwangen","lat":48.05156,"lon":8.20715,"type":"city"},{"id":"de-2923410","label":"Gadebusch","lat":53.70181,"lon":11.11665,"type":"city"},{"id":"de-2923407","label":"Gadeland","lat":54.05562,"lon":10.02547,"type":"city"},{"id":"de-2923362","label":"Gaggenau","lat":48.8,"lon":8.33333,"type":"city"},{"id":"de-2923325","label":"Gaildorf","lat":49.00027,"lon":9.76953,"type":"city"},{"id":"de-2923305","label":"Gaimersheim","lat":48.80705,"lon":11.36801,"type":"city"},{"id":"de-7118093","label":"Gallus","lat":50.10038,"lon":8.6295,"type":"city"},{"id":"de-2922747","label":"Gammertingen","lat":48.2524,"lon":9.22349,"type":"city"},{"id":"de-2922731","label":"Ganderkesee","lat":53.03616,"lon":8.54514,"type":"city"},{"id":"de-2922722","label":"Gangelt","lat":50.99247,"lon":5.99802,"type":"city"},{"id":"de-2922716","label":"Gangkofen","lat":48.43701,"lon":12.56419,"type":"city"},{"id":"de-2922586","label":"Garbsen","lat":52.41371,"lon":9.5899,"type":"city"},{"id":"de-7732633","label":"Garbsen-Mitte","lat":52.42659,"lon":9.60383,"type":"city"},{"id":"de-2922582","label":"Garching","lat":48.24896,"lon":11.65101,"type":"city"},{"id":"de-2922583","label":"Garching an der Alz","lat":48.13451,"lon":12.58152,"type":"city"},{"id":"de-2922580","label":"Gardelegen","lat":52.5252,"lon":11.39523,"type":"city"},{"id":"de-2922530","label":"Garmisch-Partenkirchen","lat":47.49209,"lon":11.09576,"type":"city"},{"id":"de-2922511","label":"Garrel","lat":52.95483,"lon":8.02635,"type":"city"},{"id":"de-8642860","label":"Gartenstadt","lat":49.45937,"lon":8.40377,"type":"city"},{"id":"de-11668502","label":"Gartenstadt","lat":54.09265,"lon":9.96966,"type":"city"},{"id":"de-2922436","label":"Gartringen","lat":48.64176,"lon":8.90073,"type":"city"},{"id":"de-2922309","label":"Gau-Algesheim","lat":49.95669,"lon":8.01569,"type":"city"},{"id":"de-2922230","label":"Gauting","lat":48.06919,"lon":11.37703,"type":"city"},{"id":"de-2922124","label":"Gedern","lat":50.42482,"lon":9.1984,"type":"city"},{"id":"de-2922112","label":"Geeste","lat":52.6,"lon":7.26667,"type":"city"},{"id":"de-2922102","label":"Geesthacht","lat":53.4366,"lon":10.37339,"type":"city"},{"id":"de-2922008","label":"Gehrden","lat":52.31362,"lon":9.60033,"type":"city"},{"id":"de-2921837","label":"Geilenkirchen","lat":50.96745,"lon":6.11763,"type":"city"},{"id":"de-2921736","label":"Geiselhoring","lat":48.82505,"lon":12.39649,"type":"city"},{"id":"de-2921713","label":"Geisenfeld","lat":48.68426,"lon":11.61233,"type":"city"},{"id":"de-2921709","label":"Geisenhausen","lat":48.47609,"lon":12.25817,"type":"city"},{"id":"de-2921707","label":"Geisenheim","lat":49.9847,"lon":7.96835,"type":"city"},{"id":"de-2921682","label":"Geisingen","lat":47.92504,"lon":8.65002,"type":"city"},{"id":"de-2921656","label":"Geislingen","lat":48.28768,"lon":8.81241,"type":"city"},{"id":"de-2921653","label":"Geislingen an der Steige","lat":48.62423,"lon":9.82736,"type":"city"},{"id":"de-2921566","label":"Geithain","lat":51.05528,"lon":12.69674,"type":"city"},{"id":"de-2921528","label":"Geldern","lat":51.51908,"lon":6.32363,"type":"city"},{"id":"de-2921473","label":"Gelnhausen","lat":50.20164,"lon":9.18742,"type":"city"},{"id":"de-2921466","label":"Gelsenkirchen","lat":51.50508,"lon":7.09654,"type":"city"},{"id":"de-2921449","label":"Geltendorf","lat":48.11737,"lon":11.03216,"type":"city"},{"id":"de-2924681","label":"Gemeinde Friedland","lat":51.41667,"lon":9.93333,"type":"city"},{"id":"de-2921379","label":"Gemuenden am Main","lat":50.04946,"lon":9.70593,"type":"city"},{"id":"de-2921355","label":"Gengenbach","lat":48.40476,"lon":8.01433,"type":"city"},{"id":"de-2921309","label":"Genthin","lat":52.40668,"lon":12.1592,"type":"city"},{"id":"de-2921267","label":"Georgensgmund","lat":49.18972,"lon":11.01667,"type":"city"},{"id":"de-2921261","label":"Georgenthal","lat":50.83205,"lon":10.66266,"type":"city"},{"id":"de-2921242","label":"Georgsmarienhuette","lat":52.20296,"lon":8.0448,"type":"city"},{"id":"de-2921232","label":"Gera","lat":50.88029,"lon":12.08187,"type":"city"},{"id":"de-2921165","label":"Gerbrunn","lat":49.77528,"lon":9.99361,"type":"city"},{"id":"de-2921139","label":"Geretsried","lat":47.85775,"lon":11.48054,"type":"city"},{"id":"de-2921089","label":"Geringswalde","lat":51.07677,"lon":12.90725,"type":"city"},{"id":"de-2921061","label":"Gerlingen","lat":48.79954,"lon":9.06316,"type":"city"},{"id":"de-2921039","label":"Germering","lat":48.13392,"lon":11.3765,"type":"city"},{"id":"de-2921034","label":"Germersheim","lat":49.2144,"lon":8.36687,"type":"city"},{"id":"de-2920997","label":"Gernsbach","lat":48.77034,"lon":8.34306,"type":"city"},{"id":"de-2920994","label":"Gernsheim","lat":49.75305,"lon":8.48859,"type":"city"},{"id":"de-2920963","label":"Gerolstein","lat":50.22224,"lon":6.65984,"type":"city"},{"id":"de-2920959","label":"Gerolzhofen","lat":49.90025,"lon":10.34832,"type":"city"},{"id":"de-2920926","label":"Gersfeld","lat":50.45138,"lon":9.91422,"type":"city"},{"id":"de-2920921","label":"Gersheim","lat":49.15,"lon":7.2,"type":"city"},{"id":"de-2920896","label":"Gerstetten","lat":48.62254,"lon":10.01984,"type":"city"},{"id":"de-2920891","label":"Gersthofen","lat":48.42432,"lon":10.87273,"type":"city"},{"id":"de-2920842","label":"Gescher","lat":51.954,"lon":7.00481,"type":"city"},{"id":"de-2920834","label":"Geseke","lat":51.64091,"lon":8.5109,"type":"city"},{"id":"de-2920789","label":"Gesundbrunnen","lat":52.55035,"lon":13.39139,"type":"city"},{"id":"de-12687169","label":"Gesundbrunnen","lat":51.18996,"lon":14.44251,"type":"city"},{"id":"de-2920776","label":"Gettorf","lat":54.40697,"lon":9.97803,"type":"city"},{"id":"de-2920757","label":"Gevelsberg","lat":51.31971,"lon":7.3392,"type":"city"},{"id":"de-2920620","label":"Giengen an der Brenz","lat":48.62219,"lon":10.24312,"type":"city"},{"id":"de-3206402","label":"Giesen","lat":52.19716,"lon":9.8989,"type":"city"},{"id":"de-2920512","label":"Giessen","lat":50.58727,"lon":8.67554,"type":"city"},{"id":"de-2920478","label":"Gifhorn","lat":52.47774,"lon":10.5511,"type":"city"},{"id":"de-2920433","label":"Gilching","lat":48.10755,"lon":11.2936,"type":"city"},{"id":"de-2920329","label":"Ginsheim-Gustavsburg","lat":49.9711,"lon":8.34532,"type":"city"},{"id":"de-2920236","label":"Gladbeck","lat":51.57077,"lon":6.98593,"type":"city"},{"id":"de-2920229","label":"Gladenbach","lat":50.76847,"lon":8.58085,"type":"city"},{"id":"de-2920205","label":"Glandorf","lat":52.08474,"lon":7.99944,"type":"city"},{"id":"de-2920085","label":"Glashutten","lat":50.21667,"lon":8.4,"type":"city"},{"id":"de-2920020","label":"Glauchau","lat":50.81987,"lon":12.54493,"type":"city"},{"id":"de-2919935","label":"Glessen","lat":50.96742,"lon":6.74934,"type":"city"},{"id":"de-2919908","label":"Glienicke","lat":52.63353,"lon":13.32564,"type":"city"},{"id":"de-2919880","label":"Glinde","lat":53.54046,"lon":10.21301,"type":"city"},{"id":"de-2919765","label":"Gluecksburg","lat":54.83503,"lon":9.55218,"type":"city"},{"id":"de-2919763","label":"Glueckstadt","lat":53.78819,"lon":9.42408,"type":"city"},{"id":"de-2919717","label":"Gmund am Tegernsee","lat":47.75119,"lon":11.7381,"type":"city"},{"id":"de-2919692","label":"Gnarrenburg","lat":53.3863,"lon":9.00508,"type":"city"},{"id":"de-2919625","label":"Goch","lat":51.67873,"lon":6.15895,"type":"city"},{"id":"de-2919620","label":"Gochsheim","lat":50.01667,"lon":10.28333,"type":"city"},{"id":"de-2919605","label":"Goddelau","lat":49.83363,"lon":8.49806,"type":"city"},{"id":"de-2919054","label":"Goeppingen","lat":48.70354,"lon":9.65209,"type":"city"},{"id":"de-2918987","label":"Goerlitz","lat":51.15518,"lon":14.98853,"type":"city"},{"id":"de-2918632","label":"Goettingen","lat":51.53443,"lon":9.93228,"type":"city"},{"id":"de-2919502","label":"Gohlis","lat":51.366,"lon":12.367,"type":"city"},{"id":"de-2919438","label":"Goldbach","lat":49.99951,"lon":9.1844,"type":"city"},{"id":"de-2919310","label":"Goldenstedt","lat":52.78833,"lon":8.43201,"type":"city"},{"id":"de-2919146","label":"Gomaringen","lat":48.45349,"lon":9.09582,"type":"city"},{"id":"de-2919138","label":"Gommern","lat":52.07391,"lon":11.82297,"type":"city"},{"id":"de-2919095","label":"Gonsenheim","lat":50.0017,"lon":8.19653,"type":"city"},{"id":"de-2919039","label":"Gorbitz","lat":51.0455,"lon":13.66108,"type":"city"},{"id":"de-2918840","label":"Goslar","lat":51.90425,"lon":10.42766,"type":"city"},{"id":"de-2918752","label":"Gotha","lat":50.94823,"lon":10.70193,"type":"city"},{"id":"de-2918612","label":"Gottmadingen","lat":47.73511,"lon":8.77687,"type":"city"},{"id":"de-3272459","label":"Graben-Neudorf","lat":49.16695,"lon":8.49243,"type":"city"},{"id":"de-2918405","label":"Grabow","lat":53.27904,"lon":11.56366,"type":"city"},{"id":"de-2918321","label":"Graefenhainichen","lat":51.72892,"lon":12.45651,"type":"city"},{"id":"de-2918313","label":"Graefenhausen","lat":49.92946,"lon":8.6039,"type":"city"},{"id":"de-2918368","label":"Grafelfing","lat":48.11878,"lon":11.42939,"type":"city"},{"id":"de-2918365","label":"Grafenau","lat":48.85768,"lon":13.3974,"type":"city"},{"id":"de-11670103","label":"Grafenau","lat":48.71427,"lon":8.91219,"type":"city"},{"id":"de-3205858","label":"Grafenwald","lat":51.57014,"lon":6.9115,"type":"city"},{"id":"de-2918258","label":"Grafenwohr","lat":49.71728,"lon":11.90645,"type":"city"},{"id":"de-2918241","label":"Grafing bei Muenchen","lat":48.04596,"lon":11.96797,"type":"city"},{"id":"de-2918088","label":"Gransee","lat":53.00704,"lon":13.1575,"type":"city"},{"id":"de-2918041","label":"Grasberg","lat":53.18333,"lon":8.98333,"type":"city"},{"id":"de-2918037","label":"Grasbrunn","lat":48.07905,"lon":11.74361,"type":"city"},{"id":"de-2917978","label":"Grassau","lat":47.78099,"lon":12.45359,"type":"city"},{"id":"de-2917868","label":"Gravenwiesbach","lat":50.39024,"lon":8.4569,"type":"city"},{"id":"de-2917850","label":"Grebenhain","lat":50.48924,"lon":9.33855,"type":"city"},{"id":"de-2917848","label":"Grebenstein","lat":51.44648,"lon":9.4125,"type":"city"},{"id":"de-2917833","label":"Greding","lat":49.04699,"lon":11.35703,"type":"city"},{"id":"de-2917816","label":"Grefrath","lat":51.3363,"lon":6.34072,"type":"city"},{"id":"de-2917793","label":"Greifenstein","lat":50.61667,"lon":8.3,"type":"city"},{"id":"de-2917737","label":"Greiz","lat":50.65778,"lon":12.19918,"type":"city"},{"id":"de-2917698","label":"Grenzach-Wyhlen","lat":47.55,"lon":7.68333,"type":"city"},{"id":"de-2917544","label":"Greven","lat":52.09364,"lon":7.59396,"type":"city"},{"id":"de-2917540","label":"Grevenbroich","lat":51.09102,"lon":6.5827,"type":"city"},{"id":"de-2917520","label":"Grevesmuehlen","lat":53.86128,"lon":11.19054,"type":"city"},{"id":"de-2917412","label":"Griesheim","lat":49.86085,"lon":8.5725,"type":"city"},{"id":"de-2917325","label":"Grimma","lat":51.23367,"lon":12.71959,"type":"city"},{"id":"de-2917309","label":"Grimmen","lat":54.11215,"lon":13.04051,"type":"city"},{"id":"de-2917221","label":"Grobenzell","lat":48.2,"lon":11.36667,"type":"city"},{"id":"de-2917170","label":"Groitzsch","lat":51.15536,"lon":12.28279,"type":"city"},{"id":"de-2917150","label":"Gromitz","lat":54.15052,"lon":10.96011,"type":"city"},{"id":"de-2917138","label":"Gronau","lat":52.21099,"lon":7.02238,"type":"city"},{"id":"de-2917139","label":"Gronau","lat":52.0846,"lon":9.77678,"type":"city"},{"id":"de-3337408","label":"Gropiusstadt","lat":52.42686,"lon":13.46053,"type":"city"},{"id":"de-2916940","label":"Gross Borstel","lat":53.61366,"lon":9.98259,"type":"city"},{"id":"de-2915638","label":"Gross Flottbek","lat":53.56538,"lon":9.87761,"type":"city"},{"id":"de-2915375","label":"Gross Kreutz","lat":52.40281,"lon":12.7794,"type":"city"},{"id":"de-2915613","label":"Gross-Gerau","lat":49.92139,"lon":8.48255,"type":"city"},{"id":"de-2914929","label":"Gross-Umstadt","lat":49.86899,"lon":8.9321,"type":"city"},{"id":"de-2914801","label":"Gross-Zimmern","lat":49.8741,"lon":8.82898,"type":"city"},{"id":"de-2917053","label":"Grossalmerode","lat":51.25858,"lon":9.7845,"type":"city"},{"id":"de-2917032","label":"Grossauheim","lat":50.10292,"lon":8.94835,"type":"city"},{"id":"de-2916996","label":"Grossbeeren","lat":52.35862,"lon":13.30994,"type":"city"},{"id":"de-2916936","label":"Grossbottwar","lat":49.00147,"lon":9.29348,"type":"city"},{"id":"de-2916630","label":"Grossenhain","lat":51.28951,"lon":13.5335,"type":"city"},{"id":"de-2916611","label":"Grossenkneten","lat":52.94377,"lon":8.25323,"type":"city"},{"id":"de-2916606","label":"Grossenluder","lat":50.5925,"lon":9.54231,"type":"city"},{"id":"de-2915556","label":"Grosshansdorf","lat":53.66528,"lon":10.28552,"type":"city"},{"id":"de-2915511","label":"Grossheubach","lat":49.72834,"lon":9.2228,"type":"city"},{"id":"de-2915438","label":"Grosskarolinenfeld","lat":47.89102,"lon":12.08101,"type":"city"},{"id":"de-2915372","label":"Grosskrotzenburg","lat":50.08333,"lon":8.98333,"type":"city"},{"id":"de-2915196","label":"Grossostheim","lat":49.91985,"lon":9.07596,"type":"city"},{"id":"de-2915173","label":"Grossposna","lat":51.26667,"lon":12.5,"type":"city"},{"id":"de-2915157","label":"Grossraeschen","lat":51.5876,"lon":14.01093,"type":"city"},{"id":"de-2915124","label":"Grossroehrsdorf","lat":51.14528,"lon":14.01917,"type":"city"},{"id":"de-2915116","label":"Grossrosseln","lat":49.20296,"lon":6.84148,"type":"city"},{"id":"de-2915076","label":"Grossschirma","lat":50.96602,"lon":13.2859,"type":"city"},{"id":"de-2915067","label":"Grossschonau","lat":50.9,"lon":14.68333,"type":"city"},{"id":"de-2914796","label":"Grosszschocher","lat":51.30147,"lon":12.32322,"type":"city"},{"id":"de-2914477","label":"Gruenau","lat":52.41642,"lon":13.58039,"type":"city"},{"id":"de-2914432","label":"Gruenberg","lat":50.59403,"lon":8.95866,"type":"city"},{"id":"de-2914177","label":"Gruenheide","lat":52.42343,"lon":13.81324,"type":"city"},{"id":"de-2914101","label":"Gruenstadt","lat":49.56302,"lon":8.16279,"type":"city"},{"id":"de-11611297","label":"Gruiten","lat":51.21823,"lon":7.01074,"type":"city"},{"id":"de-2914210","label":"Grunewald","lat":52.48338,"lon":13.26586,"type":"city"},{"id":"de-2914064","label":"Grunwald","lat":48.03947,"lon":11.5232,"type":"city"},{"id":"de-2913972","label":"Gschwend","lat":48.93333,"lon":9.74436,"type":"city"},{"id":"de-2913922","label":"Guben","lat":51.94993,"lon":14.7055,"type":"city"},{"id":"de-2913890","label":"Gudensberg","lat":51.17706,"lon":9.36748,"type":"city"},{"id":"de-2913555","label":"Guenzburg","lat":48.45599,"lon":10.27695,"type":"city"},{"id":"de-2913433","label":"Guestrow","lat":53.7972,"lon":12.17337,"type":"city"},{"id":"de-2913366","label":"Guetersloh","lat":51.90693,"lon":8.37853,"type":"city"},{"id":"de-2913838","label":"Guglingen","lat":49.06642,"lon":9.00175,"type":"city"},{"id":"de-2913761","label":"Gummersbach","lat":51.02608,"lon":7.56473,"type":"city"},{"id":"de-2913711","label":"Gundelfingen","lat":48.55347,"lon":10.37223,"type":"city"},{"id":"de-2913713","label":"Gundelfingen","lat":48.04246,"lon":7.8657,"type":"city"},{"id":"de-2913693","label":"Gundelsheim","lat":49.2833,"lon":9.16037,"type":"city"},{"id":"de-2913537","label":"Gunzenhausen","lat":49.11663,"lon":10.75971,"type":"city"},{"id":"de-2913286","label":"Guxhagen","lat":51.2,"lon":9.48333,"type":"city"},{"id":"de-2913210","label":"Haag in Oberbayern","lat":48.16196,"lon":12.17942,"type":"city"},{"id":"de-2913195","label":"Haan","lat":51.19382,"lon":7.0133,"type":"city"},{"id":"de-2913192","label":"Haar","lat":48.10881,"lon":11.72653,"type":"city"},{"id":"de-2912921","label":"Hachenburg","lat":50.65998,"lon":7.82276,"type":"city"},{"id":"de-2912829","label":"Hadamar","lat":50.44593,"lon":8.04253,"type":"city"},{"id":"de-2910875","label":"Haenigsen","lat":52.48425,"lon":10.09129,"type":"city"},{"id":"de-7932379","label":"HafenCity","lat":53.54156,"lon":9.99328,"type":"city"},{"id":"de-2912681","label":"Hage","lat":53.60277,"lon":7.28436,"type":"city"},{"id":"de-2912618","label":"Hagen","lat":52.19629,"lon":7.98041,"type":"city"},{"id":"de-2912621","label":"Hagen","lat":51.36081,"lon":7.47168,"type":"city"},{"id":"de-2912577","label":"Hagenbach","lat":49.01734,"lon":8.25024,"type":"city"},{"id":"de-2912481","label":"Hagenow","lat":53.43203,"lon":11.19165,"type":"city"},{"id":"de-2912351","label":"Hahnbach","lat":49.53389,"lon":11.80302,"type":"city"},{"id":"de-2912159","label":"Haibach","lat":49.96444,"lon":9.20722,"type":"city"},{"id":"de-2911964","label":"Haiger","lat":50.74162,"lon":8.20778,"type":"city"},{"id":"de-2911960","label":"Haigerloch","lat":48.36614,"lon":8.80357,"type":"city"},{"id":"de-2911801","label":"Hainholz","lat":52.40378,"lon":9.7114,"type":"city"},{"id":"de-2911795","label":"Hainichen","lat":50.97044,"lon":13.12287,"type":"city"},{"id":"de-2911739","label":"Haiterbach","lat":48.52066,"lon":8.64435,"type":"city"},{"id":"de-2911710","label":"Hakenfelde","lat":52.55877,"lon":13.20831,"type":"city"},{"id":"de-2911665","label":"Halberstadt","lat":51.89562,"lon":11.05622,"type":"city"},{"id":"de-2911584","label":"Haldensleben I","lat":52.28906,"lon":11.40982,"type":"city"},{"id":"de-2911559","label":"Halensee","lat":52.49005,"lon":13.29602,"type":"city"},{"id":"de-2911530","label":"Hallbergmoos","lat":48.32747,"lon":11.75142,"type":"city"},{"id":"de-2911520","label":"Halle","lat":52.06007,"lon":8.36083,"type":"city"},{"id":"de-2911522","label":"Halle (Saale)","lat":51.48158,"lon":11.97947,"type":"city"},{"id":"de-7289614","label":"Halle-Neustadt","lat":51.47924,"lon":11.91605,"type":"city"},{"id":"de-2911463","label":"Hallstadt","lat":49.92901,"lon":10.87539,"type":"city"},{"id":"de-2911408","label":"Halstenbek","lat":53.63301,"lon":9.83945,"type":"city"},{"id":"de-2911395","label":"Haltern am See","lat":51.74297,"lon":7.18163,"type":"city"},{"id":"de-2911384","label":"Halver","lat":51.18612,"lon":7.49817,"type":"city"},{"id":"de-2911322","label":"Hambergen","lat":53.30826,"lon":8.8252,"type":"city"},{"id":"de-2911308","label":"Hambrucken","lat":49.19,"lon":8.54056,"type":"city"},{"id":"de-2911300","label":"Hambuhren","lat":52.62959,"lon":9.97165,"type":"city"},{"id":"de-2911298","label":"Hamburg","lat":53.55073,"lon":9.99302,"type":"city"},{"id":"de-2911288","label":"Hamburg-Mitte","lat":53.55,"lon":10.01667,"type":"city"},{"id":"de-8354626","label":"Hamburg-Nord","lat":53.58935,"lon":9.984,"type":"city"},{"id":"de-2911271","label":"Hameln","lat":52.10397,"lon":9.35623,"type":"city"},{"id":"de-2911234","label":"Hamm","lat":53.55487,"lon":10.05742,"type":"city"},{"id":"de-2911240","label":"Hamm","lat":51.68033,"lon":7.82089,"type":"city"},{"id":"de-2911214","label":"Hammelburg","lat":50.11633,"lon":9.89143,"type":"city"},{"id":"de-7932378","label":"Hammerbrook","lat":53.54527,"lon":10.03042,"type":"city"},{"id":"de-2911051","label":"Hamminkeln","lat":51.73262,"lon":6.59031,"type":"city"},{"id":"de-2911007","label":"Hanau am Main","lat":50.13423,"lon":8.91418,"type":"city"},{"id":"de-2910986","label":"Handewitt","lat":54.76667,"lon":9.33333,"type":"city"},{"id":"de-2910831","label":"Hannover","lat":52.37052,"lon":9.73322,"type":"city"},{"id":"de-2867613","label":"Hannoversch Muenden","lat":51.41505,"lon":9.65046,"type":"city"},{"id":"de-8334620","label":"Hansaviertel","lat":52.51853,"lon":13.34178,"type":"city"},{"id":"de-2842112","label":"Hansestadt Salzwedel","lat":52.85297,"lon":11.15287,"type":"city"},{"id":"de-2829901","label":"Hansestadt Stade","lat":53.59407,"lon":9.47302,"type":"city"},{"id":"de-2910685","label":"Harburg","lat":53.46057,"lon":9.98388,"type":"city"},{"id":"de-2910686","label":"Harburg","lat":48.78674,"lon":10.68927,"type":"city"},{"id":"de-2910663","label":"Hardegsen","lat":51.65227,"lon":9.8305,"type":"city"},{"id":"de-2910633","label":"Hardheim","lat":49.61194,"lon":9.47194,"type":"city"},{"id":"de-2910514","label":"Haren","lat":52.79315,"lon":7.24135,"type":"city"},{"id":"de-2910367","label":"Harpen","lat":51.49822,"lon":7.28831,"type":"city"},{"id":"de-2910302","label":"Harrislee","lat":54.8,"lon":9.38333,"type":"city"},{"id":"de-2910280","label":"Harsefeld","lat":53.4536,"lon":9.50437,"type":"city"},{"id":"de-2910278","label":"Harsewinkel","lat":51.96224,"lon":8.22766,"type":"city"},{"id":"de-2910269","label":"Harsum","lat":52.21045,"lon":9.96486,"type":"city"},{"id":"de-2910167","label":"Hartenstein","lat":50.66236,"lon":12.66966,"type":"city"},{"id":"de-2910140","label":"Hartha","lat":51.09863,"lon":12.97391,"type":"city"},{"id":"de-2909972","label":"Harvestehude","lat":53.57825,"lon":9.98893,"type":"city"},{"id":"de-2909915","label":"Hasbergen","lat":52.23754,"lon":7.96114,"type":"city"},{"id":"de-2909794","label":"Haselhorst","lat":52.54409,"lon":13.23743,"type":"city"},{"id":"de-2909761","label":"Haseluenne","lat":52.67308,"lon":7.48675,"type":"city"},{"id":"de-2909544","label":"Haslach","lat":48.56531,"lon":8.05658,"type":"city"},{"id":"de-2909523","label":"Haslach im Kinzigtal","lat":48.27773,"lon":8.08941,"type":"city"},{"id":"de-2909335","label":"Hassfurt","lat":50.03521,"lon":10.5156,"type":"city"},{"id":"de-2909313","label":"Hassloch","lat":49.36278,"lon":8.25806,"type":"city"},{"id":"de-2909268","label":"Hatten","lat":53.05,"lon":8.38333,"type":"city"},{"id":"de-2909240","label":"Hattersheim","lat":50.06906,"lon":8.48632,"type":"city"},{"id":"de-2909230","label":"Hattingen","lat":51.39894,"lon":7.18557,"type":"city"},{"id":"de-2908974","label":"Hausach","lat":48.28426,"lon":8.17602,"type":"city"},{"id":"de-2908942","label":"Hausbruch","lat":53.47424,"lon":9.88289,"type":"city"},{"id":"de-2908783","label":"Hausham","lat":47.7466,"lon":11.84069,"type":"city"},{"id":"de-2908661","label":"Hauzenberg","lat":48.64957,"lon":13.62645,"type":"city"},{"id":"de-2908644","label":"Havelberg","lat":52.83088,"lon":12.07552,"type":"city"},{"id":"de-2908597","label":"Havixbeck","lat":51.98333,"lon":7.41667,"type":"city"},{"id":"de-2908529","label":"Hebertshausen","lat":48.28959,"lon":11.46526,"type":"city"},{"id":"de-2908495","label":"Hechingen","lat":48.35149,"lon":8.96317,"type":"city"},{"id":"de-2908398","label":"Heddesheim","lat":49.50556,"lon":8.60361,"type":"city"},{"id":"de-2908330","label":"Heek","lat":52.11667,"lon":7.1,"type":"city"},{"id":"de-11807671","label":"Heerstrasse","lat":48.73474,"lon":9.10017,"type":"city"},{"id":"de-11611204","label":"Heidberg","lat":52.22735,"lon":10.531,"type":"city"},{"id":"de-2908032","label":"Heide","lat":54.19562,"lon":9.09742,"type":"city"},{"id":"de-2907983","label":"Heideck","lat":49.13365,"lon":11.12726,"type":"city"},{"id":"de-2907911","label":"Heidelberg","lat":49.40768,"lon":8.69079,"type":"city"},{"id":"de-2907889","label":"Heiden","lat":51.82833,"lon":6.93333,"type":"city"},{"id":"de-2907887","label":"Heidenau","lat":50.97221,"lon":13.86741,"type":"city"},{"id":"de-2907851","label":"Heidenheim an der Brenz","lat":48.67798,"lon":10.15162,"type":"city"},{"id":"de-2907790","label":"Heidesheim","lat":49.58247,"lon":8.19537,"type":"city"},{"id":"de-2907685","label":"Heikendorf","lat":54.36667,"lon":10.2,"type":"city"},{"id":"de-2907545","label":"Heilbad Heiligenstadt","lat":51.37819,"lon":10.13744,"type":"city"},{"id":"de-2907669","label":"Heilbronn","lat":49.13995,"lon":9.22054,"type":"city"},{"id":"de-2907589","label":"Heiligenhafen","lat":54.37037,"lon":10.97628,"type":"city"},{"id":"de-2907585","label":"Heiligenhaus","lat":51.32662,"lon":6.97106,"type":"city"},{"id":"de-2907551","label":"Heiligensee","lat":52.61449,"lon":13.24501,"type":"city"},{"id":"de-2907488","label":"Heilsbronn","lat":49.33572,"lon":10.78741,"type":"city"},{"id":"de-2907359","label":"Heimsheim","lat":48.80656,"lon":8.86744,"type":"city"},{"id":"de-2907298","label":"Heinersdorf","lat":52.57173,"lon":13.43757,"type":"city"},{"id":"de-2907280","label":"Heiningen","lat":48.66177,"lon":9.64977,"type":"city"},{"id":"de-2907201","label":"Heinsberg","lat":51.06358,"lon":6.0998,"type":"city"},{"id":"de-2907068","label":"Heitersheim","lat":47.87468,"lon":7.65721,"type":"city"},{"id":"de-2906843","label":"Hellenthal","lat":50.48333,"lon":6.43333,"type":"city"},{"id":"de-2906837","label":"Hellerau","lat":51.11667,"lon":13.75,"type":"city"},{"id":"de-2906809","label":"Hellersdorf","lat":52.53319,"lon":13.6088,"type":"city"},{"id":"de-2906744","label":"Helmbrechts","lat":50.23557,"lon":11.71589,"type":"city"},{"id":"de-2906676","label":"Helmstedt","lat":52.2279,"lon":11.00985,"type":"city"},{"id":"de-2906654","label":"Helsa","lat":51.25981,"lon":9.68872,"type":"city"},{"id":"de-2906625","label":"Hemau","lat":49.05399,"lon":11.78195,"type":"city"},{"id":"de-2906595","label":"Hemer","lat":51.38707,"lon":7.77019,"type":"city"},{"id":"de-2906583","label":"Hemhofen","lat":49.68333,"lon":10.93333,"type":"city"},{"id":"de-2906530","label":"Hemmingen","lat":52.31425,"lon":9.72359,"type":"city"},{"id":"de-2906531","label":"Hemmingen","lat":48.86667,"lon":9.03333,"type":"city"},{"id":"de-2906524","label":"Hemmoor","lat":53.68844,"lon":9.15241,"type":"city"},{"id":"de-2906514","label":"Hemsbach","lat":49.59075,"lon":8.64779,"type":"city"},{"id":"de-2906464","label":"Hengersberg","lat":48.77255,"lon":13.05485,"type":"city"},{"id":"de-2906376","label":"Hennef (Sieg)","lat":50.77555,"lon":7.28308,"type":"city"},{"id":"de-2906331","label":"Hennigsdorf","lat":52.63598,"lon":13.20419,"type":"city"},{"id":"de-2906268","label":"Heppenheim an der Bergstrasse","lat":49.64145,"lon":8.63206,"type":"city"},{"id":"de-2906205","label":"Herbolzheim","lat":48.21884,"lon":7.77746,"type":"city"},{"id":"de-2906199","label":"Herborn","lat":50.68135,"lon":8.30369,"type":"city"},{"id":"de-2906194","label":"Herbrechtingen","lat":48.62173,"lon":10.176,"type":"city"},{"id":"de-2906175","label":"Herbstein","lat":50.56105,"lon":9.34592,"type":"city"},{"id":"de-2906152","label":"Herdecke","lat":51.39999,"lon":7.43584,"type":"city"},{"id":"de-2906143","label":"Herdorf","lat":50.77704,"lon":7.95366,"type":"city"},{"id":"de-2906121","label":"Herford","lat":52.11457,"lon":8.67343,"type":"city"},{"id":"de-2906088","label":"Heringen","lat":50.88798,"lon":10.00717,"type":"city"},{"id":"de-2906015","label":"Hermannsburg","lat":52.83254,"lon":10.08957,"type":"city"},{"id":"de-2905929","label":"Hermeskeil","lat":49.65528,"lon":6.94407,"type":"city"},{"id":"de-2905904","label":"Hermsdorf","lat":52.61421,"lon":13.30587,"type":"city"},{"id":"de-2905916","label":"Hermsdorf","lat":50.89694,"lon":11.85549,"type":"city"},{"id":"de-2905891","label":"Herne","lat":51.5388,"lon":7.22572,"type":"city"},{"id":"de-2905881","label":"Heroldsbach","lat":49.69342,"lon":10.99882,"type":"city"},{"id":"de-2905878","label":"Heroldsberg","lat":49.53247,"lon":11.15551,"type":"city"},{"id":"de-2905826","label":"Herrenberg","lat":48.59523,"lon":8.86648,"type":"city"},{"id":"de-2905801","label":"Herrenhausen","lat":52.39184,"lon":9.69698,"type":"city"},{"id":"de-2905706","label":"Herrieden","lat":49.23779,"lon":10.5035,"type":"city"},{"id":"de-2905604","label":"Herrsching am Ammersee","lat":47.99888,"lon":11.17679,"type":"city"},{"id":"de-2905599","label":"Hersbruck","lat":49.51083,"lon":11.43151,"type":"city"},{"id":"de-2905587","label":"Herscheid","lat":51.17901,"lon":7.74355,"type":"city"},{"id":"de-2905560","label":"Herten","lat":51.59638,"lon":7.14387,"type":"city"},{"id":"de-2905527","label":"Herxheim am Berg","lat":49.50917,"lon":8.17917,"type":"city"},{"id":"de-2905504","label":"Herzberg","lat":51.68692,"lon":13.22016,"type":"city"},{"id":"de-2905496","label":"Herzberg am Harz","lat":51.65546,"lon":10.33938,"type":"city"},{"id":"de-2905457","label":"Herzogenaurach","lat":49.56798,"lon":10.88565,"type":"city"},{"id":"de-2905455","label":"Herzogenrath","lat":50.86874,"lon":6.09317,"type":"city"},{"id":"de-2905293","label":"Hessisch Lichtenau","lat":51.19954,"lon":9.71857,"type":"city"},