[{"id":"dm-3575899","label":"Berekua","lat":15.23333,"lon":-61.31667,"type":"city"},{"id":"dm-3575857","label":"Colihaut","lat":15.48478,"lon":-61.46215,"type":"city"},{"id":"dm-3575660","label":"Pointe Michel","lat":15.25976,"lon":-61.37452,"type":"city"},{"id":"dm-3575656","label":"Pont Casse","lat":15.36667,"lon":-61.35,"type":"city"},{"id":"dm-3575654","label":"Portsmouth","lat":15.58288,"lon":-61.45592,"type":"city"},{"id":"dm-3575639","label":"Rosalie","lat":15.36667,"lon":-61.26667,"type":"city"},{"id":"dm-3575635","label":"Roseau","lat":15.30174,"lon":-61.38808,"type":"city"},{"id":"dm-3575624","label":"Saint Joseph","lat":15.4061,"lon":-61.42374,"type":"city"},{"id":"dm-3575602","label":"Soufriere","lat":15.23374,"lon":-61.35881,"type":"city"},{"id":"dm-3575568","label":"Wesley","lat":15.56667,"lon":-61.31667,"type":"city"}]