[{"id":"ee-592279","label":"Elva","lat":58.2225,"lon":26.42111,"type":"city"},{"id":"ee-8435738","label":"Haabersti","lat":59.42334,"lon":24.64654,"type":"city"},{"id":"ee-592233","label":"Haabneeme","lat":59.51358,"lon":24.82225,"type":"city"},{"id":"ee-592225","label":"Haapsalu","lat":58.93937,"lon":23.54127,"type":"city"},{"id":"ee-591902","label":"Jogeva","lat":58.74667,"lon":26.39389,"type":"city"},{"id":"ee-591893","label":"Johvi","lat":59.35917,"lon":27.42111,"type":"city"},{"id":"ee-591632","label":"Kaerdla","lat":58.99778,"lon":22.74917,"type":"city"},{"id":"ee-591472","label":"Keila","lat":59.30361,"lon":24.41306,"type":"city"},{"id":"ee-795155","label":"Kesklinn","lat":59.4355,"lon":24.75748,"type":"city"},{"id":"ee-591260","label":"Kohtla-Jaerve","lat":59.39861,"lon":27.27306,"type":"city"},{"id":"ee-8435739","label":"Kristiine","lat":59.415,"lon":24.70915,"type":"city"},{"id":"ee-590939","label":"Kuressaare","lat":58.25382,"lon":22.49217,"type":"city"},{"id":"ee-590888","label":"Kuusalu","lat":59.44389,"lon":25.44139,"type":"city"},{"id":"ee-794964","label":"Laagri","lat":59.35083,"lon":24.61418,"type":"city"},{"id":"ee-590775","label":"Lasnamaee","lat":59.4336,"lon":24.86017,"type":"city"},{"id":"ee-590447","label":"Maardu","lat":59.46529,"lon":24.98215,"type":"city"},{"id":"ee-9180440","label":"Maenniku","lat":59.37528,"lon":24.71806,"type":"city"},{"id":"ee-794965","label":"Mustamaee","lat":59.40482,"lon":24.68119,"type":"city"},{"id":"ee-590031","label":"Narva","lat":59.37722,"lon":28.19028,"type":"city"},{"id":"ee-589947","label":"Nomme","lat":59.37757,"lon":24.68587,"type":"city"},{"id":"ee-589580","label":"Paernu","lat":58.38588,"lon":24.49711,"type":"city"},{"id":"ee-589709","label":"Paide","lat":58.88768,"lon":25.54042,"type":"city"},{"id":"ee-589531","label":"Peetri","lat":59.39468,"lon":24.81452,"type":"city"},{"id":"ee-589426","label":"Pirita","lat":59.469,"lon":24.838,"type":"city"},{"id":"ee-8435741","label":"Pohja-Tallinn","lat":59.44901,"lon":24.69812,"type":"city"},{"id":"ee-589375","label":"Polva","lat":58.06028,"lon":27.06944,"type":"city"},{"id":"ee-589223","label":"Raasiku","lat":59.36639,"lon":25.18306,"type":"city"},{"id":"ee-589165","label":"Rakvere","lat":59.34808,"lon":26.35784,"type":"city"},{"id":"ee-589116","label":"Rapla","lat":59.00759,"lon":24.79386,"type":"city"},{"id":"ee-588780","label":"Saue","lat":59.32258,"lon":24.54967,"type":"city"},{"id":"ee-588686","label":"Sillamaee","lat":59.39697,"lon":27.76331,"type":"city"},{"id":"ee-588409","label":"Tallinn","lat":59.43696,"lon":24.75353,"type":"city"},{"id":"ee-588348","label":"Tapa","lat":59.26056,"lon":25.95861,"type":"city"},{"id":"ee-588335","label":"Tartu","lat":58.38062,"lon":26.72509,"type":"city"},{"id":"ee-588215","label":"Tori","lat":58.47889,"lon":24.82417,"type":"city"},{"id":"ee-588153","label":"Tueri","lat":58.80861,"lon":25.4325,"type":"city"},{"id":"ee-587876","label":"Valga","lat":57.77781,"lon":26.0473,"type":"city"},{"id":"ee-587577","label":"Viljandi","lat":58.36319,"lon":25.59159,"type":"city"},{"id":"ee-587450","label":"Voru","lat":57.83389,"lon":27.01944,"type":"city"}]