[{"id":"eh-2463029","label":"Boujdour","lat":26.13073,"lon":-14.48513,"type":"city"},{"id":"eh-2463447","label":"Dakhla","lat":23.68477,"lon":-15.95798,"type":"city"},{"id":"eh-2462879","label":"El Aargub","lat":23.60882,"lon":-15.86726,"type":"city"},{"id":"eh-2461993","label":"El Marsa","lat":27.09611,"lon":-13.41583,"type":"city"},{"id":"eh-2462881","label":"Laayoune","lat":27.1418,"lon":-13.18797,"type":"city"},{"id":"eh-13608369","label":"Meharrize","lat":26.14763,"lon":-11.0693,"type":"city"},{"id":"eh-2461677","label":"Tichla","lat":21.5837,"lon":-14.97222,"type":"city"}]