[{"id":"fr-3038789","label":"Abbeville","lat":50.10521,"lon":1.83547,"type":"city"},{"id":"fr-3038754","label":"Ablon-sur-Seine","lat":48.72732,"lon":2.42686,"type":"city"},{"id":"fr-3038712","label":"Acheres","lat":48.96115,"lon":2.06882,"type":"city"},{"id":"fr-3038703","label":"Achicourt","lat":50.27429,"lon":2.75779,"type":"city"},{"id":"fr-3038698","label":"Acigne","lat":48.13538,"lon":-1.5337,"type":"city"},{"id":"fr-3038638","label":"Agde","lat":43.31083,"lon":3.47583,"type":"city"},{"id":"fr-3038634","label":"Agen","lat":44.20199,"lon":0.62055,"type":"city"},{"id":"fr-3038611","label":"Agneaux","lat":49.11905,"lon":-1.1061,"type":"city"},{"id":"fr-3038493","label":"Aigues-Mortes","lat":43.56683,"lon":4.19068,"type":"city"},{"id":"fr-3038394","label":"Aire-sur-l'Adour","lat":43.70251,"lon":-0.26276,"type":"city"},{"id":"fr-3038393","label":"Aire-sur-la-Lys","lat":50.63871,"lon":2.39876,"type":"city"},{"id":"fr-3038354","label":"Aix-en-Provence","lat":43.5283,"lon":5.44973,"type":"city"},{"id":"fr-3038350","label":"Aix-les-Bains","lat":45.69173,"lon":5.90863,"type":"city"},{"id":"fr-3038352","label":"Aixe-sur-Vienne","lat":45.79663,"lon":1.13581,"type":"city"},{"id":"fr-3038341","label":"Aizenay","lat":46.74048,"lon":-1.60911,"type":"city"},{"id":"fr-3038334","label":"Ajaccio","lat":41.91886,"lon":8.73812,"type":"city"},{"id":"fr-3038271","label":"Albert","lat":50.00091,"lon":2.65096,"type":"city"},{"id":"fr-3038266","label":"Albertville","lat":45.67452,"lon":6.39061,"type":"city"},{"id":"fr-3038261","label":"Albi","lat":43.9298,"lon":2.148,"type":"city"},{"id":"fr-3038230","label":"Alencon","lat":48.43476,"lon":0.09311,"type":"city"},{"id":"fr-3038224","label":"Ales","lat":44.12489,"lon":4.08082,"type":"city"},{"id":"fr-3038213","label":"Alfortville","lat":48.80575,"lon":2.4204,"type":"city"},{"id":"fr-3038204","label":"Algrange","lat":49.36276,"lon":6.05094,"type":"city"},{"id":"fr-3038159","label":"Allauch","lat":43.33573,"lon":5.48201,"type":"city"},{"id":"fr-3038106","label":"Allieres-et-Risset","lat":45.09934,"lon":5.67924,"type":"city"},{"id":"fr-3038086","label":"Allonnes","lat":47.96744,"lon":0.16023,"type":"city"},{"id":"fr-3038012","label":"Altkirch","lat":47.62417,"lon":7.23954,"type":"city"},{"id":"fr-3037956","label":"Ambares-et-Lagrave","lat":44.92737,"lon":-0.49141,"type":"city"},{"id":"fr-3037954","label":"Ambazac","lat":45.95733,"lon":1.39975,"type":"city"},{"id":"fr-3037943","label":"Amberieu-en-Bugey","lat":45.95932,"lon":5.3516,"type":"city"},{"id":"fr-3037937","label":"Ambert","lat":45.54944,"lon":3.74164,"type":"city"},{"id":"fr-3037902","label":"Amboise","lat":47.41249,"lon":0.98266,"type":"city"},{"id":"fr-3037854","label":"Amiens","lat":49.9,"lon":2.3,"type":"city"},{"id":"fr-3037846","label":"Amilly","lat":47.97281,"lon":2.77186,"type":"city"},{"id":"fr-3037838","label":"Amneville","lat":49.25671,"lon":6.13414,"type":"city"},{"id":"fr-3037818","label":"Amplepuis","lat":45.9726,"lon":4.3303,"type":"city"},{"id":"fr-3037797","label":"Ancenis","lat":47.36667,"lon":-1.16667,"type":"city"},{"id":"fr-3037726","label":"Andernos-les-Bains","lat":44.74572,"lon":-1.10355,"type":"city"},{"id":"fr-3037692","label":"Andresy","lat":48.98235,"lon":2.05687,"type":"city"},{"id":"fr-3037689","label":"Andrezieux-Boutheon","lat":45.52625,"lon":4.26021,"type":"city"},{"id":"fr-3037656","label":"Angers","lat":47.47156,"lon":-0.55202,"type":"city"},{"id":"fr-3037612","label":"Anglet","lat":43.48921,"lon":-1.51921,"type":"city"},{"id":"fr-3037598","label":"Angouleme","lat":45.64997,"lon":0.15345,"type":"city"},{"id":"fr-3037571","label":"Aniche","lat":50.32995,"lon":3.25346,"type":"city"},{"id":"fr-3037543","label":"Annecy","lat":45.90878,"lon":6.12565,"type":"city"},{"id":"fr-3037540","label":"Annecy-le-Vieux","lat":45.91971,"lon":6.14393,"type":"city"},{"id":"fr-3037538","label":"Annemasse","lat":46.19439,"lon":6.23775,"type":"city"},{"id":"fr-3037521","label":"Annezin","lat":50.53192,"lon":2.61785,"type":"city"},{"id":"fr-3037520","label":"Annoeullin","lat":50.52925,"lon":2.9318,"type":"city"},{"id":"fr-3037514","label":"Annonay","lat":45.23992,"lon":4.6707,"type":"city"},{"id":"fr-3037489","label":"Anse","lat":45.93553,"lon":4.71933,"type":"city"},{"id":"fr-3037456","label":"Antibes","lat":43.58127,"lon":7.12487,"type":"city"},{"id":"fr-3037423","label":"Antony","lat":48.75329,"lon":2.29668,"type":"city"},{"id":"fr-3037397","label":"Anzin","lat":50.37201,"lon":3.50387,"type":"city"},{"id":"fr-3037352","label":"Apt","lat":43.87638,"lon":5.39635,"type":"city"},{"id":"fr-3037253","label":"Arcachon","lat":44.66126,"lon":-1.17255,"type":"city"},{"id":"fr-3037157","label":"Arcueil","lat":48.79993,"lon":2.33256,"type":"city"},{"id":"fr-3037095","label":"Ares","lat":44.76576,"lon":-1.13421,"type":"city"},{"id":"fr-3037068","label":"Argeles","lat":42.54714,"lon":3.02253,"type":"city"},{"id":"fr-3037051","label":"Argentan","lat":48.74441,"lon":-0.02023,"type":"city"},{"id":"fr-3037044","label":"Argenteuil","lat":48.94788,"lon":2.24744,"type":"city"},{"id":"fr-3037018","label":"Argenton-sur-Creuse","lat":46.58997,"lon":1.51981,"type":"city"},{"id":"fr-3036938","label":"Arles","lat":43.67681,"lon":4.63031,"type":"city"},{"id":"fr-3036903","label":"Armentieres","lat":50.68568,"lon":2.88214,"type":"city"},{"id":"fr-3036876","label":"Arnage","lat":47.92619,"lon":0.18726,"type":"city"},{"id":"fr-3036843","label":"Arnouville","lat":48.98333,"lon":2.41667,"type":"city"},{"id":"fr-3036823","label":"Arpajon","lat":48.58875,"lon":2.24672,"type":"city"},{"id":"fr-3036822","label":"Arpajon-sur-Cere","lat":44.90391,"lon":2.45664,"type":"city"},{"id":"fr-3036800","label":"Arques","lat":50.73375,"lon":2.30237,"type":"city"},{"id":"fr-3036791","label":"Arradon","lat":47.62616,"lon":-2.82288,"type":"city"},{"id":"fr-3036784","label":"Arras","lat":50.29301,"lon":2.78186,"type":"city"},{"id":"fr-3036711","label":"Ars-sur-Moselle","lat":49.07791,"lon":6.0742,"type":"city"},{"id":"fr-3036655","label":"Artigues-pres-Bordeaux","lat":44.85887,"lon":-0.49718,"type":"city"},{"id":"fr-3036572","label":"Asnieres-sur-Seine","lat":48.91667,"lon":2.28333,"type":"city"},{"id":"fr-3036460","label":"Athis-Mons","lat":48.70522,"lon":2.39147,"type":"city"},{"id":"fr-3036433","label":"Aubagne","lat":43.29276,"lon":5.57067,"type":"city"},{"id":"fr-3036418","label":"Aubenas","lat":44.61975,"lon":4.39033,"type":"city"},{"id":"fr-3036402","label":"Aubergenville","lat":48.95996,"lon":1.85467,"type":"city"},{"id":"fr-3036386","label":"Aubervilliers","lat":48.91667,"lon":2.38333,"type":"city"},{"id":"fr-3036364","label":"Aubiere","lat":45.75082,"lon":3.11078,"type":"city"},{"id":"fr-3036326","label":"Aubigny-sur-Nere","lat":47.48819,"lon":2.43895,"type":"city"},{"id":"fr-3036289","label":"Auby","lat":50.41457,"lon":3.05396,"type":"city"},{"id":"fr-3036287","label":"Aucamville","lat":43.67053,"lon":1.42766,"type":"city"},{"id":"fr-3036281","label":"Auch","lat":43.64561,"lon":0.58856,"type":"city"},{"id":"fr-3036278","label":"Auchel","lat":50.50345,"lon":2.47346,"type":"city"},{"id":"fr-3036256","label":"Audenge","lat":44.68368,"lon":-1.01344,"type":"city"},{"id":"fr-3036240","label":"Audincourt","lat":47.48327,"lon":6.85341,"type":"city"},{"id":"fr-3036226","label":"Audun-le-Tiche","lat":49.47217,"lon":5.9555,"type":"city"},{"id":"fr-13580302","label":"Auguste Raynaud","lat":43.71424,"lon":7.25869,"type":"city"},{"id":"fr-3036145","label":"Aulnay-sous-Bois","lat":48.93814,"lon":2.49402,"type":"city"},{"id":"fr-3036133","label":"Aulnoy-lez-Valenciennes","lat":50.33333,"lon":3.53333,"type":"city"},{"id":"fr-3036132","label":"Aulnoye-Aymeries","lat":50.20141,"lon":3.83844,"type":"city"},{"id":"fr-3036059","label":"Auray","lat":47.66692,"lon":-2.98421,"type":"city"},{"id":"fr-3036054","label":"Aurec-sur-Loire","lat":45.36908,"lon":4.20161,"type":"city"},{"id":"fr-3036052","label":"Aureilhan","lat":43.24372,"lon":0.09593,"type":"city"},{"id":"fr-3036016","label":"Aurillac","lat":44.92539,"lon":2.43983,"type":"city"},{"id":"fr-3036012","label":"Auriol","lat":43.37161,"lon":5.6341,"type":"city"},{"id":"fr-3035991","label":"Aussillon","lat":43.49897,"lon":2.36313,"type":"city"},{"id":"fr-3035970","label":"Auterive","lat":43.35079,"lon":1.47464,"type":"city"},{"id":"fr-3035883","label":"Autun","lat":46.95104,"lon":4.29869,"type":"city"},{"id":"fr-3035864","label":"Auvers-sur-Oise","lat":49.07158,"lon":2.16978,"type":"city"},{"id":"fr-3035843","label":"Auxerre","lat":47.7996,"lon":3.57033,"type":"city"},{"id":"fr-3035828","label":"Auxonne","lat":47.19255,"lon":5.38726,"type":"city"},{"id":"fr-3035768","label":"Avallon","lat":47.49002,"lon":3.90832,"type":"city"},{"id":"fr-3035681","label":"Avignon","lat":43.94834,"lon":4.80892,"type":"city"},{"id":"fr-3035667","label":"Avion","lat":50.41038,"lon":2.83053,"type":"city"},{"id":"fr-3035654","label":"Avon","lat":48.40219,"lon":2.72022,"type":"city"},{"id":"fr-3035639","label":"Avranches","lat":48.68436,"lon":-1.35686,"type":"city"},{"id":"fr-3035612","label":"Avrille","lat":47.50663,"lon":-0.58955,"type":"city"},{"id":"fr-3035560","label":"Aytre","lat":46.13417,"lon":-1.11826,"type":"city"},{"id":"fr-3035418","label":"Bagneres-de-Bigorre","lat":43.06497,"lon":0.14876,"type":"city"},{"id":"fr-3035409","label":"Bagneux","lat":48.79565,"lon":2.30796,"type":"city"},{"id":"fr-3035403","label":"Bagnolet","lat":48.86667,"lon":2.41667,"type":"city"},{"id":"fr-3035396","label":"Bagnols-sur-Ceze","lat":44.16259,"lon":4.61974,"type":"city"},{"id":"fr-3035370","label":"Baillargues","lat":43.66126,"lon":4.01283,"type":"city"},{"id":"fr-11919751","label":"Baille","lat":43.2877,"lon":5.39804,"type":"city"},{"id":"fr-3035359","label":"Bailleul","lat":50.73592,"lon":2.73594,"type":"city"},{"id":"fr-3035324","label":"Bain-de-Bretagne","lat":47.84687,"lon":-1.68579,"type":"city"},{"id":"fr-3035268","label":"Balaruc-les-Bains","lat":43.4417,"lon":3.6778,"type":"city"},{"id":"fr-3035226","label":"Ballan-Mire","lat":47.34057,"lon":0.61466,"type":"city"},{"id":"fr-3035228","label":"Ballancourt-sur-Essonne","lat":48.52525,"lon":2.38604,"type":"city"},{"id":"fr-3035204","label":"Balma","lat":43.61111,"lon":1.49944,"type":"city"},{"id":"fr-3035156","label":"Bandol","lat":43.14247,"lon":5.74718,"type":"city"},{"id":"fr-3035139","label":"Bannalec","lat":47.93236,"lon":-3.69835,"type":"city"},{"id":"fr-3035092","label":"Banyuls de la Marenda","lat":42.48375,"lon":3.12897,"type":"city"},{"id":"fr-3034911","label":"Bar-le-Duc","lat":48.77275,"lon":5.16108,"type":"city"},{"id":"fr-3034802","label":"Bar-sur-Aube","lat":48.23315,"lon":4.7064,"type":"city"},{"id":"fr-3035033","label":"Barberaz","lat":45.56179,"lon":5.94306,"type":"city"},{"id":"fr-3035016","label":"Barbezieux-Saint-Hilaire","lat":45.47265,"lon":-0.15218,"type":"city"},{"id":"fr-3034951","label":"Barentin","lat":49.54533,"lon":0.95515,"type":"city"},{"id":"fr-3034903","label":"Barlin","lat":50.45238,"lon":2.61955,"type":"city"},{"id":"fr-3034868","label":"Barr","lat":48.40755,"lon":7.44873,"type":"city"},{"id":"fr-3034699","label":"Basse-Goulaine","lat":47.2151,"lon":-1.46598,"type":"city"},{"id":"fr-3034691","label":"Bassens","lat":44.90353,"lon":-0.517,"type":"city"},{"id":"fr-3034640","label":"Bastia","lat":42.70219,"lon":9.45123,"type":"city"},{"id":"fr-3034582","label":"Baud","lat":47.8759,"lon":-3.01926,"type":"city"},{"id":"fr-3034535","label":"Baume-les-Dames","lat":47.35295,"lon":6.36117,"type":"city"},{"id":"fr-3034521","label":"Bauvin","lat":50.51714,"lon":2.89404,"type":"city"},{"id":"fr-3034483","label":"Bayeux","lat":49.27732,"lon":-0.7039,"type":"city"},{"id":"fr-3034475","label":"Bayonne","lat":43.49316,"lon":-1.473,"type":"city"},{"id":"fr-3034458","label":"Bazas","lat":44.43161,"lon":-0.21337,"type":"city"},{"id":"fr-3034382","label":"Beaucaire","lat":43.80806,"lon":4.64417,"type":"city"},{"id":"fr-3034369","label":"Beauchamp","lat":49.01667,"lon":2.2,"type":"city"},{"id":"fr-3034343","label":"Beaucourt","lat":47.48878,"lon":6.92214,"type":"city"},{"id":"fr-3034309","label":"Beaufort-en-Vallee","lat":47.44006,"lon":-0.21655,"type":"city"},{"id":"fr-3034297","label":"Beaugency","lat":47.78019,"lon":1.62705,"type":"city"},{"id":"fr-3034198","label":"Beaumont","lat":45.75165,"lon":3.08294,"type":"city"},{"id":"fr-3034141","label":"Beaumont-sur-Oise","lat":49.14232,"lon":2.28705,"type":"city"},{"id":"fr-3034126","label":"Beaune","lat":47.02413,"lon":4.83887,"type":"city"},{"id":"fr-3034111","label":"Beaupreau","lat":47.20214,"lon":-0.99471,"type":"city"},{"id":"fr-3034041","label":"Beausoleil","lat":43.74311,"lon":7.4225,"type":"city"},{"id":"fr-3034006","label":"Beauvais","lat":49.43333,"lon":2.08333,"type":"city"},{"id":"fr-3033953","label":"Beauzelle","lat":43.66713,"lon":1.37518,"type":"city"},{"id":"fr-3033913","label":"Bedarieux","lat":43.61602,"lon":3.15892,"type":"city"},{"id":"fr-3033912","label":"Bedarrides","lat":44.04022,"lon":4.89819,"type":"city"},{"id":"fr-3033881","label":"Begles","lat":44.80759,"lon":-0.55144,"type":"city"},{"id":"fr-3033853","label":"Behren-les-Forbach","lat":49.16949,"lon":6.93933,"type":"city"},{"id":"fr-12808664","label":"Bel-Air","lat":48.84169,"lon":2.40489,"type":"city"},{"id":"fr-3033791","label":"Belfort","lat":47.64218,"lon":6.85385,"type":"city"},{"id":"fr-11919744","label":"Belle de Mai","lat":43.31184,"lon":5.38541,"type":"city"},{"id":"fr-3033698","label":"Bellegarde","lat":43.75401,"lon":4.51372,"type":"city"},{"id":"fr-3033685","label":"Bellegarde-sur-Valserine","lat":46.10787,"lon":5.82421,"type":"city"},{"id":"fr-3033666","label":"Bellerive-sur-Allier","lat":46.11652,"lon":3.40406,"type":"city"},{"id":"fr-3033636","label":"Belleville","lat":46.10867,"lon":4.7492,"type":"city"},{"id":"fr-3033625","label":"Belley","lat":45.75917,"lon":5.68813,"type":"city"},{"id":"fr-11919711","label":"Belsunce","lat":43.29834,"lon":5.3766,"type":"city"},{"id":"fr-3033488","label":"Benfeld","lat":48.37062,"lon":7.5937,"type":"city"},{"id":"fr-3033415","label":"Berck","lat":50.4,"lon":1.6,"type":"city"},{"id":"fr-3033416","label":"Berck-Plage","lat":50.40704,"lon":1.56446,"type":"city"},{"id":"fr-6545266","label":"Bercy","lat":48.83828,"lon":2.38167,"type":"city"},{"id":"fr-3033391","label":"Bergerac","lat":44.85157,"lon":0.48171,"type":"city"},{"id":"fr-3033308","label":"Bernay","lat":49.08888,"lon":0.59858,"type":"city"},{"id":"fr-3033241","label":"Berre-l'Etang","lat":43.47809,"lon":5.17044,"type":"city"},{"id":"fr-3033123","label":"Besancon","lat":47.24878,"lon":6.01815,"type":"city"},{"id":"fr-3033098","label":"Bessancourt","lat":49.03765,"lon":2.20936,"type":"city"},{"id":"fr-3033014","label":"Betheny","lat":49.28498,"lon":4.05495,"type":"city"},{"id":"fr-3033006","label":"Bethoncourt","lat":47.53512,"lon":6.80504,"type":"city"},{"id":"fr-3033002","label":"Bethune","lat":50.52965,"lon":2.64003,"type":"city"},{"id":"fr-3032965","label":"Betton","lat":48.1827,"lon":-1.6448,"type":"city"},{"id":"fr-3032915","label":"Beuvrages","lat":50.38414,"lon":3.4942,"type":"city"},{"id":"fr-3032903","label":"Beuvry","lat":50.51674,"lon":2.68541,"type":"city"},{"id":"fr-3032872","label":"Beynes","lat":48.85626,"lon":1.87261,"type":"city"},{"id":"fr-3032869","label":"Beynost","lat":45.83569,"lon":4.9991,"type":"city"},{"id":"fr-3032833","label":"Beziers","lat":43.34122,"lon":3.21402,"type":"city"},{"id":"fr-3032824","label":"Bezons","lat":48.92426,"lon":2.2128,"type":"city"},{"id":"fr-3032797","label":"Biarritz","lat":43.48055,"lon":-1.55684,"type":"city"},{"id":"fr-3032767","label":"Bidart","lat":43.43698,"lon":-1.59294,"type":"city"},{"id":"fr-3032688","label":"Biganos","lat":44.64425,"lon":-0.97841,"type":"city"},{"id":"fr-3032668","label":"Biguglia","lat":42.62692,"lon":9.42018,"type":"city"},{"id":"fr-3032662","label":"Bihorel","lat":49.45468,"lon":1.1223,"type":"city"},{"id":"fr-3032639","label":"Billere","lat":43.30264,"lon":-0.39733,"type":"city"},{"id":"fr-3032618","label":"Billy-Montigny","lat":50.41711,"lon":2.90286,"type":"city"},{"id":"fr-3032579","label":"Biot","lat":43.62852,"lon":7.0953,"type":"city"},{"id":"fr-3032556","label":"Biscarrosse","lat":44.39454,"lon":-1.16721,"type":"city"},{"id":"fr-3032551","label":"Bischheim","lat":48.61612,"lon":7.75343,"type":"city"},{"id":"fr-3032544","label":"Bischwiller","lat":48.76826,"lon":7.85406,"type":"city"},{"id":"fr-3032518","label":"Bitche","lat":49.05232,"lon":7.42992,"type":"city"},{"id":"fr-3032496","label":"Bizanos","lat":43.28753,"lon":-0.35164,"type":"city"},{"id":"fr-3032469","label":"Blagnac","lat":43.63675,"lon":1.38971,"type":"city"},{"id":"fr-3032462","label":"Blain","lat":47.47563,"lon":-1.76449,"type":"city"},{"id":"fr-3032340","label":"Blanquefort","lat":44.91065,"lon":-0.63758,"type":"city"},{"id":"fr-3032326","label":"Blanzy","lat":46.70012,"lon":4.38833,"type":"city"},{"id":"fr-2967108","label":"Blaye","lat":45.12764,"lon":-0.66225,"type":"city"},{"id":"fr-3032279","label":"Blendecques","lat":50.71843,"lon":2.28601,"type":"city"},{"id":"fr-3032275","label":"Blenod-les-Pont-a-Mousson","lat":48.88487,"lon":6.04844,"type":"city"},{"id":"fr-3032213","label":"Blois","lat":47.59432,"lon":1.32912,"type":"city"},{"id":"fr-3032179","label":"Bobigny","lat":48.90982,"lon":2.45012,"type":"city"},{"id":"fr-3032127","label":"Bohain-en-Vermandois","lat":49.9873,"lon":3.453,"type":"city"},{"id":"fr-3032070","label":"Bois-Colombes","lat":48.91936,"lon":2.27485,"type":"city"},{"id":"fr-3032064","label":"Bois-d'Arcy","lat":48.79966,"lon":2.02325,"type":"city"},{"id":"fr-3032025","label":"Bois-Guillaume","lat":49.4602,"lon":1.12219,"type":"city"},{"id":"fr-3032008","label":"Bois-le-Roi","lat":48.47348,"lon":2.70464,"type":"city"},{"id":"fr-3031898","label":"Boissy-Saint-Leger","lat":48.75149,"lon":2.51163,"type":"city"},{"id":"fr-3031871","label":"Bolbec","lat":49.57321,"lon":0.47339,"type":"city"},{"id":"fr-3031868","label":"Bollene","lat":44.28124,"lon":4.74891,"type":"city"},{"id":"fr-3031848","label":"Bompas","lat":42.73099,"lon":2.93325,"type":"city"},{"id":"fr-3031813","label":"Bon-Encontre","lat":44.186,"lon":0.67134,"type":"city"},{"id":"fr-11919782","label":"Bon-Secours","lat":43.31923,"lon":5.38426,"type":"city"},{"id":"fr-3031835","label":"Bonchamp-les-Laval","lat":48.07379,"lon":-0.70195,"type":"city"},{"id":"fr-3031818","label":"Bondoufle","lat":48.61294,"lon":2.37775,"type":"city"},{"id":"fr-3031817","label":"Bondues","lat":50.70196,"lon":3.09497,"type":"city"},{"id":"fr-3031815","label":"Bondy","lat":48.9018,"lon":2.48931,"type":"city"},{"id":"fr-3031709","label":"Bonneuil-sur-Marne","lat":48.7695,"lon":2.4793,"type":"city"},{"id":"fr-3031685","label":"Bonneveine","lat":43.25,"lon":5.38333,"type":"city"},{"id":"fr-3031679","label":"Bonneville","lat":46.0802,"lon":6.40726,"type":"city"},{"id":"fr-3031582","label":"Bordeaux","lat":44.84124,"lon":-0.58046,"type":"city"},{"id":"fr-3031537","label":"Borgo","lat":42.55488,"lon":9.42636,"type":"city"},{"id":"fr-3031532","label":"Bormes-les-Mimosas","lat":43.15169,"lon":6.3422,"type":"city"},{"id":"fr-3031403","label":"Bouaye","lat":47.14343,"lon":-1.68902,"type":"city"},{"id":"fr-3031387","label":"Bouc-Bel-Air","lat":43.45217,"lon":5.413,"type":"city"},{"id":"fr-3031389","label":"Boucau","lat":43.5277,"lon":-1.46556,"type":"city"},{"id":"fr-3031368","label":"Bouchemaine","lat":47.42234,"lon":-0.60888,"type":"city"},{"id":"fr-3031294","label":"Bouffemont","lat":49.04377,"lon":2.29796,"type":"city"},{"id":"fr-3031277","label":"Bougival","lat":48.86223,"lon":2.14148,"type":"city"},{"id":"fr-3031268","label":"Bouguenais","lat":47.17941,"lon":-1.62468,"type":"city"},{"id":"fr-3031240","label":"Bouillargues","lat":43.80013,"lon":4.42753,"type":"city"},{"id":"fr-3031137","label":"Boulogne-Billancourt","lat":48.83545,"lon":2.24128,"type":"city"},{"id":"fr-3031133","label":"Boulogne-sur-Mer","lat":50.72485,"lon":1.61373,"type":"city"},{"id":"fr-3031090","label":"Bourbon-Lancy","lat":46.62214,"lon":3.76953,"type":"city"},{"id":"fr-3031085","label":"Bourbourg","lat":50.94783,"lon":2.19576,"type":"city"},{"id":"fr-3031020","label":"Bourg-de-Peage","lat":45.03151,"lon":5.04993,"type":"city"},{"id":"fr-3031009","label":"Bourg-en-Bresse","lat":46.20574,"lon":5.2258,"type":"city"},{"id":"fr-3030990","label":"Bourg-la-Reine","lat":48.77888,"lon":2.31781,"type":"city"},{"id":"fr-3030985","label":"Bourg-les-Valence","lat":44.94703,"lon":4.89463,"type":"city"},{"id":"fr-3030953","label":"Bourg-Saint-Andeol","lat":44.37338,"lon":4.64413,"type":"city"},{"id":"fr-3030949","label":"Bourg-Saint-Maurice","lat":45.61463,"lon":6.76845,"type":"city"},{"id":"fr-3031005","label":"Bourges","lat":47.08333,"lon":2.4,"type":"city"},{"id":"fr-3030787","label":"Boussy-Saint-Antoine","lat":48.69101,"lon":2.5306,"type":"city"},{"id":"fr-3030440","label":"Brech","lat":47.72075,"lon":-2.99708,"type":"city"},{"id":"fr-3030303","label":"Bressuire","lat":46.84158,"lon":-0.49042,"type":"city"},{"id":"fr-3030300","label":"Brest","lat":48.39029,"lon":-4.48628,"type":"city"},{"id":"fr-3030257","label":"Bretigny-sur-Orge","lat":48.61135,"lon":2.30593,"type":"city"},{"id":"fr-3030203","label":"Breuillet","lat":48.57064,"lon":2.17424,"type":"city"},{"id":"fr-3030142","label":"Briancon","lat":44.89978,"lon":6.64201,"type":"city"},{"id":"fr-3030132","label":"Briare","lat":47.63343,"lon":2.7438,"type":"city"},{"id":"fr-3030101","label":"Brie-Comte-Robert","lat":48.69247,"lon":2.6109,"type":"city"},{"id":"fr-3030071","label":"Briey","lat":49.2492,"lon":5.93975,"type":"city"},{"id":"fr-3030063","label":"Brignais","lat":45.67383,"lon":4.75418,"type":"city"},{"id":"fr-3030057","label":"Brignoles","lat":43.4058,"lon":6.06172,"type":"city"},{"id":"fr-3029995","label":"Brioude","lat":45.29419,"lon":3.38423,"type":"city"},{"id":"fr-3029974","label":"Brive-la-Gaillarde","lat":45.1589,"lon":1.53326,"type":"city"},{"id":"fr-3029931","label":"Bron","lat":45.73865,"lon":4.91303,"type":"city"},{"id":"fr-3029825","label":"Bruay-la-Buissiere","lat":50.48333,"lon":2.55,"type":"city"},{"id":"fr-3029824","label":"Bruay-sur-l'Escaut","lat":50.39918,"lon":3.54379,"type":"city"},{"id":"fr-3029799","label":"Bruges","lat":44.88287,"lon":-0.61222,"type":"city"},{"id":"fr-3029771","label":"Brumath","lat":48.73398,"lon":7.71095,"type":"city"},{"id":"fr-3029748","label":"Brunoy","lat":48.6942,"lon":2.49223,"type":"city"},{"id":"fr-3029746","label":"Brunstatt","lat":47.72131,"lon":7.32009,"type":"city"},{"id":"fr-3029713","label":"Bruz","lat":48.02459,"lon":-1.74709,"type":"city"},{"id":"fr-3029706","label":"Bry-sur-Marne","lat":48.83811,"lon":2.52488,"type":"city"},{"id":"fr-3029695","label":"Buc","lat":48.77627,"lon":2.12577,"type":"city"},{"id":"fr-3029566","label":"Bully-les-Mines","lat":50.4438,"lon":2.72703,"type":"city"},{"id":"fr-3029522","label":"Bures-sur-Yvette","lat":48.69981,"lon":2.17064,"type":"city"},{"id":"fr-3029392","label":"Bussy-Saint-Georges","lat":48.84099,"lon":2.70165,"type":"city"},{"id":"fr-3029365","label":"Buxerolles","lat":46.61667,"lon":0.48333,"type":"city"},{"id":"fr-3029302","label":"Cabestany","lat":42.68141,"lon":2.9409,"type":"city"},{"id":"fr-3029283","label":"Cabries","lat":43.44127,"lon":5.37884,"type":"city"},{"id":"fr-3029276","label":"Cachan","lat":48.79632,"lon":2.33661,"type":"city"},{"id":"fr-3029241","label":"Caen","lat":49.18585,"lon":-0.35912,"type":"city"},{"id":"fr-3029227","label":"Cagnes-sur-Mer","lat":43.66352,"lon":7.1479,"type":"city"},{"id":"fr-3029213","label":"Cahors","lat":44.4491,"lon":1.43663,"type":"city"},{"id":"fr-3029162","label":"Calais","lat":50.95194,"lon":1.85635,"type":"city"},{"id":"fr-3029099","label":"Calonne-Ricouart","lat":50.48504,"lon":2.47335,"type":"city"},{"id":"fr-3029096","label":"Caluire-et-Cuire","lat":45.79462,"lon":4.8464,"type":"city"},{"id":"fr-3029090","label":"Calvi","lat":42.56604,"lon":8.75713,"type":"city"},{"id":"fr-3029030","label":"Cambrai","lat":50.17596,"lon":3.23472,"type":"city"},{"id":"fr-3028868","label":"Cancale","lat":48.6766,"lon":-1.85216,"type":"city"},{"id":"fr-3028838","label":"Canejan","lat":44.763,"lon":-0.65443,"type":"city"},{"id":"fr-3028832","label":"Canet-en-Roussillon","lat":42.7,"lon":3.01667,"type":"city"},{"id":"fr-3028808","label":"Cannes","lat":43.55135,"lon":7.01275,"type":"city"},{"id":"fr-3028779","label":"Canteleu","lat":49.44065,"lon":1.02459,"type":"city"},{"id":"fr-3028745","label":"Capbreton","lat":43.64238,"lon":-1.43123,"type":"city"},{"id":"fr-3028690","label":"Cappelle-la-Grande","lat":50.99979,"lon":2.35848,"type":"city"},{"id":"fr-12319244","label":"Carabacel","lat":43.70803,"lon":7.27889,"type":"city"},{"id":"fr-3028653","label":"Carbon-Blanc","lat":44.89501,"lon":-0.50175,"type":"city"},{"id":"fr-3028641","label":"Carcassonne","lat":43.21649,"lon":2.34863,"type":"city"},{"id":"fr-3028610","label":"Carentan","lat":49.30312,"lon":-1.24806,"type":"city"},{"id":"fr-3028603","label":"Carhaix-Plouguer","lat":48.27594,"lon":-3.57326,"type":"city"},{"id":"fr-3028580","label":"Carmaux","lat":44.04963,"lon":2.1581,"type":"city"},{"id":"fr-6615537","label":"Carnoux-en-Provence","lat":43.25639,"lon":5.56444,"type":"city"},{"id":"fr-3028542","label":"Carpentras","lat":44.05507,"lon":5.04813,"type":"city"},{"id":"fr-3028535","label":"Carquefou","lat":47.29722,"lon":-1.4921,"type":"city"},{"id":"fr-3028534","label":"Carqueiranne","lat":43.09495,"lon":6.07349,"type":"city"},{"id":"fr-3028521","label":"Carrieres-sous-Poissy","lat":48.94952,"lon":2.04068,"type":"city"},{"id":"fr-3028520","label":"Carrieres-sur-Seine","lat":48.90687,"lon":2.1792,"type":"city"},{"id":"fr-3028513","label":"Carros","lat":43.79246,"lon":7.18745,"type":"city"},{"id":"fr-3028510","label":"Carry-le-Rouet","lat":43.33139,"lon":5.15237,"type":"city"},{"id":"fr-3028486","label":"Carvin","lat":50.49235,"lon":2.95815,"type":"city"},{"id":"fr-3028431","label":"Cassis","lat":43.21571,"lon":5.53855,"type":"city"},{"id":"fr-3028409","label":"Castanet-Tolosan","lat":43.5159,"lon":1.4986,"type":"city"},{"id":"fr-3028388","label":"Castelginest","lat":43.69382,"lon":1.4344,"type":"city"},{"id":"fr-3028387","label":"Casteljaloux","lat":44.3147,"lon":0.08767,"type":"city"},{"id":"fr-11919752","label":"Castellane","lat":43.28587,"lon":5.38277,"type":"city"},{"id":"fr-3028337","label":"Castelnau-le-Lez","lat":43.63605,"lon":3.90137,"type":"city"},{"id":"fr-3028351","label":"Castelnaudary","lat":43.31814,"lon":1.95339,"type":"city"},{"id":"fr-3028322","label":"Castelsarrasin","lat":44.04042,"lon":1.10666,"type":"city"},{"id":"fr-3028263","label":"Castres","lat":43.60527,"lon":2.24088,"type":"city"},{"id":"fr-3028258","label":"Castries","lat":43.67972,"lon":3.98222,"type":"city"},{"id":"fr-3028217","label":"Caudan","lat":47.80995,"lon":-3.34255,"type":"city"},{"id":"fr-3028214","label":"Caudebec-les-Elbeuf","lat":49.28082,"lon":1.02195,"type":"city"},{"id":"fr-3028205","label":"Caudry","lat":50.1249,"lon":3.41186,"type":"city"},{"id":"fr-3028162","label":"Caussade","lat":44.16125,"lon":1.53691,"type":"city"},{"id":"fr-3028134","label":"Cavaillon","lat":43.83125,"lon":5.03586,"type":"city"},{"id":"fr-3028129","label":"Cavalaire-sur-Mer","lat":43.17261,"lon":6.52959,"type":"city"},{"id":"fr-3028028","label":"Cebazat","lat":45.8314,"lon":3.09992,"type":"city"},{"id":"fr-3027950","label":"Cenon","lat":44.85614,"lon":-0.53355,"type":"city"},{"id":"fr-3027888","label":"Ceret","lat":42.48533,"lon":2.74804,"type":"city"},{"id":"fr-3027883","label":"Cergy","lat":49.03645,"lon":2.07613,"type":"city"},{"id":"fr-8555643","label":"Cergy-Pontoise","lat":49.03894,"lon":2.07805,"type":"city"},{"id":"fr-3027857","label":"Cernay","lat":47.8097,"lon":7.17699,"type":"city"},{"id":"fr-13580303","label":"Cessole","lat":43.7127,"lon":7.25525,"type":"city"},{"id":"fr-3027768","label":"Cesson","lat":48.56204,"lon":2.60816,"type":"city"},{"id":"fr-3027767","label":"Cesson-Sevigne","lat":48.1212,"lon":-1.603,"type":"city"},{"id":"fr-3027763","label":"Cestas","lat":44.74471,"lon":-0.68194,"type":"city"},{"id":"fr-3027746","label":"Ceyrat","lat":45.73265,"lon":3.06323,"type":"city"},{"id":"fr-3027705","label":"Chabeuil","lat":44.89843,"lon":5.01438,"type":"city"},{"id":"fr-3027642","label":"Chagny","lat":46.90953,"lon":4.7519,"type":"city"},{"id":"fr-3027531","label":"Chalette-sur-Loing","lat":48.01337,"lon":2.73587,"type":"city"},{"id":"fr-3027513","label":"Challans","lat":46.8458,"lon":-1.87942,"type":"city"},{"id":"fr-3027484","label":"Chalon-sur-Saone","lat":46.78112,"lon":4.85372,"type":"city"},{"id":"fr-3027491","label":"Chalonnes-sur-Loire","lat":47.35075,"lon":-0.76411,"type":"city"},{"id":"fr-3027487","label":"Chalons-en-Champagne","lat":48.95393,"lon":4.36724,"type":"city"},{"id":"fr-3027453","label":"Chamalieres","lat":45.77364,"lon":3.06703,"type":"city"},{"id":"fr-3027422","label":"Chambery","lat":45.56628,"lon":5.92079,"type":"city"},{"id":"fr-3027397","label":"Chambly","lat":49.16667,"lon":2.25,"type":"city"},{"id":"fr-3027351","label":"Chambourcy","lat":48.90655,"lon":2.041,"type":"city"},{"id":"fr-3027343","label":"Chambray-les-Tours","lat":47.33537,"lon":0.70286,"type":"city"},{"id":"fr-3027301","label":"Chamonix-Mont-Blanc","lat":45.92375,"lon":6.86933,"type":"city"},{"id":"fr-3027255","label":"Champagne-au-Mont-d'Or","lat":45.79475,"lon":4.79079,"type":"city"},{"id":"fr-3027242","label":"Champagne-sur-Seine","lat":48.39794,"lon":2.79785,"type":"city"},{"id":"fr-3027235","label":"Champagnole","lat":46.74452,"lon":5.91354,"type":"city"},{"id":"fr-3027126","label":"Champigneulles","lat":48.73404,"lon":6.16181,"type":"city"},{"id":"fr-3027105","label":"Champigny-sur-Marne","lat":48.81642,"lon":2.49366,"type":"city"},{"id":"fr-3027014","label":"Champs-sur-Marne","lat":48.85,"lon":2.6,"type":"city"},{"id":"fr-3026940","label":"Change","lat":48.09924,"lon":-0.78966,"type":"city"},{"id":"fr-3026941","label":"Change","lat":47.98714,"lon":0.28275,"type":"city"},{"id":"fr-3026862","label":"Chanteloup-les-Vignes","lat":48.97614,"lon":2.03261,"type":"city"},{"id":"fr-3026842","label":"Chantepie","lat":48.08818,"lon":-1.61691,"type":"city"},{"id":"fr-3026827","label":"Chantilly","lat":49.19461,"lon":2.47124,"type":"city"},{"id":"fr-3026823","label":"Chantonnay","lat":46.68716,"lon":-1.05109,"type":"city"},{"id":"fr-3026757","label":"Chaponost","lat":45.7102,"lon":4.74221,"type":"city"},{"id":"fr-3026637","label":"Charenton-le-Pont","lat":48.82209,"lon":2.41217,"type":"city"},{"id":"fr-3026613","label":"Charleville-Mezieres","lat":49.7685,"lon":4.72487,"type":"city"},{"id":"fr-3026534","label":"Charnay-les-Macon","lat":46.30751,"lon":4.78479,"type":"city"},{"id":"fr-3026467","label":"Chartres","lat":48.44685,"lon":1.48925,"type":"city"},{"id":"fr-3026465","label":"Chartres-de-Bretagne","lat":48.03975,"lon":-1.70543,"type":"city"},{"id":"fr-3026451","label":"Charvieu-Chavagneux","lat":45.75,"lon":5.15,"type":"city"},{"id":"fr-3026384","label":"Chasse-sur-Rhone","lat":45.5785,"lon":4.80985,"type":"city"},{"id":"fr-3026374","label":"Chassieu","lat":45.74584,"lon":4.97088,"type":"city"},{"id":"fr-3026291","label":"Chateau-d'Olonne","lat":46.50382,"lon":-1.74097,"type":"city"},{"id":"fr-3026286","label":"Chateau-du-Loir","lat":47.69409,"lon":0.41829,"type":"city"},{"id":"fr-3026273","label":"Chateau-Gontier","lat":47.82705,"lon":-0.70512,"type":"city"},{"id":"fr-3026208","label":"Chateau-Renault","lat":47.59188,"lon":0.91143,"type":"city"},{"id":"fr-3026194","label":"Chateau-Thierry","lat":49.04636,"lon":3.40304,"type":"city"},{"id":"fr-3026306","label":"Chateaubourg","lat":48.11112,"lon":-1.4035,"type":"city"},{"id":"fr-3026303","label":"Chateaubriant","lat":47.71675,"lon":-1.37643,"type":"city"},{"id":"fr-3026285","label":"Chateaudun","lat":48.07086,"lon":1.33783,"type":"city"},{"id":"fr-3026275","label":"Chateaugiron","lat":48.04821,"lon":-1.50362,"type":"city"},{"id":"fr-3026262","label":"Chateaulin","lat":48.19522,"lon":-4.09365,"type":"city"},{"id":"fr-3026227","label":"Chateauneuf-les-Martigues","lat":43.38383,"lon":5.16403,"type":"city"},{"id":"fr-3026222","label":"Chateauneuf-sur-Loire","lat":47.86575,"lon":2.21903,"type":"city"},{"id":"fr-3026211","label":"Chateaurenard","lat":43.88169,"lon":4.85493,"type":"city"},{"id":"fr-3026204","label":"Chateauroux","lat":46.81248,"lon":1.69362,"type":"city"},{"id":"fr-3026145","label":"Chatel-Guyon","lat":45.92258,"lon":3.06423,"type":"city"},{"id":"fr-3026172","label":"Chatelaillon-Plage","lat":46.07287,"lon":-1.08845,"type":"city"},{"id":"fr-3026141","label":"Chatellerault","lat":46.81705,"lon":0.54518,"type":"city"},{"id":"fr-3026108","label":"Chatenay-Malabry","lat":48.76507,"lon":2.26655,"type":"city"},{"id":"fr-3026094","label":"Chatenoy-le-Royal","lat":46.79797,"lon":4.8119,"type":"city"},{"id":"fr-3026083","label":"Chatillon","lat":48.8024,"lon":2.29346,"type":"city"},{"id":"fr-3026047","label":"Chatillon-sur-Seiche","lat":48.03448,"lon":-1.67114,"type":"city"},{"id":"fr-3026046","label":"Chatillon-sur-Seine","lat":47.85851,"lon":4.57375,"type":"city"},{"id":"fr-3026033","label":"Chatou","lat":48.8898,"lon":2.15863,"type":"city"},{"id":"fr-3025892","label":"Chaumont","lat":48.11121,"lon":5.14134,"type":"city"},{"id":"fr-3025860","label":"Chauny","lat":49.61514,"lon":3.21857,"type":"city"},{"id":"fr-3025809","label":"Chauvigny","lat":46.56979,"lon":0.64346,"type":"city"},{"id":"fr-3025715","label":"Chaville","lat":48.80565,"lon":2.18864,"type":"city"},{"id":"fr-3025650","label":"Checy","lat":47.89402,"lon":2.02304,"type":"city"},{"id":"fr-3025622","label":"Chelles","lat":48.88109,"lon":2.59295,"type":"city"},{"id":"fr-3025602","label":"Chemille-Melay","lat":47.21476,"lon":-0.72488,"type":"city"},{"id":"fr-12808652","label":"Chene Feuillu","lat":48.95042,"lon":2.06803,"type":"city"},{"id":"fr-3025509","label":"Chennevieres-sur-Marne","lat":48.79702,"lon":2.54046,"type":"city"},{"id":"fr-3025496","label":"Chenove","lat":47.29323,"lon":5.00457,"type":"city"},{"id":"fr-3025466","label":"Cherbourg","lat":49.63984,"lon":-1.61636,"type":"city"},{"id":"fr-3025324","label":"Chevigny-Saint-Sauveur","lat":47.29908,"lon":5.13367,"type":"city"},{"id":"fr-3025314","label":"Chevilly-Larue","lat":48.76476,"lon":2.3503,"type":"city"},{"id":"fr-3025294","label":"Chevreuse","lat":48.70662,"lon":2.03329,"type":"city"},{"id":"fr-3025144","label":"Chilly-Mazarin","lat":48.71489,"lon":2.31638,"type":"city"},{"id":"fr-3025132","label":"Chinon","lat":47.16701,"lon":0.24284,"type":"city"},{"id":"fr-3025055","label":"Choisy-le-Roi","lat":48.76846,"lon":2.41874,"type":"city"},{"id":"fr-3025053","label":"Cholet","lat":47.05893,"lon":-0.87974,"type":"city"},{"id":"fr-11919746","label":"Chutes-Lavie","lat":43.31017,"lon":5.39464,"type":"city"},{"id":"fr-3024979","label":"Ciboure","lat":43.38488,"lon":-1.66817,"type":"city"},{"id":"fr-3024946","label":"Cimiez","lat":43.72045,"lon":7.27872,"type":"city"},{"id":"fr-11919747","label":"Cinq Avenues","lat":43.30375,"lon":5.39761,"type":"city"},{"id":"fr-3024788","label":"Claix","lat":45.11994,"lon":5.67292,"type":"city"},{"id":"fr-3024783","label":"Clamart","lat":48.80299,"lon":2.26692,"type":"city"},{"id":"fr-3024759","label":"Clapiers","lat":43.65833,"lon":3.88917,"type":"city"},{"id":"fr-3024701","label":"Claye-Souilly","lat":48.94492,"lon":2.68566,"type":"city"},{"id":"fr-3024669","label":"Cleon","lat":49.31235,"lon":1.0295,"type":"city"},{"id":"fr-3024643","label":"Clermont","lat":49.37897,"lon":2.41258,"type":"city"},{"id":"fr-3024635","label":"Clermont-Ferrand","lat":45.77969,"lon":3.08682,"type":"city"},{"id":"fr-3024597","label":"Clichy","lat":48.90018,"lon":2.30952,"type":"city"},{"id":"fr-3024596","label":"Clichy-sous-Bois","lat":48.9102,"lon":2.55323,"type":"city"},{"id":"fr-3024578","label":"Clisson","lat":47.0871,"lon":-1.28297,"type":"city"},{"id":"fr-3024532","label":"Cluses","lat":46.06251,"lon":6.57497,"type":"city"},{"id":"fr-3024440","label":"Cognac","lat":45.69581,"lon":-0.32867,"type":"city"},{"id":"fr-3024426","label":"Cognin","lat":45.55952,"lon":5.89113,"type":"city"},{"id":"fr-3024421","label":"Cogolin","lat":43.25294,"lon":6.52981,"type":"city"},{"id":"fr-3024297","label":"Colmar","lat":48.08078,"lon":7.35584,"type":"city"},{"id":"fr-3024267","label":"Colombelles","lat":49.2049,"lon":-0.29571,"type":"city"},{"id":"fr-3024266","label":"Colombes","lat":48.91882,"lon":2.25404,"type":"city"},{"id":"fr-3024223","label":"Colomiers","lat":43.61058,"lon":1.33467,"type":"city"},{"id":"fr-3024137","label":"Combourg","lat":48.40883,"lon":-1.75146,"type":"city"},{"id":"fr-3024107","label":"Combs-la-Ville","lat":48.66497,"lon":2.56957,"type":"city"},{"id":"fr-3024102","label":"Comines","lat":50.7615,"lon":3.01063,"type":"city"},{"id":"fr-3024090","label":"Commentry","lat":46.28876,"lon":2.74163,"type":"city"},{"id":"fr-3024086","label":"Commercy","lat":48.76128,"lon":5.59067,"type":"city"},{"id":"fr-3024066","label":"Compiegne","lat":49.41794,"lon":2.82606,"type":"city"},{"id":"fr-3024035","label":"Concarneau","lat":47.87536,"lon":-3.91896,"type":"city"},{"id":"fr-3023955","label":"Conde-sur-l'Escaut","lat":50.45436,"lon":3.58884,"type":"city"},{"id":"fr-3023953","label":"Conde-sur-Noireau","lat":48.84881,"lon":-0.55214,"type":"city"},{"id":"fr-3023943","label":"Condom","lat":43.95816,"lon":0.37199,"type":"city"},{"id":"fr-3023924","label":"Conflans-Sainte-Honorine","lat":49.00158,"lon":2.09694,"type":"city"},{"id":"fr-3023842","label":"Contes","lat":43.81278,"lon":7.31444,"type":"city"},{"id":"fr-3023771","label":"Corbas","lat":45.66798,"lon":4.90198,"type":"city"},{"id":"fr-3023763","label":"Corbeil-Essonnes","lat":48.60603,"lon":2.48757,"type":"city"},{"id":"fr-3023742","label":"Corbie","lat":49.90672,"lon":2.50682,"type":"city"},{"id":"fr-3023645","label":"Cormeilles-en-Parisis","lat":48.97111,"lon":2.20491,"type":"city"},{"id":"fr-3023628","label":"Cormontreuil","lat":49.21667,"lon":4.05,"type":"city"},{"id":"fr-3023606","label":"Cornebarrieu","lat":43.64967,"lon":1.32588,"type":"city"},{"id":"fr-3023506","label":"Corte","lat":42.30956,"lon":9.14917,"type":"city"},{"id":"fr-3023476","label":"Cosne-Cours-sur-Loire","lat":47.41101,"lon":2.92528,"type":"city"},{"id":"fr-3023356","label":"Coudekerque-Branche","lat":51.02288,"lon":2.39359,"type":"city"},{"id":"fr-3023324","label":"Coueron","lat":47.21473,"lon":-1.72452,"type":"city"},{"id":"fr-3023291","label":"Coulaines","lat":48.02409,"lon":0.20411,"type":"city"},{"id":"fr-3023254","label":"Coulogne","lat":50.92463,"lon":1.88137,"type":"city"},{"id":"fr-3023240","label":"Coulommiers","lat":48.81451,"lon":3.08498,"type":"city"},{"id":"fr-3023214","label":"Coulounieix-Chamiers","lat":45.15774,"lon":0.68798,"type":"city"},{"id":"fr-3023141","label":"Courbevoie","lat":48.89672,"lon":2.25666,"type":"city"},{"id":"fr-3023097","label":"Courcelles-les-Lens","lat":50.41667,"lon":3.01667,"type":"city"},{"id":"fr-3023056","label":"Courcouronnes","lat":48.61429,"lon":2.40762,"type":"city"},{"id":"fr-3023044","label":"Courdimanche","lat":49.03513,"lon":2.00096,"type":"city"},{"id":"fr-3022988","label":"Cournon-d'Auvergne","lat":45.74123,"lon":3.19643,"type":"city"},{"id":"fr-3022986","label":"Cournonterral","lat":43.55889,"lon":3.72,"type":"city"},{"id":"fr-3022969","label":"Courrieres","lat":50.45701,"lon":2.94725,"type":"city"},{"id":"fr-3022956","label":"Coursan","lat":43.2337,"lon":3.05712,"type":"city"},{"id":"fr-3022897","label":"Courthezon","lat":44.0876,"lon":4.88407,"type":"city"},{"id":"fr-3022868","label":"Courtry","lat":48.91906,"lon":2.60431,"type":"city"},{"id":"fr-3022826","label":"Coutances","lat":49.04541,"lon":-1.44518,"type":"city"},{"id":"fr-3022799","label":"Coutras","lat":45.04067,"lon":-0.12886,"type":"city"},{"id":"fr-3022751","label":"Couzeix","lat":45.87645,"lon":1.23842,"type":"city"},{"id":"fr-3022700","label":"Cran-Gevrier","lat":45.9,"lon":6.1,"type":"city"},{"id":"fr-3022690","label":"Craon","lat":47.84811,"lon":-0.95002,"type":"city"},{"id":"fr-3022683","label":"Craponne","lat":45.74526,"lon":4.72322,"type":"city"},{"id":"fr-3022610","label":"Creil","lat":49.25672,"lon":2.48477,"type":"city"},{"id":"fr-3022569","label":"Crepy-en-Valois","lat":49.23359,"lon":2.88807,"type":"city"},{"id":"fr-3022540","label":"Crest","lat":44.72639,"lon":5.01517,"type":"city"},{"id":"fr-3022530","label":"Creteil","lat":48.79266,"lon":2.46569,"type":"city"},{"id":"fr-3022513","label":"Creutzwald","lat":49.20531,"lon":6.69668,"type":"city"},{"id":"fr-3022380","label":"Croissy-sur-Seine","lat":48.87925,"lon":2.13836,"type":"city"},{"id":"fr-3022376","label":"Croix","lat":50.67846,"lon":3.1493,"type":"city"},{"id":"fr-3022331","label":"Crolles","lat":45.27724,"lon":5.87837,"type":"city"},{"id":"fr-3022301","label":"Crosne","lat":48.71921,"lon":2.45728,"type":"city"},{"id":"fr-12808674","label":"Croulebarbe","lat":48.81003,"lon":2.35403,"type":"city"},{"id":"fr-3022242","label":"Crozon","lat":48.24643,"lon":-4.48993,"type":"city"},{"id":"fr-3022167","label":"Cucq","lat":50.47733,"lon":1.62018,"type":"city"},{"id":"fr-3022158","label":"Cuers","lat":43.23754,"lon":6.07178,"type":"city"},{"id":"fr-3022151","label":"Cugnaux","lat":43.53635,"lon":1.34428,"type":"city"},{"id":"fr-3022133","label":"Cuincy","lat":50.37933,"lon":3.05301,"type":"city"},{"id":"fr-3021993","label":"Cusset","lat":46.13452,"lon":3.45639,"type":"city"},{"id":"fr-3021911","label":"Dainville","lat":50.28097,"lon":2.72603,"type":"city"},{"id":"fr-3021852","label":"Dammarie-les-Lys","lat":48.51667,"lon":2.65,"type":"city"},{"id":"fr-3021848","label":"Dammartin-en-Goele","lat":49.05423,"lon":2.67777,"type":"city"},{"id":"fr-3021729","label":"Dardilly","lat":45.80558,"lon":4.75319,"type":"city"},{"id":"fr-3021717","label":"Darnetal","lat":49.44533,"lon":1.15144,"type":"city"},{"id":"fr-3021670","label":"Dax","lat":43.71032,"lon":-1.05366,"type":"city"},{"id":"fr-3021664","label":"Decazeville","lat":44.56045,"lon":2.25091,"type":"city"},{"id":"fr-3021663","label":"Dechy","lat":50.35,"lon":3.11667,"type":"city"},{"id":"fr-3021662","label":"Decines-Charpieu","lat":45.76873,"lon":4.95883,"type":"city"},{"id":"fr-3021661","label":"Decize","lat":46.82852,"lon":3.46192,"type":"city"},{"id":"fr-3021629","label":"Delle","lat":47.50797,"lon":6.99975,"type":"city"},{"id":"fr-3021605","label":"Denain","lat":50.3293,"lon":3.3943,"type":"city"},{"id":"fr-3021570","label":"Deols","lat":46.82934,"lon":1.70428,"type":"city"},{"id":"fr-3021524","label":"Desvres","lat":50.66884,"lon":1.83478,"type":"city"},{"id":"fr-3021516","label":"Deuil-la-Barre","lat":48.97674,"lon":2.32722,"type":"city"},{"id":"fr-3021484","label":"Deville-les-Rouen","lat":49.46942,"lon":1.05214,"type":"city"},{"id":"fr-3021411","label":"Dieppe","lat":49.9216,"lon":1.07772,"type":"city"},{"id":"fr-3021382","label":"Digne-les-Bains","lat":44.09252,"lon":6.23199,"type":"city"},{"id":"fr-3021377","label":"Digoin","lat":46.48124,"lon":3.97946,"type":"city"},{"id":"fr-3021372","label":"Dijon","lat":47.31344,"lon":5.01391,"type":"city"},{"id":"fr-3021356","label":"Dinan","lat":48.45553,"lon":-2.05049,"type":"city"},{"id":"fr-3021351","label":"Dinard","lat":48.63293,"lon":-2.06274,"type":"city"},{"id":"fr-3021301","label":"Dives-sur-Mer","lat":49.28176,"lon":-0.10125,"type":"city"},{"id":"fr-3021298","label":"Divion","lat":50.47169,"lon":2.50546,"type":"city"},{"id":"fr-3021296","label":"Divonne-les-Bains","lat":46.3571,"lon":6.13494,"type":"city"},{"id":"fr-3021264","label":"Dol-de-Bretagne","lat":48.54976,"lon":-1.75104,"type":"city"},{"id":"fr-3021263","label":"Dole","lat":47.09225,"lon":5.48966,"type":"city"},{"id":"fr-3021221","label":"Dombasle-sur-Meurthe","lat":48.61861,"lon":6.35538,"type":"city"},{"id":"fr-3021210","label":"Domene","lat":45.20289,"lon":5.83335,"type":"city"},{"id":"fr-3021209","label":"Domerat","lat":46.36036,"lon":2.53455,"type":"city"},{"id":"fr-3021150","label":"Domont","lat":49.02782,"lon":2.32638,"type":"city"},{"id":"fr-3021128","label":"Dompierre-sur-Mer","lat":46.18828,"lon":-1.06353,"type":"city"},{"id":"fr-13580304","label":"Don Bosco","lat":43.70831,"lon":7.28049,"type":"city"},{"id":"fr-3021093","label":"Donges","lat":47.31824,"lon":-2.07538,"type":"city"},{"id":"fr-3021000","label":"Douai","lat":50.37069,"lon":3.07922,"type":"city"},{"id":"fr-3020996","label":"Douarnenez","lat":48.09542,"lon":-4.32904,"type":"city"},{"id":"fr-3020980","label":"Douchy-les-Mines","lat":50.3008,"lon":3.3927,"type":"city"},{"id":"fr-3020964","label":"Doue-la-Fontaine","lat":47.19329,"lon":-0.27633,"type":"city"},{"id":"fr-3020944","label":"Doullens","lat":50.15724,"lon":2.34019,"type":"city"},{"id":"fr-3020925","label":"Dourdan","lat":48.52772,"lon":2.01113,"type":"city"},{"id":"fr-3020917","label":"Dourges","lat":50.43636,"lon":2.98589,"type":"city"},{"id":"fr-3020887","label":"Douvres-la-Delivrande","lat":49.29472,"lon":-0.38039,"type":"city"},{"id":"fr-3020886","label":"Douvrin","lat":50.50916,"lon":2.83053,"type":"city"},{"id":"fr-3020850","label":"Draguignan","lat":43.53692,"lon":6.46458,"type":"city"},{"id":"fr-3020839","label":"Drancy","lat":48.92578,"lon":2.44533,"type":"city"},{"id":"fr-3020832","label":"Draveil","lat":48.68466,"lon":2.41418,"type":"city"},{"id":"fr-3020810","label":"Dreux","lat":48.73649,"lon":1.36566,"type":"city"},{"id":"fr-3020712","label":"Dugny","lat":48.95371,"lon":2.41734,"type":"city"},{"id":"fr-3020686","label":"Dunkirk","lat":51.0344,"lon":2.37681,"type":"city"},{"id":"fr-3020601","label":"Eaubonne","lat":48.99712,"lon":2.28249,"type":"city"},{"id":"fr-3020495","label":"Echirolles","lat":45.14603,"lon":5.71441,"type":"city"},{"id":"fr-3020489","label":"Eckbolsheim","lat":48.58075,"lon":7.68768,"type":"city"},{"id":"fr-3020440","label":"Ecouen","lat":49.02062,"lon":2.38309,"type":"city"},{"id":"fr-3020392","label":"Ecully","lat":45.77437,"lon":4.77758,"type":"city"},{"id":"fr-3020358","label":"Egletons","lat":45.40637,"lon":2.04518,"type":"city"},{"id":"fr-3020346","label":"Egly","lat":48.57828,"lon":2.22417,"type":"city"},{"id":"fr-3020330","label":"Eguilles","lat":43.56867,"lon":5.35575,"type":"city"},{"id":"fr-3020310","label":"Elancourt","lat":48.78421,"lon":1.9552,"type":"city"},{"id":"fr-3020307","label":"Elbeuf","lat":49.28669,"lon":1.00288,"type":"city"},{"id":"fr-3020281","label":"Elne","lat":42.60432,"lon":2.97176,"type":"city"},{"id":"fr-3020251","label":"Embrun","lat":44.56387,"lon":6.49526,"type":"city"},{"id":"fr-3020247","label":"Emerainville","lat":48.81276,"lon":2.62139,"type":"city"},{"id":"fr-3020188","label":"Enghien-les-Bains","lat":48.96667,"lon":2.31667,"type":"city"},{"id":"fr-3020152","label":"Ensisheim","lat":47.86584,"lon":7.35052,"type":"city"},{"id":"fr-3020142","label":"Entraigues-sur-la-Sorgue","lat":44.0032,"lon":4.92657,"type":"city"},{"id":"fr-3020062","label":"Epernay","lat":49.04,"lon":3.95922,"type":"city"},{"id":"fr-3020057","label":"Epernon","lat":48.61031,"lon":1.67218,"type":"city"},{"id":"fr-3020035","label":"Epinal","lat":48.18324,"lon":6.45304,"type":"city"},{"id":"fr-3020024","label":"Epinay-sous-Senart","lat":48.6897,"lon":2.51186,"type":"city"},{"id":"fr-3020021","label":"Epinay-sur-Orge","lat":48.67338,"lon":2.31074,"type":"city"},{"id":"fr-3020020","label":"Epinay-sur-Seine","lat":48.9535,"lon":2.31514,"type":"city"},{"id":"fr-3019985","label":"Epone","lat":48.95476,"lon":1.82233,"type":"city"},{"id":"fr-3019960","label":"Equeurdreville-Hainneville","lat":49.64868,"lon":-1.65306,"type":"city"},{"id":"fr-3019952","label":"Eragny","lat":49.01667,"lon":2.1,"type":"city"},{"id":"fr-3019920","label":"Ergue-Gaberic","lat":47.99657,"lon":-4.02438,"type":"city"},{"id":"fr-3019897","label":"Ermont","lat":48.99004,"lon":2.25804,"type":"city"},{"id":"fr-3019895","label":"Ernee","lat":48.29722,"lon":-0.93263,"type":"city"},{"id":"fr-3019865","label":"Erstein","lat":48.42373,"lon":7.66262,"type":"city"},{"id":"fr-3019854","label":"Esbly","lat":48.9052,"lon":2.81235,"type":"city"},{"id":"fr-3019843","label":"Escalquens","lat":43.51835,"lon":1.56093,"type":"city"},{"id":"fr-3019827","label":"Escaudain","lat":50.33315,"lon":3.3443,"type":"city"},{"id":"fr-3019607","label":"Essey-les-Nancy","lat":48.705,"lon":6.22691,"type":"city"},{"id":"fr-3019578","label":"Estaires","lat":50.64574,"lon":2.72782,"type":"city"},{"id":"fr-3019459","label":"Etampes","lat":48.43507,"lon":2.16233,"type":"city"},{"id":"fr-3019441","label":"Etaples","lat":50.52194,"lon":1.63319,"type":"city"},{"id":"fr-3019372","label":"Etrechy","lat":48.49465,"lon":2.19489,"type":"city"},{"id":"fr-3019329","label":"Eu","lat":50.04606,"lon":1.42079,"type":"city"},{"id":"fr-3019280","label":"Evian-les-Bains","lat":46.40111,"lon":6.58793,"type":"city"},{"id":"fr-3019265","label":"Evreux","lat":49.02414,"lon":1.15082,"type":"city"},{"id":"fr-3019259","label":"Evron","lat":48.15587,"lon":-0.40242,"type":"city"},{"id":"fr-3019256","label":"Evry","lat":48.6328,"lon":2.44049,"type":"city"},{"id":"fr-3019238","label":"Eybens","lat":45.14771,"lon":5.75014,"type":"city"},{"id":"fr-3019219","label":"Eyguieres","lat":43.69481,"lon":5.03131,"type":"city"},{"id":"fr-3019193","label":"Eysines","lat":44.88442,"lon":-0.65141,"type":"city"},{"id":"fr-3019175","label":"Ezanville","lat":49.02794,"lon":2.36787,"type":"city"},{"id":"fr-3019160","label":"Fabregues","lat":43.55131,"lon":3.77611,"type":"city"},{"id":"fr-3019153","label":"Faches-Thumesnil","lat":50.58333,"lon":3.06667,"type":"city"},{"id":"fr-3019113","label":"Falaise","lat":48.89217,"lon":-0.19527,"type":"city"},{"id":"fr-3019077","label":"Fameck","lat":49.29895,"lon":6.10915,"type":"city"},{"id":"fr-3019044","label":"Farebersviller","lat":49.11898,"lon":6.86914,"type":"city"},{"id":"fr-3018946","label":"Faulquemont","lat":49.0491,"lon":6.59732,"type":"city"},{"id":"fr-3018903","label":"Faverges","lat":45.75116,"lon":6.29151,"type":"city"},{"id":"fr-3018794","label":"Fecamp","lat":49.75787,"lon":0.37457,"type":"city"},{"id":"fr-3018778","label":"Feignies","lat":50.29806,"lon":3.91534,"type":"city"},{"id":"fr-3018739","label":"Fenain","lat":50.36667,"lon":3.3,"type":"city"},{"id":"fr-3018679","label":"Ferney-Voltaire","lat":46.25858,"lon":6.11063,"type":"city"},{"id":"fr-3018650","label":"Ferriere-la-Grande","lat":50.25521,"lon":3.99288,"type":"city"},{"id":"fr-3018560","label":"Feurs","lat":45.73337,"lon":4.22755,"type":"city"},{"id":"fr-3018545","label":"Feytiat","lat":45.81004,"lon":1.33107,"type":"city"},{"id":"fr-3018544","label":"Feyzin","lat":45.67287,"lon":4.85894,"type":"city"},{"id":"fr-3018506","label":"Figeac","lat":44.60894,"lon":2.03155,"type":"city"},{"id":"fr-3018455","label":"Firminy","lat":45.38956,"lon":4.2886,"type":"city"},{"id":"fr-3018453","label":"Fismes","lat":49.30773,"lon":3.68607,"type":"city"},{"id":"fr-3018339","label":"Flers","lat":48.73722,"lon":-0.57466,"type":"city"},{"id":"fr-3018336","label":"Flers-en-Escrebieux","lat":50.3979,"lon":3.06038,"type":"city"},{"id":"fr-3018323","label":"Fleurance","lat":43.8494,"lon":0.66298,"type":"city"},{"id":"fr-3018280","label":"Fleury-les-Aubrais","lat":47.93328,"lon":1.91811,"type":"city"},{"id":"fr-3018279","label":"Fleury-Merogis","lat":48.6373,"lon":2.36378,"type":"city"},{"id":"fr-3018257","label":"Flines-lez-Raches","lat":50.41667,"lon":3.18333,"type":"city"},{"id":"fr-3018246","label":"Floirac","lat":44.83061,"lon":-0.52675,"type":"city"},{"id":"fr-3018235","label":"Florange","lat":49.32373,"lon":6.1212,"type":"city"},{"id":"fr-3018174","label":"Foix","lat":42.96535,"lon":1.60705,"type":"city"},{"id":"fr-12808659","label":"Folie Mericourt","lat":48.86625,"lon":2.37142,"type":"city"},{"id":"fr-3018124","label":"Fondettes","lat":47.4035,"lon":0.59686,"type":"city"},{"id":"fr-3018103","label":"Fonsorbes","lat":43.539,"lon":1.22882,"type":"city"},{"id":"fr-3018095","label":"Fontaine","lat":45.19275,"lon":5.68821,"type":"city"},{"id":"fr-3018032","label":"Fontaine-les-Dijon","lat":47.34238,"lon":5.02007,"type":"city"},{"id":"fr-3018074","label":"Fontainebleau","lat":48.40908,"lon":2.70177,"type":"city"},{"id":"fr-3017994","label":"Fontaines-sur-Saone","lat":45.83572,"lon":4.8449,"type":"city"},{"id":"fr-3017924","label":"Fontenay-aux-Roses","lat":48.79325,"lon":2.29275,"type":"city"},{"id":"fr-3017921","label":"Fontenay-le-Comte","lat":46.46671,"lon":-0.80624,"type":"city"},{"id":"fr-3017919","label":"Fontenay-le-Fleury","lat":48.81253,"lon":2.04863,"type":"city"},{"id":"fr-3017910","label":"Fontenay-sous-Bois","lat":48.85442,"lon":2.48268,"type":"city"},{"id":"fr-3017902","label":"Fontenay-Tresigny","lat":48.70647,"lon":2.87047,"type":"city"},{"id":"fr-3017805","label":"Forbach","lat":49.18848,"lon":6.89255,"type":"city"},{"id":"fr-3017651","label":"Fos-sur-Mer","lat":43.43774,"lon":4.94457,"type":"city"},{"id":"fr-3017660","label":"Fosses","lat":49.09808,"lon":2.50957,"type":"city"},{"id":"fr-3017624","label":"Fouesnant","lat":47.89342,"lon":-4.0124,"type":"city"},{"id":"fr-3017609","label":"Fougeres","lat":48.35157,"lon":-1.19961,"type":"city"},{"id":"fr-3017592","label":"Fouillard","lat":48.1582,"lon":-1.57915,"type":"city"},{"id":"fr-3017576","label":"Foulayronnes","lat":44.24029,"lon":0.64516,"type":"city"},{"id":"fr-3017556","label":"Fouquieres-les-Lens","lat":50.42842,"lon":2.91321,"type":"city"},{"id":"fr-3017512","label":"Fourmies","lat":50.01532,"lon":4.04784,"type":"city"},{"id":"fr-3017363","label":"Francheville","lat":45.73637,"lon":4.76358,"type":"city"},{"id":"fr-3017341","label":"Franconville","lat":48.98333,"lon":2.23333,"type":"city"},{"id":"fr-3017253","label":"Frejus","lat":43.43325,"lon":6.73555,"type":"city"},{"id":"fr-3017178","label":"Fresnes","lat":48.75568,"lon":2.32241,"type":"city"},{"id":"fr-3017167","label":"Fresnes-sur-Escaut","lat":50.43382,"lon":3.57752,"type":"city"},{"id":"fr-3017059","label":"Freyming-Merlebach","lat":49.15,"lon":6.78333,"type":"city"},{"id":"fr-3016956","label":"Frontignan","lat":43.44775,"lon":3.75524,"type":"city"},{"id":"fr-3016944","label":"Frouard","lat":48.75994,"lon":6.13036,"type":"city"},{"id":"fr-3016940","label":"Frouzins","lat":43.51482,"lon":1.32523,"type":"city"},{"id":"fr-3016903","label":"Fumel","lat":44.49898,"lon":0.96725,"type":"city"},{"id":"fr-3016878","label":"Fuveau","lat":43.45578,"lon":5.56149,"type":"city"},{"id":"fr-3016830","label":"Gagny","lat":48.88333,"lon":2.53333,"type":"city"},{"id":"fr-3016824","label":"Gaillac","lat":43.9016,"lon":1.89686,"type":"city"},{"id":"fr-3016817","label":"Gaillard","lat":46.1853,"lon":6.20693,"type":"city"},{"id":"fr-3016807","label":"Gaillon","lat":49.16104,"lon":1.34016,"type":"city"},{"id":"fr-12319228","label":"Gairaut","lat":43.73936,"lon":7.26244,"type":"city"},{"id":"fr-13580305","label":"Gambetta","lat":43.69752,"lon":7.25179,"type":"city"},{"id":"fr-3016726","label":"Gan","lat":43.22852,"lon":-0.38713,"type":"city"},{"id":"fr-3016711","label":"Gannat","lat":46.09987,"lon":3.19842,"type":"city"},{"id":"fr-3016702","label":"Gap","lat":44.55858,"lon":6.07868,"type":"city"},{"id":"fr-3016675","label":"Garches","lat":48.84226,"lon":2.18232,"type":"city"},{"id":"fr-3016667","label":"Gardanne","lat":43.45491,"lon":5.46913,"type":"city"},{"id":"fr-12808675","label":"Gare","lat":48.83337,"lon":2.37513,"type":"city"},{"id":"fr-3016635","label":"Gareoult","lat":43.32833,"lon":6.04616,"type":"city"},{"id":"fr-3016622","label":"Gargenville","lat":48.98802,"lon":1.81176,"type":"city"},{"id":"fr-3016621","label":"Garges-les-Gonesse","lat":48.96791,"lon":2.39781,"type":"city"},{"id":"fr-3016524","label":"Gauchy","lat":49.82765,"lon":3.27371,"type":"city"},{"id":"fr-3016424","label":"Geispolsheim","lat":48.51603,"lon":7.64825,"type":"city"},{"id":"fr-3016398","label":"Gemenos","lat":43.29751,"lon":5.62843,"type":"city"},{"id":"fr-3016387","label":"Genas","lat":45.73131,"lon":5.00211,"type":"city"},{"id":"fr-3016332","label":"Genlis","lat":47.24203,"lon":5.22415,"type":"city"},{"id":"fr-3016321","label":"Gennevilliers","lat":48.93333,"lon":2.3,"type":"city"},{"id":"fr-3016292","label":"Gentilly","lat":48.81294,"lon":2.3417,"type":"city"},{"id":"fr-3016274","label":"Gerardmer","lat":48.07346,"lon":6.87787,"type":"city"},{"id":"fr-3016177","label":"Gerzat","lat":45.82581,"lon":3.14473,"type":"city"},{"id":"fr-3016143","label":"Gex","lat":46.33323,"lon":6.05766,"type":"city"},{"id":"fr-3016097","label":"Gien","lat":47.69332,"lon":2.63094,"type":"city"},{"id":"fr-3016089","label":"Gieres","lat":45.17997,"lon":5.78935,"type":"city"},{"id":"fr-3016078","label":"Gif-sur-Yvette","lat":48.68333,"lon":2.13333,"type":"city"},{"id":"fr-3016073","label":"Gignac","lat":43.65207,"lon":3.55096,"type":"city"},{"id":"fr-3016070","label":"Gignac-la-Nerthe","lat":43.39287,"lon":5.23586,"type":"city"},{"id":"fr-3015926","label":"Gisors","lat":49.28178,"lon":1.7801,"type":"city"},{"id":"fr-3015904","label":"Givet","lat":50.13796,"lon":4.82545,"type":"city"},{"id":"fr-3015902","label":"Givors","lat":45.59063,"lon":4.76878,"type":"city"},{"id":"fr-3015823","label":"Gleize","lat":45.98916,"lon":4.69708,"type":"city"},{"id":"fr-3015741","label":"Golbey","lat":48.19764,"lon":6.43966,"type":"city"},{"id":"fr-3004078","label":"Gond-Pontouvre","lat":45.68333,"lon":0.16667,"type":"city"},{"id":"fr-3015689","label":"Gonesse","lat":48.98693,"lon":2.44892,"type":"city"},{"id":"fr-13580306","label":"Gorbella","lat":43.72348,"lon":7.2554,"type":"city"},{"id":"fr-3015601","label":"Gouesnou","lat":48.45297,"lon":-4.46495,"type":"city"},{"id":"fr-3015546","label":"Gourdon","lat":44.73576,"lon":1.38071,"type":"city"},{"id":"fr-3015522","label":"Gourin","lat":48.1395,"lon":-3.6077,"type":"city"},{"id":"fr-3015509","label":"Gournay-en-Bray","lat":49.48285,"lon":1.72471,"type":"city"},{"id":"fr-3015507","label":"Gournay-sur-Marne","lat":48.86223,"lon":2.58452,"type":"city"},{"id":"fr-3015490","label":"Goussainville","lat":49.01367,"lon":2.46595,"type":"city"},{"id":"fr-3015460","label":"Gouvieux","lat":49.18705,"lon":2.41439,"type":"city"},{"id":"fr-3015424","label":"Grabels","lat":43.648,"lon":3.80144,"type":"city"},{"id":"fr-3015419","label":"Gradignan","lat":44.77362,"lon":-0.61395,"type":"city"},{"id":"fr-3015292","label":"Grand-Charmont","lat":47.52674,"lon":6.82604,"type":"city"},{"id":"fr-3015267","label":"Grand-Couronne","lat":49.35563,"lon":1.00647,"type":"city"},{"id":"fr-3015126","label":"Grand-Fort-Philippe","lat":50.99961,"lon":2.10784,"type":"city"},{"id":"fr-3015160","label":"Grande-Synthe","lat":51.0154,"lon":2.29975,"type":"city"},{"id":"fr-3014867","label":"Granville","lat":48.83792,"lon":-1.59714,"type":"city"},{"id":"fr-3014856","label":"Grasse","lat":43.65783,"lon":6.92537,"type":"city"},{"id":"fr-3014828","label":"Graulhet","lat":43.76688,"lon":1.98938,"type":"city"},{"id":"fr-3014816","label":"Gravelines","lat":50.98651,"lon":2.12807,"type":"city"},{"id":"fr-3014784","label":"Gray","lat":47.44575,"lon":5.59215,"type":"city"},{"id":"fr-3014745","label":"Grenade","lat":43.77128,"lon":1.29282,"type":"city"},{"id":"fr-3014739","label":"Grenay","lat":50.44962,"lon":2.75168,"type":"city"},{"id":"fr-3014728","label":"Grenoble","lat":45.17869,"lon":5.71479,"type":"city"},{"id":"fr-3014697","label":"Gretz-Armainvilliers","lat":48.7412,"lon":2.73105,"type":"city"},{"id":"fr-3014646","label":"Grigny","lat":48.65412,"lon":2.39343,"type":"city"},{"id":"fr-3014647","label":"Grigny-sur-Rhone","lat":45.60843,"lon":4.78976,"type":"city"},{"id":"fr-3014540","label":"Groslay","lat":48.98561,"lon":2.34736,"type":"city"},{"id":"fr-3014433","label":"Guebwiller","lat":47.91667,"lon":7.2,"type":"city"},{"id":"fr-3014407","label":"Guenange","lat":49.29945,"lon":6.20535,"type":"city"},{"id":"fr-3014393","label":"Guer","lat":47.90404,"lon":-2.12031,"type":"city"},{"id":"fr-3014392","label":"Guerande","lat":47.32829,"lon":-2.42934,"type":"city"},{"id":"fr-3014383","label":"Gueret","lat":46.17185,"lon":1.87166,"type":"city"},{"id":"fr-3014334","label":"Gueugnon","lat":46.60357,"lon":4.06286,"type":"city"},{"id":"fr-3014305","label":"Guichen","lat":47.96813,"lon":-1.79576,"type":"city"},{"id":"fr-3232493","label":"Guidel-Plage","lat":47.76768,"lon":-3.5218,"type":"city"},{"id":"fr-3014280","label":"Guilers","lat":48.42702,"lon":-4.55978,"type":"city"},{"id":"fr-3014277","label":"Guilherand-Granges","lat":44.93278,"lon":4.87372,"type":"city"},{"id":"fr-3014224","label":"Guines","lat":50.86708,"lon":1.87025,"type":"city"},{"id":"fr-3014221","label":"Guingamp","lat":48.56259,"lon":-3.15289,"type":"city"},{"id":"fr-3014213","label":"Guipavas","lat":48.43411,"lon":-4.40197,"type":"city"},{"id":"fr-3014195","label":"Guise","lat":49.90055,"lon":3.62801,"type":"city"},{"id":"fr-3014175","label":"Gujan-Mestras","lat":44.636,"lon":-1.06815,"type":"city"},{"id":"fr-3014143","label":"Guyancourt","lat":48.77334,"lon":2.07393,"type":"city"},{"id":"fr-3014080","label":"Hagondange","lat":49.24879,"lon":6.16374,"type":"city"},{"id":"fr-3014078","label":"Haguenau","lat":48.81557,"lon":7.79051,"type":"city"},{"id":"fr-3014067","label":"Haillicourt","lat":50.47519,"lon":2.57458,"type":"city"},{"id":"fr-3014034","label":"Halluin","lat":50.78628,"lon":3.12611,"type":"city"},{"id":"fr-3014029","label":"Ham","lat":49.74721,"lon":3.07301,"type":"city"},{"id":"fr-3013922","label":"Harfleur","lat":49.5066,"lon":0.19827,"type":"city"},{"id":"fr-3013908","label":"Harnes","lat":50.44643,"lon":2.90481,"type":"city"},{"id":"fr-3013877","label":"Hasparren","lat":43.38394,"lon":-1.30523,"type":"city"},{"id":"fr-3013862","label":"Haubourdin","lat":50.60826,"lon":2.99143,"type":"city"},{"id":"fr-3013766","label":"Haute-Goulaine","lat":47.19904,"lon":-1.43012,"type":"city"},{"id":"fr-3013681","label":"Hautmont","lat":50.25077,"lon":3.92143,"type":"city"},{"id":"fr-3013627","label":"Hayange","lat":49.32881,"lon":6.06278,"type":"city"},{"id":"fr-3013619","label":"Hazebrouck","lat":50.72374,"lon":2.53729,"type":"city"},{"id":"fr-3013585","label":"Heillecourt","lat":48.65049,"lon":6.19512,"type":"city"},{"id":"fr-3013549","label":"Hem","lat":50.65256,"lon":3.18681,"type":"city"},{"id":"fr-3013534","label":"Hendaye","lat":43.35809,"lon":-1.7744,"type":"city"},{"id":"fr-3013525","label":"Henin-Beaumont","lat":50.41359,"lon":2.96485,"type":"city"},{"id":"fr-3013521","label":"Hennebont","lat":47.80479,"lon":-3.27812,"type":"city"},{"id":"fr-3013477","label":"Herblay-sur-Seine","lat":48.98994,"lon":2.1699,"type":"city"},{"id":"fr-3013456","label":"Hericourt","lat":47.57305,"lon":6.76139,"type":"city"},{"id":"fr-3013403","label":"Herouville-Saint-Clair","lat":49.21088,"lon":-0.30653,"type":"city"},{"id":"fr-3013380","label":"Hersin-Coupigny","lat":50.44796,"lon":2.6494,"type":"city"},{"id":"fr-3013350","label":"Hettange-Grande","lat":49.4065,"lon":6.15233,"type":"city"},{"id":"fr-3013258","label":"Hirson","lat":49.92262,"lon":4.08259,"type":"city"},{"id":"fr-3013226","label":"Hœnheim","lat":48.62224,"lon":7.75549,"type":"city"},{"id":"fr-3013196","label":"Hombourg-Haut","lat":49.12819,"lon":6.77066,"type":"city"},{"id":"fr-3013195","label":"Homecourt","lat":49.22071,"lon":5.99242,"type":"city"},{"id":"fr-3013173","label":"Honfleur","lat":49.41985,"lon":0.23294,"type":"city"},{"id":"fr-12808654","label":"Hopital Saint-Louis","lat":48.8772,"lon":2.36689,"type":"city"},{"id":"fr-3013155","label":"Horbourg-Wihr","lat":48.08106,"lon":7.3938,"type":"city"},{"id":"fr-3013122","label":"Houdain","lat":50.4504,"lon":2.53777,"type":"city"},{"id":"fr-3013097","label":"Houilles","lat":48.92161,"lon":2.19263,"type":"city"},{"id":"fr-3013082","label":"Houplines","lat":50.69499,"lon":2.91518,"type":"city"},{"id":"fr-3012979","label":"Huningue","lat":47.60477,"lon":7.57782,"type":"city"},{"id":"fr-3012937","label":"Hyeres","lat":43.12038,"lon":6.12857,"type":"city"},{"id":"fr-3012903","label":"Ifs","lat":49.14,"lon":-0.34899,"type":"city"},{"id":"fr-3012889","label":"Igny","lat":48.74437,"lon":2.22428,"type":"city"},{"id":"fr-3012848","label":"Ille-sur-Tet","lat":42.67083,"lon":2.62066,"type":"city"},{"id":"fr-3012834","label":"Illkirch-Graffenstaden","lat":48.52894,"lon":7.71523,"type":"city"},{"id":"fr-3012829","label":"Illzach","lat":47.7742,"lon":7.35175,"type":"city"},{"id":"fr-3012780","label":"Ingre","lat":47.91995,"lon":1.82778,"type":"city"},{"id":"fr-3012742","label":"Irigny","lat":45.67313,"lon":4.82243,"type":"city"},{"id":"fr-3012725","label":"Isbergues","lat":50.62328,"lon":2.45902,"type":"city"},{"id":"fr-3012709","label":"Isle","lat":45.80461,"lon":1.22621,"type":"city"},{"id":"fr-3012664","label":"Issoire","lat":45.54422,"lon":3.24901,"type":"city"},{"id":"fr-3012655","label":"Issoudun","lat":46.94848,"lon":1.99362,"type":"city"},{"id":"fr-3012649","label":"Issy-les-Moulineaux","lat":48.82104,"lon":2.27718,"type":"city"},{"id":"fr-3012647","label":"Istres","lat":43.51345,"lon":4.98747,"type":"city"},{"id":"fr-3012638","label":"Itteville","lat":48.51536,"lon":2.34377,"type":"city"},{"id":"fr-3012621","label":"Ivry-sur-Seine","lat":48.81568,"lon":2.38487,"type":"city"},{"id":"fr-3012576","label":"Jacou","lat":43.66139,"lon":3.91222,"type":"city"},{"id":"fr-3012495","label":"Janze","lat":47.95959,"lon":-1.49938,"type":"city"},{"id":"fr-3012467","label":"Jarny","lat":49.15873,"lon":5.8764,"type":"city"},{"id":"fr-3012449","label":"Jarville-la-Malgrange","lat":48.66697,"lon":6.20269,"type":"city"},{"id":"fr-3012444","label":"Jassans-Riottier","lat":45.98134,"lon":4.7614,"type":"city"},{"id":"fr-3012417","label":"Jaunay-Clan","lat":46.68503,"lon":0.37179,"type":"city"},{"id":"fr-13580307","label":"Jean-Medecin","lat":43.70042,"lon":7.2672,"type":"city"},{"id":"fr-3012346","label":"Jeumont","lat":50.29658,"lon":4.10108,"type":"city"},{"id":"fr-3012322","label":"Joeuf","lat":49.23333,"lon":6.01667,"type":"city"},{"id":"fr-3012319","label":"Joigny","lat":47.98288,"lon":3.40096,"type":"city"},{"id":"fr-3012313","label":"Joinville-le-Pont","lat":48.82538,"lon":2.47458,"type":"city"},{"id":"fr-3012303","label":"Jonage","lat":45.79638,"lon":5.04664,"type":"city"},{"id":"fr-3012234","label":"Jouars-Pontchartrain","lat":48.78888,"lon":1.89898,"type":"city"},{"id":"fr-3012219","label":"Joue-les-Tours","lat":47.34907,"lon":0.66513,"type":"city"},{"id":"fr-3012165","label":"Jouy-en-Josas","lat":48.75909,"lon":2.16966,"type":"city"},{"id":"fr-3012162","label":"Jouy-le-Moutier","lat":49.01068,"lon":2.04028,"type":"city"},{"id":"fr-3012142","label":"Juan-les-Pins","lat":43.56945,"lon":7.11309,"type":"city"},{"id":"fr-3012124","label":"Juigne","lat":47.71878,"lon":-0.39405,"type":"city"},{"id":"fr-3012073","label":"Jumelles","lat":47.43517,"lon":-0.10371,"type":"city"},{"id":"fr-3012049","label":"Jurancon","lat":43.2883,"lon":-0.38694,"type":"city"},{"id":"fr-3012004","label":"Juvignac","lat":43.61389,"lon":3.81056,"type":"city"},{"id":"fr-3011988","label":"Juvisy-sur-Orge","lat":48.68333,"lon":2.38333,"type":"city"},{"id":"fr-3011456","label":"Kingersheim","lat":47.791,"lon":7.32647,"type":"city"},{"id":"fr-3007053","label":"L'Arbresle","lat":45.83556,"lon":4.61694,"type":"city"},{"id":"fr-13580301","label":"L'Archet","lat":43.69415,"lon":7.2329,"type":"city"},{"id":"fr-12524898","label":"L'Ariane","lat":43.74726,"lon":7.30024,"type":"city"},{"id":"fr-2999544","label":"L'Estaque","lat":43.36385,"lon":5.30854,"type":"city"},{"id":"fr-2998632","label":"L'Hay-les-Roses","lat":48.77935,"lon":2.33729,"type":"city"},{"id":"fr-2998329","label":"L'Ile-Saint-Denis","lat":48.93666,"lon":2.33944,"type":"city"},{"id":"fr-2998140","label":"L'Isle-Adam","lat":49.10744,"lon":2.22818,"type":"city"},{"id":"fr-2998136","label":"L'Isle-d'Abeau","lat":45.6196,"lon":5.22466,"type":"city"},{"id":"fr-2998130","label":"L'Isle-Jourdain","lat":43.6122,"lon":1.0866,"type":"city"},{"id":"fr-2998127","label":"L'Isle-sur-la-Sorgue","lat":43.91971,"lon":5.05141,"type":"city"},{"id":"fr-2997104","label":"L'Union","lat":43.66042,"lon":1.48264,"type":"city"},{"id":"fr-3011307","label":"La Bassee","lat":50.53424,"lon":2.8062,"type":"city"},{"id":"fr-3019766","label":"La Baule-Escoublac","lat":47.29221,"lon":-2.36395,"type":"city"},{"id":"fr-11919748","label":"La Blancarde","lat":43.30047,"lon":5.40563,"type":"city"},{"id":"fr-3010905","label":"La Bouilladisse","lat":43.39619,"lon":5.59307,"type":"city"},{"id":"fr-3010815","label":"La Bresse","lat":47.99974,"lon":6.86499,"type":"city"},{"id":"fr-11919789","label":"La Cabucelle","lat":43.33189,"lon":5.36111,"type":"city"},{"id":"fr-11919791","label":"La Calade","lat":43.33895,"lon":5.35111,"type":"city"},{"id":"fr-3010641","label":"La Californie","lat":43.67507,"lon":7.22763,"type":"city"},{"id":"fr-11919763","label":"La Capelette","lat":43.28086,"lon":5.406,"type":"city"},{"id":"fr-3010529","label":"La Celle-Saint-Cloud","lat":48.85029,"lon":2.14523,"type":"city"},{"id":"fr-3010271","label":"La Chapelle-Saint-Luc","lat":48.31734,"lon":4.03988,"type":"city"},{"id":"fr-3010265","label":"La Chapelle-Saint-Mesmin","lat":47.88648,"lon":1.8345,"type":"city"},{"id":"fr-3010237","label":"La Chapelle-sur-Erdre","lat":47.29964,"lon":-1.55239,"type":"city"},{"id":"fr-3010201","label":"La Charite-sur-Loire","lat":47.18333,"lon":3.01667,"type":"city"},{"id":"fr-3010040","label":"La Chevroliere","lat":47.09105,"lon":-1.61119,"type":"city"},{"id":"fr-3010025","label":"La Ciotat","lat":43.17476,"lon":5.60449,"type":"city"},{"id":"fr-3009978","label":"La Colle-sur-Loup","lat":43.68648,"lon":7.10376,"type":"city"},{"id":"fr-11919750","label":"La Conception","lat":43.29174,"lon":5.39391,"type":"city"},{"id":"fr-3009824","label":"La Courneuve","lat":48.92805,"lon":2.39627,"type":"city"},{"id":"fr-3009822","label":"La Couronne","lat":45.61128,"lon":0.09948,"type":"city"},{"id":"fr-3009791","label":"La Crau","lat":43.14962,"lon":6.07399,"type":"city"},{"id":"fr-3009721","label":"La Croix-Rouge","lat":43.33329,"lon":5.45403,"type":"city"},{"id":"fr-8504417","label":"La Defense","lat":48.89198,"lon":2.23881,"type":"city"},{"id":"fr-11919785","label":"La Delorme","lat":43.34405,"lon":5.37251,"type":"city"},{"id":"fr-3009575","label":"La Fare-les-Oliviers","lat":43.55104,"lon":5.1943,"type":"city"},{"id":"fr-3009566","label":"La Farlede","lat":43.16866,"lon":6.04323,"type":"city"},{"id":"fr-3009494","label":"La Ferte-Bernard","lat":48.18723,"lon":0.65247,"type":"city"},{"id":"fr-3009486","label":"La Ferte-Mace","lat":48.58999,"lon":-0.358,"type":"city"},{"id":"fr-3009484","label":"La Ferte-Saint-Aubin","lat":47.71695,"lon":1.93904,"type":"city"},{"id":"fr-3009481","label":"La Ferte-sous-Jouarre","lat":48.9514,"lon":3.12724,"type":"city"},{"id":"fr-3009443","label":"La Fleche","lat":47.69815,"lon":-0.07553,"type":"city"},{"id":"fr-11919773","label":"La Fourragere","lat":43.30382,"lon":5.43138,"type":"city"},{"id":"fr-3009223","label":"La Garde","lat":43.12468,"lon":6.01033,"type":"city"},{"id":"fr-3009169","label":"La Garenne-Colombes","lat":48.90472,"lon":2.2469,"type":"city"},{"id":"fr-3009150","label":"La Gaude","lat":43.72209,"lon":7.15296,"type":"city"},{"id":"fr-3009086","label":"La Glacerie","lat":49.60517,"lon":-1.58185,"type":"city"},{"id":"fr-3009050","label":"La Gorgue","lat":50.6379,"lon":2.71502,"type":"city"},{"id":"fr-3009015","label":"La Grand-Croix","lat":45.50383,"lon":4.55915,"type":"city"},{"id":"fr-3008981","label":"La Grande-Motte","lat":43.56076,"lon":4.08482,"type":"city"},{"id":"fr-11919739","label":"La Joliette","lat":43.30496,"lon":5.36608,"type":"city"},{"id":"fr-3008432","label":"La Londe-les-Maures","lat":43.13839,"lon":6.23362,"type":"city"},{"id":"fr-3008379","label":"La Madeleine","lat":50.64603,"lon":3.07585,"type":"city"},{"id":"fr-3008384","label":"La Madeleine","lat":43.71298,"lon":7.2241,"type":"city"},{"id":"fr-3008096","label":"La Montagne","lat":47.18987,"lon":-1.68395,"type":"city"},{"id":"fr-3007998","label":"La Motte-Servolex","lat":45.59702,"lon":5.86724,"type":"city"},{"id":"fr-3007963","label":"La Mulatiere","lat":45.72818,"lon":4.81213,"type":"city"},{"id":"fr-3007957","label":"La Mure","lat":44.90145,"lon":5.78874,"type":"city"},{"id":"fr-3007443","label":"La Panouse","lat":43.25576,"lon":5.42963,"type":"city"},{"id":"fr-3007401","label":"La Penne-sur-Huveaune","lat":43.28208,"lon":5.51642,"type":"city"},{"id":"fr-11919758","label":"La Pointe Rouge","lat":43.23853,"lon":5.37679,"type":"city"},{"id":"fr-3007221","label":"La Pomme","lat":43.28987,"lon":5.44153,"type":"city"},{"id":"fr-3007102","label":"La Queue-en-Brie","lat":48.7852,"lon":2.58112,"type":"city"},{"id":"fr-3007064","label":"La Ravoire","lat":45.56266,"lon":5.95826,"type":"city"},{"id":"fr-3006930","label":"La Ricamarie","lat":45.40536,"lon":4.36944,"type":"city"},{"id":"fr-3006928","label":"La Riche","lat":47.38996,"lon":0.67072,"type":"city"},{"id":"fr-3006770","label":"La Roche-sur-Foron","lat":46.07111,"lon":6.3045,"type":"city"},{"id":"fr-3006767","label":"La Roche-sur-Yon","lat":46.66974,"lon":-1.42757,"type":"city"},{"id":"fr-3006787","label":"La Rochelle","lat":46.16308,"lon":-1.15222,"type":"city"},{"id":"fr-3006703","label":"La Roque-d'Antheron","lat":43.71544,"lon":5.30973,"type":"city"},{"id":"fr-11919776","label":"La Rose","lat":43.32889,"lon":5.42859,"type":"city"},{"id":"fr-3006531","label":"La Salvetat-Saint-Gilles","lat":43.57622,"lon":1.27192,"type":"city"},{"id":"fr-3006414","label":"La Seyne-sur-Mer","lat":43.10322,"lon":5.87816,"type":"city"},{"id":"fr-3006387","label":"La Souterraine","lat":46.23791,"lon":1.48597,"type":"city"},{"id":"fr-3006320","label":"La Talaudiere","lat":45.47603,"lon":4.42607,"type":"city"},{"id":"fr-3006283","label":"La Teste-de-Buch","lat":44.63278,"lon":-1.14513,"type":"city"},{"id":"fr-11919762","label":"La Timone","lat":43.28847,"lon":5.41447,"type":"city"},{"id":"fr-3006202","label":"La Tour-du-Pin","lat":45.566,"lon":5.44487,"type":"city"},{"id":"fr-3006152","label":"La Trinite","lat":43.7405,"lon":7.314,"type":"city"},{"id":"fr-3006131","label":"La Tronche","lat":45.20507,"lon":5.74629,"type":"city"},{"id":"fr-11919767","label":"La Valbarelle","lat":43.28494,"lon":5.45387,"type":"city"},{"id":"fr-3005825","label":"La Valette-du-Var","lat":43.13763,"lon":5.98317,"type":"city"},{"id":"fr-3005651","label":"La Verpilliere","lat":45.63417,"lon":5.1456,"type":"city"},{"id":"fr-3005639","label":"La Verriere","lat":48.752,"lon":1.94649,"type":"city"},{"id":"fr-3005524","label":"La Ville-du-Bois","lat":48.65521,"lon":2.26833,"type":"city"},{"id":"fr-11919743","label":"La Villette","lat":43.31181,"lon":5.37391,"type":"city"},{"id":"fr-11919786","label":"La Viste","lat":43.35936,"lon":5.35649,"type":"city"},{"id":"fr-3005435","label":"La Voulte-sur-Rhone","lat":44.79958,"lon":4.77925,"type":"city"},{"id":"fr-3005422","label":"La Wantzenau","lat":48.65786,"lon":7.83068,"type":"city"},{"id":"fr-3011312","label":"Labarthe-sur-Leze","lat":43.45238,"lon":1.39973,"type":"city"},{"id":"fr-3010720","label":"Labruguiere","lat":43.53862,"lon":2.2627,"type":"city"},{"id":"fr-3009073","label":"Lagnieu","lat":45.90237,"lon":5.34399,"type":"city"},{"id":"fr-3009071","label":"Lagny-sur-Marne","lat":48.86667,"lon":2.71667,"type":"city"},{"id":"fr-3009052","label":"Lagord","lat":46.18915,"lon":-1.15387,"type":"city"},{"id":"fr-3008463","label":"Lallaing","lat":50.39012,"lon":3.16949,"type":"city"},{"id":"fr-3008225","label":"Lamballe","lat":48.46808,"lon":-2.51781,"type":"city"},{"id":"fr-3008218","label":"Lambersart","lat":50.65,"lon":3.03333,"type":"city"},{"id":"fr-3008208","label":"Lambesc","lat":43.65382,"lon":5.26211,"type":"city"},{"id":"fr-3008198","label":"Lambres-lez-Douai","lat":50.36009,"lon":3.06478,"type":"city"},{"id":"fr-3008074","label":"Lamorlaye","lat":49.16246,"lon":2.44687,"type":"city"},{"id":"fr-3007912","label":"Lancon-Provence","lat":43.59266,"lon":5.12789,"type":"city"},{"id":"fr-3007874","label":"Landerneau","lat":48.4515,"lon":-4.25175,"type":"city"},{"id":"fr-3007842","label":"Landivisiau","lat":48.50906,"lon":-4.06906,"type":"city"},{"id":"fr-3007794","label":"Lanester","lat":47.76316,"lon":-3.3393,"type":"city"},{"id":"fr-3007780","label":"Laneuveville-devant-Nancy","lat":48.65659,"lon":6.22658,"type":"city"},{"id":"fr-3007691","label":"Langon","lat":44.55277,"lon":-0.24986,"type":"city"},{"id":"fr-3007680","label":"Langres","lat":47.86263,"lon":5.33308,"type":"city"},{"id":"fr-3007666","label":"Langueux","lat":48.49528,"lon":-2.71823,"type":"city"},{"id":"fr-3007663","label":"Languidic","lat":47.83358,"lon":-3.15811,"type":"city"},{"id":"fr-3007622","label":"Lannemezan","lat":43.12517,"lon":0.38401,"type":"city"},{"id":"fr-3007609","label":"Lannion","lat":48.73264,"lon":-3.45657,"type":"city"},{"id":"fr-3007508","label":"Lanton","lat":44.70712,"lon":-1.03968,"type":"city"},{"id":"fr-3007477","label":"Laon","lat":49.5631,"lon":3.62714,"type":"city"},{"id":"fr-3006876","label":"Larmor-Plage","lat":47.70646,"lon":-3.38339,"type":"city"},{"id":"fr-3006121","label":"Lattes","lat":43.56775,"lon":3.90279,"type":"city"},{"id":"fr-3006056","label":"Laudun-l'Ardoise","lat":44.10482,"lon":4.65728,"type":"city"},{"id":"fr-3006035","label":"Launaguet","lat":43.67818,"lon":1.45603,"type":"city"},{"id":"fr-3005866","label":"Laval","lat":48.07247,"lon":-0.77019,"type":"city"},{"id":"fr-3005735","label":"Lavaur","lat":43.69886,"lon":1.81211,"type":"city"},{"id":"fr-3005712","label":"Lavelanet","lat":42.93267,"lon":1.84844,"type":"city"},{"id":"fr-3005417","label":"Laxou","lat":48.68372,"lon":6.14929,"type":"city"},{"id":"fr-3005326","label":"Le Beausset","lat":43.19822,"lon":5.80267,"type":"city"},{"id":"fr-3005270","label":"Le Blanc","lat":46.63371,"lon":1.06272,"type":"city"},{"id":"fr-3005269","label":"Le Blanc-Mesnil","lat":48.93872,"lon":2.46138,"type":"city"},{"id":"fr-3005082","label":"Le Bourget","lat":48.93405,"lon":2.43584,"type":"city"},{"id":"fr-3005066","label":"Le Bouscat","lat":44.86488,"lon":-0.59864,"type":"city"},{"id":"fr-11919760","label":"Le Cabot","lat":43.25884,"lon":5.41729,"type":"city"},{"id":"fr-11919749","label":"Le Camas","lat":43.29469,"lon":5.39415,"type":"city"},{"id":"fr-3004872","label":"Le Canet","lat":43.32611,"lon":5.3723,"type":"city"},{"id":"fr-3004871","label":"Le Cannet","lat":43.57662,"lon":7.01912,"type":"city"},{"id":"fr-3004811","label":"Le Cendre","lat":45.7224,"lon":3.18711,"type":"city"},{"id":"fr-3004775","label":"Le Chambon-Feugerolles","lat":45.39145,"lon":4.32149,"type":"city"},{"id":"fr-11919712","label":"Le Chapitre","lat":43.30053,"lon":5.38433,"type":"city"},{"id":"fr-3004630","label":"Le Chesnay","lat":48.8222,"lon":2.12213,"type":"city"},{"id":"fr-3004492","label":"Le Coteau","lat":46.01919,"lon":4.0923,"type":"city"},{"id":"fr-3004434","label":"Le Cres","lat":43.64763,"lon":3.9388,"type":"city"},{"id":"fr-3004427","label":"Le Creusot","lat":46.80714,"lon":4.41632,"type":"city"},{"id":"fr-3003952","label":"Le Grand-Quevilly","lat":49.40076,"lon":1.04582,"type":"city"},{"id":"fr-3003918","label":"Le Grau-du-Roi","lat":43.53881,"lon":4.13559,"type":"city"},{"id":"fr-3003859","label":"Le Haillan","lat":44.87161,"lon":-0.67691,"type":"city"},{"id":"fr-3003796","label":"Le Havre","lat":49.49346,"lon":0.10785,"type":"city"},{"id":"fr-3003737","label":"Le Kremlin-Bicetre","lat":48.81471,"lon":2.36073,"type":"city"},{"id":"fr-3003713","label":"Le Lavandou","lat":43.137,"lon":6.366,"type":"city"},{"id":"fr-3003661","label":"Le Loroux-Bottereau","lat":47.23797,"lon":-1.34963,"type":"city"},{"id":"fr-3003650","label":"Le Luc","lat":43.39453,"lon":6.31253,"type":"city"},{"id":"fr-3003603","label":"Le Mans","lat":48.0021,"lon":0.20251,"type":"city"},{"id":"fr-3003481","label":"Le Mee-sur-Seine","lat":48.53157,"lon":2.62829,"type":"city"},{"id":"fr-3003442","label":"Le Merlan","lat":43.33875,"lon":5.40773,"type":"city"},{"id":"fr-3003391","label":"Le Mesnil-Esnard","lat":49.41319,"lon":1.14521,"type":"city"},{"id":"fr-3003375","label":"Le Mesnil-le-Roi","lat":48.93825,"lon":2.12554,"type":"city"},{"id":"fr-3003359","label":"Le Mesnil-Saint-Denis","lat":48.74485,"lon":1.95594,"type":"city"},{"id":"fr-3003148","label":"Le Muy","lat":43.4728,"lon":6.56637,"type":"city"},{"id":"fr-3003044","label":"Le Palais-sur-Vienne","lat":45.8639,"lon":1.32313,"type":"city"},{"id":"fr-3003017","label":"Le Passage","lat":44.2014,"lon":0.60347,"type":"city"},{"id":"fr-3002988","label":"Le Peage-de-Roussillon","lat":45.3738,"lon":4.79727,"type":"city"},{"id":"fr-3002984","label":"Le Pecq","lat":48.89317,"lon":2.10371,"type":"city"},{"id":"fr-3002967","label":"Le Perray-en-Yvelines","lat":48.69441,"lon":1.85643,"type":"city"},{"id":"fr-3002965","label":"Le Perreux-sur-Marne","lat":48.85,"lon":2.5,"type":"city"},{"id":"fr-3002880","label":"Le Petit-Quevilly","lat":49.41338,"lon":1.06155,"type":"city"},{"id":"fr-11919756","label":"Le Pharo","lat":43.2914,"lon":5.35829,"type":"city"},{"id":"fr-3002836","label":"Le Pian-Medoc","lat":44.95519,"lon":-0.67017,"type":"city"},{"id":"fr-3002679","label":"Le Plessis-Bouchard","lat":49,"lon":2.23333,"type":"city"},{"id":"fr-3002650","label":"Le Plessis-Robinson","lat":48.78889,"lon":2.27078,"type":"city"},{"id":"fr-3002647","label":"Le Plessis-Trevise","lat":48.81074,"lon":2.57363,"type":"city"},{"id":"fr-3002626","label":"Le Poinconnet","lat":46.7641,"lon":1.7179,"type":"city"},{"id":"fr-3002620","label":"Le Poire-sur-Vie","lat":46.76868,"lon":-1.50911,"type":"city"},{"id":"fr-3002585","label":"Le Pont-de-Claix","lat":45.12321,"lon":5.69782,"type":"city"},{"id":"fr-3002570","label":"Le Pontet","lat":43.96119,"lon":4.86008,"type":"city"},{"id":"fr-3002551","label":"Le Portel","lat":50.70559,"lon":1.57574,"type":"city"},{"id":"fr-3002534","label":"Le Pouliguen","lat":47.27187,"lon":-2.43319,"type":"city"},{"id":"fr-3002510","label":"Le Pradet","lat":43.10545,"lon":6.0235,"type":"city"},{"id":"fr-3002499","label":"Le Pre-Saint-Gervais","lat":48.88549,"lon":2.40422,"type":"city"},{"id":"fr-3002465","label":"Le Puy-en-Velay","lat":45.04366,"lon":3.88523,"type":"city"},{"id":"fr-3002443","label":"Le Puy-Sainte-Reparade","lat":43.66393,"lon":5.43493,"type":"city"},{"id":"fr-3002401","label":"Le Raincy","lat":48.89916,"lon":2.52298,"type":"city"},{"id":"fr-3002373","label":"Le Relecq-Kerhuon","lat":48.40817,"lon":-4.39676,"type":"city"},{"id":"fr-3002351","label":"Le Rheu","lat":48.1019,"lon":-1.79565,"type":"city"},{"id":"fr-3000139","label":"Le Soler","lat":42.68185,"lon":2.79305,"type":"city"},{"id":"fr-2999296","label":"Le Taillan-Medoc","lat":44.90429,"lon":-0.66997,"type":"city"},{"id":"fr-2999260","label":"Le Teich","lat":44.63389,"lon":-1.02437,"type":"city"},{"id":"fr-2999259","label":"Le Teil","lat":44.54531,"lon":4.68223,"type":"city"},{"id":"fr-2999180","label":"Le Thor","lat":43.92943,"lon":4.99543,"type":"city"},{"id":"fr-2999139","label":"Le Touquet-Paris-Plage","lat":50.52432,"lon":1.58571,"type":"city"},{"id":"fr-2999126","label":"Le Trait","lat":49.46895,"lon":0.81634,"type":"city"},{"id":"fr-2999093","label":"Le Treport","lat":50.05979,"lon":1.37583,"type":"city"},{"id":"fr-2998854","label":"Le Vesinet","lat":48.89281,"lon":2.13308,"type":"city"},{"id":"fr-3004314","label":"Leers","lat":50.68217,"lon":3.24429,"type":"city"},{"id":"fr-3004244","label":"Leffrinckoucke","lat":51.03457,"lon":2.46452,"type":"city"},{"id":"fr-3004213","label":"Leforest","lat":50.43866,"lon":3.0648,"type":"city"},{"id":"fr-3003874","label":"Leguevin","lat":43.60028,"lon":1.23236,"type":"city"},{"id":"fr-3003163","label":"Lempdes","lat":45.77097,"lon":3.19356,"type":"city"},{"id":"fr-3003093","label":"Lens","lat":50.43302,"lon":2.82791,"type":"city"},{"id":"fr-3003074","label":"Lentilly","lat":45.81873,"lon":4.66304,"type":"city"},{"id":"fr-3003067","label":"Leognan","lat":44.72901,"lon":-0.60052,"type":"city"},{"id":"fr-3002172","label":"Les Andelys","lat":49.24557,"lon":1.41168,"type":"city"},{"id":"fr-3002158","label":"Les Angles","lat":43.95452,"lon":4.76645,"type":"city"},{"id":"fr-3002138","label":"Les Arcs","lat":43.46328,"lon":6.47876,"type":"city"},{"id":"fr-11919783","label":"Les Arnavaux","lat":43.33506,"lon":5.37969,"type":"city"},{"id":"fr-3002050","label":"Les Aygalades","lat":43.35711,"lon":5.37116,"type":"city"},{"id":"fr-3001968","label":"Les Baumettes","lat":43.22641,"lon":5.41642,"type":"city"},{"id":"fr-11919771","label":"Les Caillols","lat":43.30221,"lon":5.44811,"type":"city"},{"id":"fr-11919745","label":"Les Chartreux","lat":43.31112,"lon":5.4048,"type":"city"},{"id":"fr-3001402","label":"Les Clayes-sous-Bois","lat":48.82206,"lon":1.98677,"type":"city"},{"id":"fr-3001126","label":"Les Essarts-le-Roi","lat":48.71673,"lon":1.90089,"type":"city"},{"id":"fr-11919738","label":"Les Grands Carmes","lat":43.30038,"lon":5.37275,"type":"city"},{"id":"fr-3000648","label":"Les Herbiers","lat":46.87095,"lon":-1.0156,"type":"city"},{"id":"fr-3000491","label":"Les Lilas","lat":48.87992,"lon":2.42057,"type":"city"},{"id":"fr-12319260","label":"Les Moulins","lat":43.67523,"lon":7.20456,"type":"city"},{"id":"fr-3000192","label":"Les Mureaux","lat":48.99173,"lon":1.90972,"type":"city"},{"id":"fr-3000138","label":"Les Olives","lat":43.32393,"lon":5.4584,"type":"city"},{"id":"fr-3000060","label":"Les Pavillons-sous-Bois","lat":48.90683,"lon":2.50648,"type":"city"},{"id":"fr-3000047","label":"Les Pennes-Mirabeau","lat":43.41012,"lon":5.30838,"type":"city"},{"id":"fr-2999908","label":"Les Ponts-de-Ce","lat":47.42315,"lon":-0.52477,"type":"city"},{"id":"fr-2999683","label":"Les Sables-d'Olonne","lat":46.49687,"lon":-1.7847,"type":"city"},{"id":"fr-2999572","label":"Les Sorinieres","lat":47.14744,"lon":-1.53004,"type":"city"},{"id":"fr-11919772","label":"Les Trois-Lucs","lat":43.31371,"lon":5.46248,"type":"city"},{"id":"fr-6615536","label":"Les Ulis","lat":48.68167,"lon":2.16944,"type":"city"},{"id":"fr-3001617","label":"Lescar","lat":43.33358,"lon":-0.43458,"type":"city"},{"id":"fr-3000602","label":"Lesigny","lat":48.74374,"lon":2.61518,"type":"city"},{"id":"fr-3000174","label":"Lesneven","lat":48.57157,"lon":-4.31745,"type":"city"},{"id":"fr-3000072","label":"Lesparre-Medoc","lat":45.30709,"lon":-0.93793,"type":"city"},{"id":"fr-2999838","label":"Lesquin","lat":50.58232,"lon":3.119,"type":"city"},{"id":"fr-2998975","label":"Levallois-Perret","lat":48.89389,"lon":2.28864,"type":"city"},{"id":"fr-2998644","label":"Lezignan-Corbieres","lat":43.20085,"lon":2.75745,"type":"city"},{"id":"fr-2998639","label":"Lezoux","lat":45.82689,"lon":3.37924,"type":"city"},{"id":"fr-2998532","label":"Liancourt","lat":49.33034,"lon":2.46595,"type":"city"},{"id":"fr-12319243","label":"Liberation","lat":43.71195,"lon":7.26247,"type":"city"},{"id":"fr-2998520","label":"Libercourt","lat":50.48322,"lon":3.01584,"type":"city"},{"id":"fr-2998517","label":"Libourne","lat":44.91449,"lon":-0.24186,"type":"city"},{"id":"fr-2998439","label":"Lieusaint","lat":48.63476,"lon":2.54806,"type":"city"},{"id":"fr-2998431","label":"Lievin","lat":50.4198,"lon":2.78068,"type":"city"},{"id":"fr-2998423","label":"Liffre","lat":48.21371,"lon":-1.50898,"type":"city"},{"id":"fr-2998362","label":"Ligny-en-Barrois","lat":48.68861,"lon":5.32543,"type":"city"},{"id":"fr-2998324","label":"Lille","lat":50.63391,"lon":3.05512,"type":"city"},{"id":"fr-2998322","label":"Lillebonne","lat":49.5203,"lon":0.53617,"type":"city"},{"id":"fr-2998320","label":"Lillers","lat":50.56345,"lon":2.48042,"type":"city"},{"id":"fr-2998311","label":"Limay","lat":48.99553,"lon":1.74081,"type":"city"},{"id":"fr-2998305","label":"Limeil-Brevannes","lat":48.7448,"lon":2.48705,"type":"city"},{"id":"fr-2998286","label":"Limoges","lat":45.83362,"lon":1.24759,"type":"city"},{"id":"fr-2998269","label":"Limours","lat":48.64625,"lon":2.07688,"type":"city"},{"id":"fr-2998264","label":"Limoux","lat":43.05487,"lon":2.22173,"type":"city"},{"id":"fr-2998251","label":"Linas","lat":48.63041,"lon":2.26266,"type":"city"},{"id":"fr-2998224","label":"Lingolsheim","lat":48.55752,"lon":7.68253,"type":"city"},{"id":"fr-2998209","label":"Linselles","lat":50.73708,"lon":3.07878,"type":"city"},{"id":"fr-2998150","label":"Lisieux","lat":49.1466,"lon":0.22925,"type":"city"},{"id":"fr-2998105","label":"Lisses","lat":48.60222,"lon":2.42245,"type":"city"},{"id":"fr-2998078","label":"Liverdun","lat":48.74973,"lon":6.06372,"type":"city"},{"id":"fr-2998059","label":"Livron-sur-Drome","lat":44.77689,"lon":4.8418,"type":"city"},{"id":"fr-2998056","label":"Livry-Gargan","lat":48.9193,"lon":2.54305,"type":"city"},{"id":"fr-2997996","label":"Loches","lat":47.12858,"lon":0.99522,"type":"city"},{"id":"fr-2997936","label":"Lodeve","lat":43.73178,"lon":3.31959,"type":"city"},{"id":"fr-11919753","label":"Lodi","lat":43.28663,"lon":5.38882,"type":"city"},{"id":"fr-2997904","label":"Lognes","lat":48.83541,"lon":2.62998,"type":"city"},{"id":"fr-2997841","label":"Loison-sous-Lens","lat":50.43796,"lon":2.85322,"type":"city"},{"id":"fr-2997803","label":"Lomme","lat":50.64358,"lon":2.98715,"type":"city"},{"id":"fr-2997712","label":"Longjumeau","lat":48.69307,"lon":2.29431,"type":"city"},{"id":"fr-2997698","label":"Longpont-sur-Orge","lat":48.64171,"lon":2.29278,"type":"city"},{"id":"fr-2997681","label":"Longueau","lat":49.87226,"lon":2.3588,"type":"city"},{"id":"fr-2997670","label":"Longuenesse","lat":50.73395,"lon":2.2352,"type":"city"},{"id":"fr-2997646","label":"Longuyon","lat":49.44181,"lon":5.60508,"type":"city"},{"id":"fr-2997644","label":"Longvic","lat":47.28754,"lon":5.06341,"type":"city"},{"id":"fr-2997638","label":"Longwy","lat":49.5217,"lon":5.76192,"type":"city"},{"id":"fr-2997628","label":"Lons","lat":43.31505,"lon":-0.41105,"type":"city"},{"id":"fr-2997626","label":"Lons-le-Saunier","lat":46.67535,"lon":5.55575,"type":"city"},{"id":"fr-2997621","label":"Loon-Plage","lat":50.99647,"lon":2.2177,"type":"city"},{"id":"fr-2997620","label":"Loos","lat":50.60982,"lon":3.01874,"type":"city"},{"id":"fr-2997619","label":"Loos-en-Gohelle","lat":50.45786,"lon":2.79215,"type":"city"},{"id":"fr-2997581","label":"Lorgues","lat":43.49325,"lon":6.3615,"type":"city"},{"id":"fr-2997577","label":"Lorient","lat":47.74817,"lon":-3.37177,"type":"city"},{"id":"fr-2997569","label":"Loriol-sur-Drome","lat":44.74703,"lon":4.81719,"type":"city"},{"id":"fr-2997556","label":"Lormont","lat":44.8765,"lon":-0.51919,"type":"city"},{"id":"fr-2997465","label":"Loudeac","lat":48.1776,"lon":-2.7558,"type":"city"},{"id":"fr-2997457","label":"Loudun","lat":47.00788,"lon":0.08296,"type":"city"},{"id":"fr-2997439","label":"Louhans","lat":46.62637,"lon":5.22468,"type":"city"},{"id":"fr-2997395","label":"Lourdes","lat":43.09461,"lon":-0.04611,"type":"city"},{"id":"fr-2997351","label":"Louveciennes","lat":48.86115,"lon":2.11463,"type":"city"},{"id":"fr-2997336","label":"Louviers","lat":49.21667,"lon":1.16667,"type":"city"},{"id":"fr-2997317","label":"Louvres","lat":49.0446,"lon":2.50479,"type":"city"},{"id":"fr-2997316","label":"Louvroil","lat":50.26427,"lon":3.96272,"type":"city"},{"id":"fr-2997262","label":"Luc-la-Primaube","lat":44.31439,"lon":2.53552,"type":"city"},{"id":"fr-2997246","label":"Luce","lat":48.43689,"lon":1.46359,"type":"city"},{"id":"fr-2997210","label":"Lucon","lat":46.45493,"lon":-1.16629,"type":"city"},{"id":"fr-2997184","label":"Ludres","lat":48.62032,"lon":6.16747,"type":"city"},{"id":"fr-2997148","label":"Luisant","lat":48.4295,"lon":1.47383,"type":"city"},{"id":"fr-2997116","label":"Lunel","lat":43.67778,"lon":4.13611,"type":"city"},{"id":"fr-2997110","label":"Luneville","lat":48.59273,"lon":6.49383,"type":"city"},{"id":"fr-2997076","label":"Lure","lat":47.68294,"lon":6.49658,"type":"city"},{"id":"fr-2997010","label":"Lutterbach","lat":47.75976,"lon":7.28032,"type":"city"},{"id":"fr-2996995","label":"Luxeuil-les-Bains","lat":47.8171,"lon":6.365,"type":"city"},{"id":"fr-2996986","label":"Luynes","lat":47.38441,"lon":0.5547,"type":"city"},{"id":"fr-2996944","label":"Lyon","lat":45.74906,"lon":4.84789,"type":"city"},{"id":"fr-6949674","label":"Lyon 01","lat":45.76758,"lon":4.8345,"type":"city"},{"id":"fr-6543968","label":"Lyon 02","lat":45.75423,"lon":4.83089,"type":"city"},{"id":"fr-6543969","label":"Lyon 03","lat":45.76124,"lon":4.85184,"type":"city"},{"id":"fr-6543970","label":"Lyon 04","lat":45.77507,"lon":4.82712,"type":"city"},{"id":"fr-6543971","label":"Lyon 05","lat":45.76106,"lon":4.82677,"type":"city"},{"id":"fr-6543972","label":"Lyon 06","lat":45.76788,"lon":4.85064,"type":"city"},{"id":"fr-6543973","label":"Lyon 07","lat":45.74525,"lon":4.84197,"type":"city"},{"id":"fr-6543974","label":"Lyon 08","lat":45.73626,"lon":4.86866,"type":"city"},{"id":"fr-6543975","label":"Lyon 09","lat":45.77255,"lon":4.80326,"type":"city"},{"id":"fr-2996927","label":"Lys-lez-Lannoy","lat":50.66667,"lon":3.21667,"type":"city"},{"id":"fr-2996921","label":"Mably","lat":46.06484,"lon":4.06014,"type":"city"},{"id":"fr-2996905","label":"Machecoul","lat":46.99336,"lon":-1.82298,"type":"city"},{"id":"fr-2996882","label":"Macon","lat":46.31407,"lon":4.82823,"type":"city"},{"id":"fr-13580308","label":"Magnan Beaumettes","lat":43.69566,"lon":7.24087,"type":"city"},{"id":"fr-2996802","label":"Magnanville","lat":48.96798,"lon":1.67842,"type":"city"},{"id":"fr-2996764","label":"Magny-en-Vexin","lat":49.15515,"lon":1.78669,"type":"city"},{"id":"fr-2996752","label":"Magny-les-Hameaux","lat":48.74345,"lon":2.06154,"type":"city"},{"id":"fr-2996645","label":"Mainvilliers","lat":48.45003,"lon":1.45607,"type":"city"},{"id":"fr-12808676","label":"Maison Blanche","lat":48.82586,"lon":2.3508,"type":"city"},{"id":"fr-2996568","label":"Maisons-Alfort","lat":48.81171,"lon":2.43945,"type":"city"},{"id":"fr-2996564","label":"Maisons-Laffitte","lat":48.95264,"lon":2.14521,"type":"city"},{"id":"fr-2996538","label":"Maizieres-les-Metz","lat":49.21335,"lon":6.15956,"type":"city"},{"id":"fr-2996514","label":"Malakoff","lat":48.81999,"lon":2.29998,"type":"city"},{"id":"fr-2996492","label":"Malaunay","lat":49.5271,"lon":1.04292,"type":"city"},{"id":"fr-2996448","label":"Malemort-sur-Correze","lat":45.17075,"lon":1.56393,"type":"city"},{"id":"fr-2996444","label":"Malesherbes","lat":48.29566,"lon":2.40935,"type":"city"},{"id":"fr-2996397","label":"Mallemort","lat":43.73172,"lon":5.17945,"type":"city"},{"id":"fr-11919777","label":"Malpasse","lat":43.3217,"lon":5.41551,"type":"city"},{"id":"fr-2996298","label":"Malzeville","lat":48.71235,"lon":6.18468,"type":"city"},{"id":"fr-2996291","label":"Mamers","lat":48.35043,"lon":0.36935,"type":"city"},{"id":"fr-2996255","label":"Mandelieu-la-Napoule","lat":43.54577,"lon":6.93734,"type":"city"},{"id":"fr-2996251","label":"Mandeure","lat":47.44921,"lon":6.80762,"type":"city"},{"id":"fr-2996236","label":"Manduel","lat":43.81855,"lon":4.47247,"type":"city"},{"id":"fr-2996180","label":"Manosque","lat":43.82883,"lon":5.78688,"type":"city"},{"id":"fr-2996148","label":"Mantes-la-Jolie","lat":48.99048,"lon":1.7167,"type":"city"},{"id":"fr-2996146","label":"Mantes-la-Ville","lat":48.97374,"lon":1.70253,"type":"city"},{"id":"fr-2996106","label":"Marange-Silvange","lat":49.20822,"lon":6.10426,"type":"city"},{"id":"fr-2995938","label":"Marck","lat":50.94897,"lon":1.94328,"type":"city"},{"id":"fr-2995916","label":"Marcoussis","lat":48.64026,"lon":2.23858,"type":"city"},{"id":"fr-2995908","label":"Marcq-en-Baroeul","lat":50.66667,"lon":3.08333,"type":"city"},{"id":"fr-2995854","label":"Marennes","lat":45.82268,"lon":-1.10514,"type":"city"},{"id":"fr-2995790","label":"Margny-les-Compiegne","lat":49.42559,"lon":2.81806,"type":"city"},{"id":"fr-2995782","label":"Marguerittes","lat":43.8596,"lon":4.44517,"type":"city"},{"id":"fr-2995750","label":"Marignane","lat":43.41727,"lon":5.21462,"type":"city"},{"id":"fr-2995744","label":"Marignier","lat":46.09014,"lon":6.50004,"type":"city"},{"id":"fr-2995669","label":"Marles-les-Mines","lat":50.50478,"lon":2.50882,"type":"city"},{"id":"fr-2995649","label":"Marly","lat":49.06382,"lon":6.15427,"type":"city"},{"id":"fr-2995656","label":"Marly","lat":50.34556,"lon":3.54959,"type":"city"},{"id":"fr-2995653","label":"Marly-la-Ville","lat":49.08201,"lon":2.50347,"type":"city"},{"id":"fr-2995652","label":"Marly-le-Roi","lat":48.86667,"lon":2.08333,"type":"city"},{"id":"fr-2995642","label":"Marmande","lat":44.50361,"lon":0.16546,"type":"city"},{"id":"fr-12278193","label":"Marne La Vallee","lat":48.83584,"lon":2.64241,"type":"city"},{"id":"fr-2995563","label":"Maromme","lat":49.47925,"lon":1.02375,"type":"city"},{"id":"fr-2995536","label":"Marquette-lez-Lille","lat":50.67628,"lon":3.06613,"type":"city"},{"id":"fr-2995489","label":"Marsannay-la-Cote","lat":47.27095,"lon":4.98895,"type":"city"},{"id":"fr-2995471","label":"Marseillan","lat":43.35674,"lon":3.52804,"type":"city"},{"id":"fr-2995469","label":"Marseille","lat":43.29695,"lon":5.38107,"type":"city"},{"id":"fr-7284882","label":"Marseille 01","lat":43.29814,"lon":5.38407,"type":"city"},{"id":"fr-7284883","label":"Marseille 02","lat":43.29664,"lon":5.37034,"type":"city"},{"id":"fr-7284884","label":"Marseille 03","lat":43.30257,"lon":5.37583,"type":"city"},{"id":"fr-7284885","label":"Marseille 04","lat":43.30213,"lon":5.40141,"type":"city"},{"id":"fr-7284886","label":"Marseille 05","lat":43.29551,"lon":5.40055,"type":"city"},{"id":"fr-7284887","label":"Marseille 06","lat":43.28764,"lon":5.37918,"type":"city"},{"id":"fr-7284888","label":"Marseille 07","lat":43.28289,"lon":5.36021,"type":"city"},{"id":"fr-7284889","label":"Marseille 08","lat":43.27083,"lon":5.3821,"type":"city"},{"id":"fr-7284891","label":"Marseille 09","lat":43.25433,"lon":5.4057,"type":"city"},{"id":"fr-7284890","label":"Marseille 10","lat":43.27889,"lon":5.41523,"type":"city"},{"id":"fr-7284892","label":"Marseille 11","lat":43.2907,"lon":5.4384,"type":"city"},{"id":"fr-7284893","label":"Marseille 12","lat":43.29614,"lon":5.43617,"type":"city"},{"id":"fr-7284894","label":"Marseille 13","lat":43.31856,"lon":5.40836,"type":"city"},{"id":"fr-7284895","label":"Marseille 14","lat":43.34447,"lon":5.38004,"type":"city"},{"id":"fr-7284896","label":"Marseille 15","lat":43.37224,"lon":5.35386,"type":"city"},{"id":"fr-7284897","label":"Marseille 16","lat":43.35982,"lon":5.33421,"type":"city"},{"id":"fr-9609486","label":"Marseille Endoume","lat":43.2832,"lon":5.35159,"type":"city"},{"id":"fr-9609487","label":"Marseille Saint-Victor","lat":43.28955,"lon":5.36845,"type":"city"},{"id":"fr-9609490","label":"Marseille Vauban","lat":43.28408,"lon":5.3754,"type":"city"},{"id":"fr-2995456","label":"Marsillargues","lat":43.66478,"lon":4.1767,"type":"city"},{"id":"fr-2995404","label":"Martignas-sur-Jalle","lat":44.84513,"lon":-0.78296,"type":"city"},{"id":"fr-2995387","label":"Martigues","lat":43.40735,"lon":5.05526,"type":"city"},{"id":"fr-2995339","label":"Marvejols","lat":44.55435,"lon":3.29041,"type":"city"},{"id":"fr-2995206","label":"Massy","lat":48.72692,"lon":2.28301,"type":"city"},{"id":"fr-2995150","label":"Maubeuge","lat":50.27875,"lon":3.97267,"type":"city"},{"id":"fr-2995121","label":"Mauguio","lat":43.61692,"lon":4.00739,"type":"city"},{"id":"fr-2995110","label":"Maule","lat":48.91056,"lon":1.85264,"type":"city"},{"id":"fr-2995041","label":"Maurepas","lat":48.76486,"lon":1.92923,"type":"city"},{"id":"fr-2994951","label":"Maxeville","lat":48.71324,"lon":6.16658,"type":"city"},{"id":"fr-2994935","label":"Mayenne","lat":48.30337,"lon":-0.61383,"type":"city"},{"id":"fr-2994902","label":"Mazamet","lat":43.49275,"lon":2.3736,"type":"city"},{"id":"fr-2994901","label":"Mazan","lat":44.05696,"lon":5.1268,"type":"city"},{"id":"fr-2994895","label":"Mazargues","lat":43.24622,"lon":5.39788,"type":"city"},{"id":"fr-2994837","label":"Mazingarbe","lat":50.47109,"lon":2.71544,"type":"city"},{"id":"fr-2994798","label":"Meaux","lat":48.96014,"lon":2.87885,"type":"city"},{"id":"fr-2994768","label":"Megeve","lat":45.85687,"lon":6.61775,"type":"city"},{"id":"fr-2994756","label":"Mehun-sur-Yevre","lat":47.13782,"lon":2.21105,"type":"city"},{"id":"fr-2994697","label":"Melesse","lat":48.21762,"lon":-1.69721,"type":"city"},{"id":"fr-2994651","label":"Melun","lat":48.5457,"lon":2.65356,"type":"city"},{"id":"fr-2994617","label":"Mende","lat":44.52161,"lon":3.49978,"type":"city"},{"id":"fr-2994534","label":"Mennecy","lat":48.56903,"lon":2.44384,"type":"city"},