[{"id":"ge-615893","label":"Akhalkalaki","lat":41.40514,"lon":43.48629,"type":"city"},{"id":"ge-615860","label":"Akhaltsikhe","lat":41.63952,"lon":42.98604,"type":"city"},{"id":"ge-615844","label":"Akhmeta","lat":42.03495,"lon":45.20804,"type":"city"},{"id":"ge-615776","label":"Ambrolauri","lat":42.52322,"lon":43.14982,"type":"city"},{"id":"ge-615532","label":"Batumi","lat":41.64077,"lon":41.6306,"type":"city"},{"id":"ge-615419","label":"Bolnisi","lat":41.45124,"lon":44.53835,"type":"city"},{"id":"ge-615403","label":"Borjomi","lat":41.84692,"lon":43.3971,"type":"city"},{"id":"ge-615297","label":"Chakvi","lat":41.72528,"lon":41.73278,"type":"city"},{"id":"ge-615211","label":"Chiatura","lat":42.29806,"lon":43.29889,"type":"city"},{"id":"ge-615005","label":"Dedoplistsqaro","lat":41.46566,"lon":46.10385,"type":"city"},{"id":"ge-614909","label":"Dighomi","lat":41.77278,"lon":44.73208,"type":"city"},{"id":"ge-614897","label":"Diok'nisi","lat":41.62933,"lon":42.39171,"type":"city"},{"id":"ge-614843","label":"Dusheti","lat":42.08642,"lon":44.695,"type":"city"},{"id":"ge-614622","label":"Gagra","lat":43.27858,"lon":40.27124,"type":"city"},{"id":"ge-614613","label":"Gali","lat":42.62705,"lon":41.73645,"type":"city"},{"id":"ge-614575","label":"Gardabani","lat":41.45967,"lon":45.08988,"type":"city"},{"id":"ge-614455","label":"Gori","lat":41.98532,"lon":44.1129,"type":"city"},{"id":"ge-614410","label":"Gudauri","lat":42.47797,"lon":44.47616,"type":"city"},{"id":"ge-614409","label":"Gudauta","lat":43.10191,"lon":40.62245,"type":"city"},{"id":"ge-614351","label":"Gurjaani","lat":41.74384,"lon":45.80246,"type":"city"},{"id":"ge-823854","label":"Ipnari","lat":43.228,"lon":40.333,"type":"city"},{"id":"ge-7669163","label":"Kareli","lat":42.0215,"lon":43.89553,"type":"city"},{"id":"ge-614104","label":"Kaspi","lat":41.92776,"lon":44.42355,"type":"city"},{"id":"ge-614084","label":"Kazreti","lat":41.38163,"lon":44.41974,"type":"city"},{"id":"ge-613988","label":"Khashuri","lat":41.99733,"lon":43.59905,"type":"city"},{"id":"ge-613902","label":"Khoni","lat":42.32535,"lon":42.42243,"type":"city"},{"id":"ge-613762","label":"Kobuleti","lat":41.83283,"lon":41.77823,"type":"city"},{"id":"ge-613607","label":"Kutaisi","lat":42.26791,"lon":42.69459,"type":"city"},{"id":"ge-612338","label":"Kvareli","lat":41.95493,"lon":45.81716,"type":"city"},{"id":"ge-613342","label":"Lagodekhi","lat":41.82747,"lon":46.27495,"type":"city"},{"id":"ge-613311","label":"Lanchkhuti","lat":42.08744,"lon":42.03611,"type":"city"},{"id":"ge-613074","label":"Marneuli","lat":41.48758,"lon":44.79845,"type":"city"},{"id":"ge-613071","label":"Mart'q'opi","lat":41.78733,"lon":45.02305,"type":"city"},{"id":"ge-612890","label":"Mtskheta","lat":41.84514,"lon":44.71875,"type":"city"},{"id":"ge-612652","label":"Ochamchire","lat":42.71232,"lon":41.46863,"type":"city"},{"id":"ge-612536","label":"Ozurgeti","lat":41.92336,"lon":42.00525,"type":"city"},{"id":"ge-612366","label":"Poti","lat":42.14272,"lon":41.67384,"type":"city"},{"id":"ge-612287","label":"Rustavi","lat":41.56271,"lon":44.9787,"type":"city"},{"id":"ge-612256","label":"Sachkhere","lat":42.33594,"lon":43.40575,"type":"city"},{"id":"ge-612251","label":"Sadakhlo","lat":41.2402,"lon":44.7891,"type":"city"},{"id":"ge-612230","label":"Sagarejo","lat":41.73691,"lon":45.32596,"type":"city"},{"id":"ge-612126","label":"Samtredia","lat":42.1537,"lon":42.33517,"type":"city"},{"id":"ge-612092","label":"Sartich'ala","lat":41.7179,"lon":45.1757,"type":"city"},{"id":"ge-612053","label":"Senaki","lat":42.27077,"lon":42.06334,"type":"city"},{"id":"ge-611847","label":"Sokhumi","lat":43.00697,"lon":40.9893,"type":"city"},{"id":"ge-615912","label":"Stantsiya Novyy Afon","lat":43.08056,"lon":40.83833,"type":"city"},{"id":"ge-611809","label":"Surami","lat":42.02431,"lon":43.55556,"type":"city"},{"id":"ge-611717","label":"Tbilisi","lat":41.69143,"lon":44.83412,"type":"city"},{"id":"ge-611694","label":"Telavi","lat":41.91957,"lon":45.47002,"type":"city"},{"id":"ge-611674","label":"Tetritsqaro","lat":41.54379,"lon":44.46181,"type":"city"},{"id":"ge-611584","label":"Tqibuli","lat":42.34781,"lon":42.99774,"type":"city"},{"id":"ge-611583","label":"Tqvarch'eli","lat":42.84035,"lon":41.68007,"type":"city"},{"id":"ge-611403","label":"Ts'khinvali","lat":42.22764,"lon":43.96861,"type":"city"},{"id":"ge-824288","label":"Tsqaltubo","lat":42.32858,"lon":42.59808,"type":"city"},{"id":"ge-611398","label":"Tsqnet'i","lat":41.69472,"lon":44.69861,"type":"city"},{"id":"ge-611093","label":"Zahesi","lat":41.82458,"lon":44.75361,"type":"city"},{"id":"ge-610864","label":"Zestaponi","lat":42.10752,"lon":43.03291,"type":"city"},{"id":"ge-610824","label":"Zugdidi","lat":42.5084,"lon":41.86796,"type":"city"}]