[{"id":"id-2082727","label":"Abepura","lat":-2.5964,"lon":140.6324,"type":"city"},{"id":"id-1651887","label":"Adiwerna","lat":-6.9375,"lon":109.1325,"type":"city"},{"id":"id-1651852","label":"Agats","lat":-5.54505,"lon":138.13522,"type":"city"},{"id":"id-1651763","label":"Airmadidi","lat":1.42804,"lon":124.97774,"type":"city"},{"id":"id-1651591","label":"Amahai","lat":-3.33984,"lon":128.91975,"type":"city"},{"id":"id-1651555","label":"Ambarawa","lat":-7.26333,"lon":110.3975,"type":"city"},{"id":"id-1651531","label":"Ambon","lat":-3.69583,"lon":128.18333,"type":"city"},{"id":"id-1641301","label":"Amlapura","lat":-8.45,"lon":115.61667,"type":"city"},{"id":"id-11919949","label":"Amlapura city","lat":-8.44869,"lon":115.60621,"type":"city"},{"id":"id-1651461","label":"Amuntai","lat":-2.41773,"lon":115.24941,"type":"city"},{"id":"id-1651226","label":"Arjawinangun","lat":-6.64528,"lon":108.41028,"type":"city"},{"id":"id-1651112","label":"Astanajapura","lat":-6.8017,"lon":108.6311,"type":"city"},{"id":"id-1651103","label":"Atambua","lat":-9.10611,"lon":124.8925,"type":"city"},{"id":"id-1650888","label":"Babat","lat":-7.11282,"lon":112.16354,"type":"city"},{"id":"id-1650815","label":"Baekrajan","lat":-6.7674,"lon":110.8541,"type":"city"},{"id":"id-1650670","label":"Baki","lat":-7.61278,"lon":110.78389,"type":"city"},{"id":"id-1650600","label":"Balai Pungut","lat":1.05949,"lon":101.29054,"type":"city"},{"id":"id-1650572","label":"Balapulang","lat":-7.04858,"lon":109.10056,"type":"city"},{"id":"id-1650527","label":"Balikpapan","lat":-1.26753,"lon":116.82887,"type":"city"},{"id":"id-1650460","label":"Balung","lat":-7.73333,"lon":113.91667,"type":"city"},{"id":"id-1650434","label":"Bambanglipuro","lat":-7.95,"lon":110.28333,"type":"city"},{"id":"id-1215502","label":"Banda Aceh","lat":5.54167,"lon":95.33333,"type":"city"},{"id":"id-1215498","label":"Bandar","lat":2.05,"lon":99.75,"type":"city"},{"id":"id-1624917","label":"Bandar Lampung","lat":-5.42917,"lon":105.26111,"type":"city"},{"id":"id-1650357","label":"Bandung","lat":-6.92222,"lon":107.60694,"type":"city"},{"id":"id-1650319","label":"Bangil","lat":-7.59939,"lon":112.8186,"type":"city"},{"id":"id-1650298","label":"Bangkalan","lat":-7.0455,"lon":112.7351,"type":"city"},{"id":"id-1650232","label":"Banjar","lat":-8.19,"lon":114.9675,"type":"city"},{"id":"id-1650234","label":"Banjar","lat":-7.1955,"lon":107.4313,"type":"city"},{"id":"id-1650227","label":"Banjaran","lat":-7.04528,"lon":107.58778,"type":"city"},{"id":"id-1650217","label":"Banjarbaru","lat":-3.4406,"lon":114.8365,"type":"city"},{"id":"id-1650213","label":"Banjarmasin","lat":-3.31987,"lon":114.59075,"type":"city"},{"id":"id-1650119","label":"Bantul","lat":-7.88806,"lon":110.32889,"type":"city"},{"id":"id-1650095","label":"Banyumas","lat":-7.51417,"lon":109.29417,"type":"city"},{"id":"id-1650077","label":"Banyuwangi","lat":-8.2325,"lon":114.35755,"type":"city"},{"id":"id-1650064","label":"Barabai","lat":-2.58333,"lon":115.38333,"type":"city"},{"id":"id-1215468","label":"Barus","lat":2.0106,"lon":98.3982,"type":"city"},{"id":"id-6295587","label":"Batam","lat":1.14937,"lon":104.02491,"type":"city"},{"id":"id-1649881","label":"Batang","lat":-6.4846,"lon":110.7083,"type":"city"},{"id":"id-1649824","label":"Batu","lat":-7.87,"lon":112.52833,"type":"city"},{"id":"id-8224233","label":"Batubulan","lat":-8.62379,"lon":115.26203,"type":"city"},{"id":"id-1649595","label":"Baturaden","lat":-7.3,"lon":109.21667,"type":"city"},{"id":"id-1649593","label":"Baturaja","lat":-4.12891,"lon":104.16695,"type":"city"},{"id":"id-1649541","label":"Baubau","lat":-5.4633,"lon":122.6024,"type":"city"},{"id":"id-7087175","label":"Bedugul","lat":-8.4504,"lon":115.5925,"type":"city"},{"id":"id-1649383","label":"Bejubang Dua","lat":-1.7923,"lon":103.3167,"type":"city"},{"id":"id-1649378","label":"Bekasi","lat":-6.2349,"lon":106.9896,"type":"city"},{"id":"id-1215412","label":"Belawan","lat":3.7755,"lon":98.6832,"type":"city"},{"id":"id-1649163","label":"Bengkayang","lat":0.83194,"lon":109.43589,"type":"city"},{"id":"id-1649150","label":"Bengkulu","lat":-3.80044,"lon":102.26554,"type":"city"},{"id":"id-1649125","label":"Benoa","lat":-8.7548,"lon":115.2184,"type":"city"},{"id":"id-1215395","label":"Berastagi","lat":3.19468,"lon":98.50889,"type":"city"},{"id":"id-1648918","label":"Besuki","lat":-7.73379,"lon":113.69785,"type":"city"},{"id":"id-1648844","label":"Biak","lat":-1.1767,"lon":136.082,"type":"city"},{"id":"id-1648759","label":"Bima","lat":-8.46006,"lon":118.72667,"type":"city"},{"id":"id-1215355","label":"Binjai","lat":3.6001,"lon":98.4854,"type":"city"},{"id":"id-1648691","label":"Bintuni","lat":-2.10967,"lon":133.52461,"type":"city"},{"id":"id-1215350","label":"Bireun","lat":5.203,"lon":96.7009,"type":"city"},{"id":"id-1648637","label":"Bitung","lat":1.44059,"lon":125.12824,"type":"city"},{"id":"id-1215326","label":"Blangpidie","lat":3.73956,"lon":96.83608,"type":"city"},{"id":"id-1648580","label":"Blitar","lat":-8.0983,"lon":112.1681,"type":"city"},{"id":"id-1648568","label":"Blora","lat":-6.9698,"lon":111.4186,"type":"city"},{"id":"id-1648473","label":"Bogor","lat":-6.59444,"lon":106.78917,"type":"city"},{"id":"id-1648451","label":"Bojonegoro","lat":-7.1502,"lon":111.8817,"type":"city"},{"id":"id-1648266","label":"Bondowoso","lat":-7.91346,"lon":113.82145,"type":"city"},{"id":"id-1648186","label":"Bontang","lat":0.1324,"lon":117.4854,"type":"city"},{"id":"id-1648084","label":"Boyolali","lat":-7.53306,"lon":110.59583,"type":"city"},{"id":"id-1648082","label":"Boyolangu","lat":-8.1181,"lon":111.8935,"type":"city"},{"id":"id-1647991","label":"Buaran","lat":-7.05,"lon":109.55,"type":"city"},{"id":"id-1647936","label":"Buduran","lat":-7.4281,"lon":112.7234,"type":"city"},{"id":"id-1647866","label":"Bukittinggi","lat":-0.30907,"lon":100.37055,"type":"city"},{"id":"id-1647834","label":"Bulakamba","lat":-6.8748,"lon":108.9559,"type":"city"},{"id":"id-1647638","label":"Bungku","lat":-2.5471,"lon":121.972,"type":"city"},{"id":"id-1630681","label":"Candi Prambanan","lat":-7.75,"lon":110.49417,"type":"city"},{"id":"id-1647298","label":"Caringin","lat":-6.70611,"lon":106.82139,"type":"city"},{"id":"id-1647187","label":"Ceper","lat":-7.67417,"lon":110.67889,"type":"city"},{"id":"id-1647179","label":"Cepu","lat":-7.1475,"lon":111.5906,"type":"city"},{"id":"id-1647149","label":"Ciamis","lat":-7.3257,"lon":108.3534,"type":"city"},{"id":"id-1647383","label":"Ciampea","lat":-6.55472,"lon":106.70083,"type":"city"},{"id":"id-1647142","label":"Cianjur","lat":-6.82222,"lon":107.13944,"type":"city"},{"id":"id-1647003","label":"Cibinong","lat":-6.48167,"lon":106.85417,"type":"city"},{"id":"id-1646893","label":"Cicurug","lat":-6.78139,"lon":106.7825,"type":"city"},{"id":"id-1646698","label":"Cikampek","lat":-6.41972,"lon":107.45583,"type":"city"},{"id":"id-1646678","label":"Cikarang","lat":-6.26111,"lon":107.15278,"type":"city"},{"id":"id-1985663","label":"Cikupa","lat":-6.23639,"lon":106.50833,"type":"city"},{"id":"id-1646559","label":"Cilacap","lat":-7.72639,"lon":109.00944,"type":"city"},{"id":"id-1646511","label":"Cilegon","lat":-6.0144,"lon":106.0542,"type":"city"},{"id":"id-1646494","label":"Cileungsir","lat":-6.39472,"lon":106.95917,"type":"city"},{"id":"id-1646492","label":"Cileunyi","lat":-6.93889,"lon":107.75278,"type":"city"},{"id":"id-1646448","label":"Cimahi","lat":-6.87222,"lon":107.5425,"type":"city"},{"id":"id-1646194","label":"Ciputat","lat":-6.2375,"lon":106.69556,"type":"city"},{"id":"id-1964032","label":"Ciranjang-hilir","lat":-6.82,"lon":107.25722,"type":"city"},{"id":"id-1646170","label":"Cirebon","lat":-6.7063,"lon":108.557,"type":"city"},{"id":"id-1646034","label":"Citeureup","lat":-6.48556,"lon":106.88194,"type":"city"},{"id":"id-1645978","label":"Colomadu","lat":-7.53333,"lon":110.75,"type":"city"},{"id":"id-1645976","label":"Comal","lat":-6.9053,"lon":109.5347,"type":"city"},{"id":"id-1645895","label":"Curug","lat":-6.26583,"lon":106.55639,"type":"city"},{"id":"id-1645875","label":"Curup","lat":-3.4703,"lon":102.5207,"type":"city"},{"id":"id-1639520","label":"Dabo","lat":-0.49306,"lon":104.56306,"type":"city"},{"id":"id-13645283","label":"Dalung","lat":-8.62553,"lon":115.17042,"type":"city"},{"id":"id-1645749","label":"Dampit","lat":-8.21162,"lon":112.74934,"type":"city"},{"id":"id-1645663","label":"Daruba","lat":2.05049,"lon":128.29398,"type":"city"},{"id":"id-1645565","label":"Delanggu","lat":-7.61667,"lon":110.68333,"type":"city"},{"id":"id-1215199","label":"Deli Tua","lat":3.5078,"lon":98.6839,"type":"city"},{"id":"id-1645559","label":"Demak","lat":-6.8909,"lon":110.6396,"type":"city"},{"id":"id-1645528","label":"Denpasar","lat":-8.65,"lon":115.21667,"type":"city"},{"id":"id-1645518","label":"Depok","lat":-7.7625,"lon":110.43167,"type":"city"},{"id":"id-1645524","label":"Depok","lat":-6.4,"lon":106.81861,"type":"city"},{"id":"id-1645428","label":"Diwek","lat":-7.57897,"lon":112.23109,"type":"city"},{"id":"id-1645413","label":"Dobo","lat":-5.76092,"lon":134.23405,"type":"city"},{"id":"id-1645343","label":"Dompu","lat":-8.5365,"lon":118.4634,"type":"city"},{"id":"id-1645220","label":"Driyorejo","lat":-7.3659,"lon":112.6219,"type":"city"},{"id":"id-1645154","label":"Dukuhturi","lat":-6.9,"lon":109.08333,"type":"city"},{"id":"id-1645133","label":"Dumai","lat":1.66711,"lon":101.44316,"type":"city"},{"id":"id-11023936","label":"Elelim","lat":-3.759,"lon":139.7075,"type":"city"},{"id":"id-1644932","label":"Ende","lat":-8.8432,"lon":121.6623,"type":"city"},{"id":"id-1644833","label":"Fakfak","lat":-2.92481,"lon":132.29813,"type":"city"},{"id":"id-1644608","label":"Galela","lat":1.82342,"lon":127.78889,"type":"city"},{"id":"id-1644605","label":"Galesong","lat":-5.3166,"lon":119.3661,"type":"city"},{"id":"id-1644557","label":"Gambiran Satu","lat":-8.3939,"lon":114.1464,"type":"city"},{"id":"id-1644522","label":"Gampengrejo","lat":-7.764,"lon":112.035,"type":"city"},{"id":"id-2005057","label":"Gamping Lor","lat":-7.79556,"lon":110.32639,"type":"city"},{"id":"id-1644409","label":"Garut","lat":-7.245,"lon":107.921,"type":"city"},{"id":"id-2011457","label":"Gatak","lat":-7.59083,"lon":110.70444,"type":"city"},{"id":"id-1644360","label":"Gebog","lat":-6.735,"lon":110.8444,"type":"city"},{"id":"id-1644349","label":"Gedangan","lat":-7.39083,"lon":112.72667,"type":"city"},{"id":"id-1644178","label":"Genteng","lat":-8.36667,"lon":114.15,"type":"city"},{"id":"id-1643981","label":"Godean","lat":-7.76972,"lon":110.29389,"type":"city"},{"id":"id-1643920","label":"Gombong","lat":-7.60722,"lon":109.51417,"type":"city"},{"id":"id-1643898","label":"Gongdanglegi Kulon","lat":-8.17529,"lon":112.63594,"type":"city"},{"id":"id-1643837","label":"Gorontalo","lat":0.5375,"lon":123.0625,"type":"city"},{"id":"id-1643776","label":"Gresik","lat":-7.15389,"lon":112.65611,"type":"city"},{"id":"id-1643761","label":"Grogol","lat":-7.60111,"lon":110.81861,"type":"city"},{"id":"id-1215102","label":"Gunungsitoli","lat":1.2888,"lon":97.6143,"type":"city"},{"id":"id-1643089","label":"Indralaya","lat":-3.25249,"lon":104.67555,"type":"city"},{"id":"id-1643078","label":"Indramayu","lat":-6.32639,"lon":108.32,"type":"city"},{"id":"id-1642911","label":"Jakarta","lat":-6.21462,"lon":106.84513,"type":"city"},{"id":"id-1642858","label":"Jambi City","lat":-1.6,"lon":103.61667,"type":"city"},{"id":"id-1642754","label":"Jaten","lat":-7.57722,"lon":110.8975,"type":"city"},{"id":"id-1642726","label":"Jatibarang","lat":-6.47472,"lon":108.31528,"type":"city"},{"id":"id-1642692","label":"Jatiroto","lat":-7.88333,"lon":111.11667,"type":"city"},{"id":"id-1642684","label":"Jatiwangi","lat":-6.73361,"lon":108.26278,"type":"city"},{"id":"id-2082600","label":"Jayapura","lat":-2.53371,"lon":140.71813,"type":"city"},{"id":"id-1642628","label":"Jekulo","lat":-6.8057,"lon":110.9262,"type":"city"},{"id":"id-1642588","label":"Jember","lat":-8.17211,"lon":113.69953,"type":"city"},{"id":"id-1642548","label":"Jepara","lat":-6.5924,"lon":110.671,"type":"city"},{"id":"id-1642437","label":"Jogonalan","lat":-7.70361,"lon":110.53611,"type":"city"},{"id":"id-1642414","label":"Jombang","lat":-7.54595,"lon":112.23307,"type":"city"},{"id":"id-1642317","label":"Juwana","lat":-6.715,"lon":111.1514,"type":"city"},{"id":"id-1214965","label":"Kabanjahe","lat":3.1001,"lon":98.4908,"type":"city"},{"id":"id-1642069","label":"Kalabahi","lat":-8.2151,"lon":124.5458,"type":"city"},{"id":"id-1641977","label":"Kalianget","lat":-7.0537,"lon":113.94244,"type":"city"},{"id":"id-1641792","label":"Kamal","lat":-7.16778,"lon":112.71917,"type":"city"},{"id":"id-1641342","label":"Karangampel","lat":-6.46222,"lon":108.45194,"type":"city"},{"id":"id-1641333","label":"Karanganom","lat":-7.64889,"lon":110.625,"type":"city"},{"id":"id-1999251","label":"Karangnongko","lat":-7.79556,"lon":110.58667,"type":"city"},{"id":"id-1641184","label":"Karangsembung","lat":-6.8487,"lon":108.6422,"type":"city"},{"id":"id-1641134","label":"Karawang","lat":-6.30525,"lon":107.3197,"type":"city"},{"id":"id-2010985","label":"Kartasura","lat":-7.55194,"lon":110.73778,"type":"city"},{"id":"id-8531221","label":"Karubaga","lat":-3.6994,"lon":138.4579,"type":"city"},{"id":"id-2005237","label":"Kasihan","lat":-7.82694,"lon":110.32917,"type":"city"},{"id":"id-1640972","label":"Katobu","lat":-4.8299,"lon":122.726,"type":"city"},{"id":"id-1640902","label":"Kawalu","lat":-7.3817,"lon":108.2082,"type":"city"},{"id":"id-1640889","label":"Kawasi","lat":-1.59122,"lon":127.40707,"type":"city"},{"id":"id-1640765","label":"Kebomas","lat":-7.16667,"lon":112.6333,"type":"city"},{"id":"id-1640755","label":"Kebonarun","lat":-7.70028,"lon":110.56306,"type":"city"},{"id":"id-1640660","label":"Kediri","lat":-7.81667,"lon":112.01667,"type":"city"},{"id":"id-1640585","label":"Kedungwaru","lat":-8.06667,"lon":111.91667,"type":"city"},{"id":"id-1640581","label":"Kedungwuni","lat":-6.97038,"lon":109.64794,"type":"city"},{"id":"id-1640576","label":"Kefamenanu","lat":-9.44667,"lon":124.47806,"type":"city"},{"id":"id-1640354","label":"Kencong","lat":-8.28333,"lon":113.36667,"type":"city"},{"id":"id-1640344","label":"Kendari","lat":-3.9778,"lon":122.51507,"type":"city"},{"id":"id-11012573","label":"Kenyam","lat":-4.59972,"lon":138.38417,"type":"city"},{"id":"id-1640296","label":"Kepanjen","lat":-8.1303,"lon":112.5727,"type":"city"},{"id":"id-1640293","label":"Kepi","lat":-6.52461,"lon":139.32224,"type":"city"},{"id":"id-1640185","label":"Kertosono","lat":-7.58333,"lon":112.1,"type":"city"},{"id":"id-1640138","label":"Ketanggungan","lat":-6.9383,"lon":108.891,"type":"city"},{"id":"id-1214882","label":"Kisaran","lat":2.9845,"lon":99.6158,"type":"city"},{"id":"id-1639925","label":"Klangenan","lat":-6.70944,"lon":108.44,"type":"city"},{"id":"id-1639900","label":"Klaten","lat":-7.70583,"lon":110.60639,"type":"city"},{"id":"id-1639850","label":"Klungkung","lat":-8.53333,"lon":115.4,"type":"city"},{"id":"id-11012571","label":"Kobakma","lat":-3.66417,"lon":139.065,"type":"city"},{"id":"id-13405902","label":"Kota Sambas","lat":1.36259,"lon":109.30093,"type":"city"},{"id":"id-1639524","label":"Kotabumi","lat":-4.82505,"lon":104.8817,"type":"city"},{"id":"id-1639500","label":"Kotamobagu","lat":0.74194,"lon":124.31208,"type":"city"},{"id":"id-1639431","label":"Kraksaan","lat":-7.75845,"lon":113.39624,"type":"city"},{"id":"id-1639362","label":"Kresek","lat":-6.13139,"lon":106.37972,"type":"city"},{"id":"id-1639356","label":"Krian","lat":-7.4104,"lon":112.5792,"type":"city"},{"id":"id-1639337","label":"Kroya","lat":-7.63306,"lon":109.24611,"type":"city"},{"id":"id-1639307","label":"Kuala Cenaku","lat":-0.47084,"lon":102.68268,"type":"city"},{"id":"id-1639286","label":"Kuala Tungkal","lat":-0.81623,"lon":103.46111,"type":"city"},{"id":"id-1639304","label":"Kualakapuas","lat":-3.00913,"lon":114.38759,"type":"city"},{"id":"id-1639215","label":"Kudus","lat":-6.8048,"lon":110.8405,"type":"city"},{"id":"id-1639094","label":"Kuningan","lat":-6.97583,"lon":108.48306,"type":"city"},{"id":"id-2057087","label":"Kupang","lat":-10.17083,"lon":123.60694,"type":"city"},{"id":"id-1639002","label":"Kuta","lat":-8.72332,"lon":115.17234,"type":"city"},{"id":"id-1638981","label":"Kutoarjo","lat":-7.71694,"lon":109.91278,"type":"city"},{"id":"id-1638870","label":"Labuan","lat":-6.3784,"lon":105.83,"type":"city"},{"id":"id-1638868","label":"Labuan Bajo","lat":-8.4964,"lon":119.8877,"type":"city"},{"id":"id-1637372","label":"Labuan Lombok","lat":-8.5,"lon":116.66667,"type":"city"},{"id":"id-1638874","label":"Labuha","lat":-0.62546,"lon":127.47808,"type":"city"},{"id":"id-1214800","label":"Labuhan Deli","lat":3.879,"lon":98.633,"type":"city"},{"id":"id-1638775","label":"Lahat","lat":-3.78514,"lon":103.54279,"type":"city"},{"id":"id-1214776","label":"Lahewa","lat":1.3943,"lon":97.1675,"type":"city"},{"id":"id-1638754","label":"Laikit, Laikit II (Dimembe)","lat":1.48833,"lon":124.97444,"type":"city"},{"id":"id-1638562","label":"Lamongan","lat":-7.11667,"lon":112.41667,"type":"city"},{"id":"id-1214724","label":"Langsa","lat":4.4683,"lon":97.9683,"type":"city"},{"id":"id-1638352","label":"Lasem","lat":-6.6922,"lon":111.4527,"type":"city"},{"id":"id-1638284","label":"Lawang","lat":-7.8353,"lon":112.6947,"type":"city"},{"id":"id-1638217","label":"Lebaksiu","lat":-7.0496,"lon":109.1441,"type":"city"},{"id":"id-7302172","label":"Legian","lat":-8.70415,"lon":115.17028,"type":"city"},{"id":"id-1638063","label":"Lembang","lat":-6.81167,"lon":107.6175,"type":"city"},{"id":"id-1638059","label":"Lembar","lat":-8.7264,"lon":116.0744,"type":"city"},{"id":"id-1966184","label":"Leuwiliang","lat":-7.11694,"lon":107.50194,"type":"city"},{"id":"id-1637833","label":"Lewoleba","lat":-8.3723,"lon":123.418,"type":"city"},{"id":"id-1214658","label":"Lhokseumawe","lat":5.1801,"lon":97.1507,"type":"city"},{"id":"id-1637510","label":"Loa Janan","lat":-0.58295,"lon":117.09503,"type":"city"},{"id":"id-8051286","label":"Lovina","lat":-8.14927,"lon":115.03999,"type":"city"},{"id":"id-1637158","label":"Lubuklinggau","lat":-3.2945,"lon":102.8614,"type":"city"},{"id":"id-1637090","label":"Lumajang","lat":-8.1335,"lon":113.2248,"type":"city"},{"id":"id-1637001","label":"Luwuk","lat":-0.9516,"lon":122.7875,"type":"city"},{"id":"id-1636990","label":"Maba","lat":0.7007,"lon":128.29197,"type":"city"},{"id":"id-1636930","label":"Madiun","lat":-7.6298,"lon":111.5239,"type":"city"},{"id":"id-1636884","label":"Magelang","lat":-7.47056,"lon":110.21778,"type":"city"},{"id":"id-1636816","label":"Majalengka","lat":-6.83611,"lon":108.22778,"type":"city"},{"id":"id-1636808","label":"Majenang","lat":-7.2975,"lon":108.7642,"type":"city"},{"id":"id-1636806","label":"Majene","lat":-3.5403,"lon":118.9707,"type":"city"},{"id":"id-1622786","label":"Makassar","lat":-5.14861,"lon":119.43194,"type":"city"},{"id":"id-1636722","label":"Malang","lat":-7.9797,"lon":112.6304,"type":"city"},{"id":"id-1636657","label":"Malinau","lat":3.58855,"lon":116.62391,"type":"city"},{"id":"id-1636556","label":"Mamuju","lat":-2.68056,"lon":118.88611,"type":"city"},{"id":"id-1636544","label":"Manado","lat":1.48218,"lon":124.84892,"type":"city"},{"id":"id-1636426","label":"Manggar","lat":-2.88333,"lon":108.26667,"type":"city"},{"id":"id-1636322","label":"Manismata","lat":-2.46667,"lon":111.03333,"type":"city"},{"id":"id-1636308","label":"Manokwari","lat":-0.86291,"lon":134.06402,"type":"city"},{"id":"id-1636125","label":"Margahayukencana","lat":-6.97083,"lon":107.5675,"type":"city"},{"id":"id-1636121","label":"Margasari","lat":-7.09484,"lon":109.025,"type":"city"},{"id":"id-1636029","label":"Maros","lat":-5.006,"lon":119.5727,"type":"city"},{"id":"id-1636022","label":"Martapura","lat":-3.4109,"lon":114.8642,"type":"city"},{"id":"id-1635984","label":"Masamba","lat":-2.5537,"lon":120.3279,"type":"city"},{"id":"id-8667930","label":"Masohi","lat":-3.29833,"lon":128.96882,"type":"city"},{"id":"id-1635882","label":"Mataram","lat":-8.58333,"lon":116.11667,"type":"city"},{"id":"id-1635815","label":"Maumere","lat":-8.6199,"lon":122.2111,"type":"city"},{"id":"id-1214520","label":"Medan","lat":3.58333,"lon":98.66667,"type":"city"},{"id":"id-1635660","label":"Melati","lat":-7.73333,"lon":110.36667,"type":"city"},{"id":"id-1636507","label":"Mendaha","lat":-1.0163,"lon":103.59331,"type":"city"},{"id":"id-2082539","label":"Merauke","lat":-8.49958,"lon":140.40613,"type":"city"},{"id":"id-1635342","label":"Mertoyudan","lat":-7.52,"lon":110.22639,"type":"city"},{"id":"id-1635283","label":"Metro","lat":-5.11306,"lon":105.30667,"type":"city"},{"id":"id-1214488","label":"Meulaboh","lat":4.14402,"lon":96.12664,"type":"city"},{"id":"id-1635164","label":"Mlonggo","lat":-6.53333,"lon":110.7,"type":"city"},{"id":"id-1635116","label":"Mojoagung","lat":-7.56667,"lon":112.35,"type":"city"},{"id":"id-1635111","label":"Mojokerto","lat":-7.4664,"lon":112.4338,"type":"city"},{"id":"id-1634954","label":"Mranggen","lat":-7.0268,"lon":110.5158,"type":"city"},{"id":"id-1634904","label":"Muara Bungo","lat":-1.49018,"lon":102.1149,"type":"city"},{"id":"id-1634788","label":"Muara Teweh","lat":-0.94734,"lon":114.8962,"type":"city"},{"id":"id-1634879","label":"Muarajawa","lat":-0.63333,"lon":117.3,"type":"city"},{"id":"id-1634739","label":"Mulia","lat":-3.71472,"lon":137.98528,"type":"city"},{"id":"id-1634718","label":"Muncar","lat":-8.43333,"lon":114.33333,"type":"city"},{"id":"id-1634710","label":"Munduk","lat":-8.26866,"lon":115.07947,"type":"city"},{"id":"id-1634680","label":"Muntilan","lat":-7.58111,"lon":110.29278,"type":"city"},{"id":"id-1634678","label":"Muntok","lat":-2.06719,"lon":105.16228,"type":"city"},{"id":"id-1634614","label":"Nabire","lat":-3.35989,"lon":135.50074,"type":"city"},{"id":"id-1214428","label":"Nainggolan","lat":2.4361,"lon":98.8852,"type":"city"},{"id":"id-1634519","label":"Namlea","lat":-3.26194,"lon":127.09292,"type":"city"},{"id":"id-1634511","label":"Namrole","lat":-3.84548,"lon":126.72619,"type":"city"},{"id":"id-1634266","label":"Negara","lat":-8.35694,"lon":114.61694,"type":"city"},{"id":"id-1634131","label":"Nganjuk","lat":-7.6051,"lon":111.9035,"type":"city"},{"id":"id-1634098","label":"Ngawi","lat":-7.4038,"lon":111.4461,"type":"city"},{"id":"id-2010971","label":"Ngemplak","lat":-7.54972,"lon":110.71639,"type":"city"},{"id":"id-1634010","label":"Ngoro","lat":-7.68386,"lon":112.25804,"type":"city"},{"id":"id-1633986","label":"Ngunut","lat":-8.1058,"lon":112.01591,"type":"city"},{"id":"id-1633811","label":"Nunukan","lat":4.13841,"lon":117.6507,"type":"city"},{"id":"id-1633442","label":"Paciran","lat":-6.87666,"lon":112.37606,"type":"city"},{"id":"id-1963770","label":"Padalarang","lat":-6.83778,"lon":107.47278,"type":"city"},{"id":"id-1633419","label":"Padang","lat":-0.94924,"lon":100.35427,"type":"city"},{"id":"id-1633375","label":"Padangpanjang","lat":-0.45602,"lon":100.40521,"type":"city"},{"id":"id-1214369","label":"Padangsidempuan","lat":1.37952,"lon":99.27146,"type":"city"},{"id":"id-1633308","label":"Pagar Alam","lat":-4.02506,"lon":103.24694,"type":"city"},{"id":"id-1633182","label":"Pakisaji","lat":-8.0665,"lon":112.5981,"type":"city"},{"id":"id-1633118","label":"Palangkaraya","lat":-2.20833,"lon":113.91667,"type":"city"},{"id":"id-1633070","label":"Palembang","lat":-2.91673,"lon":104.7458,"type":"city"},{"id":"id-1633056","label":"Palimanan","lat":-6.70694,"lon":108.42417,"type":"city"},{"id":"id-1633037","label":"Palopo","lat":-2.9925,"lon":120.19694,"type":"city"},{"id":"id-1633034","label":"Palu","lat":-0.90833,"lon":119.87083,"type":"city"},{"id":"id-1632998","label":"Pamanukan","lat":-6.28417,"lon":107.81056,"type":"city"},{"id":"id-1632978","label":"Pamekasan","lat":-7.1568,"lon":113.4746,"type":"city"},{"id":"id-1632974","label":"Pameungpeuk","lat":-7.01833,"lon":107.60389,"type":"city"},{"id":"id-1632937","label":"Pamulang","lat":-6.34278,"lon":106.73833,"type":"city"},{"id":"id-1632903","label":"Panarukan","lat":-7.70181,"lon":113.91844,"type":"city"},{"id":"id-1632859","label":"Pandaan","lat":-7.65268,"lon":112.6875,"type":"city"},{"id":"id-1632861","label":"Pandak","lat":-7.91306,"lon":110.29361,"type":"city"},{"id":"id-1632823","label":"Pandeglang","lat":-6.3084,"lon":106.1067,"type":"city"},{"id":"id-1214302","label":"Pangkalan Brandan","lat":4.0238,"lon":98.2782,"type":"city"},{"id":"id-1632694","label":"Pangkalanbuun","lat":-2.6832,"lon":111.6259,"type":"city"},{"id":"id-1632654","label":"Pangkalpinang","lat":-2.12914,"lon":106.11377,"type":"city"},{"id":"id-1214294","label":"Pangururan","lat":2.6081,"lon":98.6961,"type":"city"},{"id":"id-1632566","label":"Panji","lat":-7.72528,"lon":114.09954,"type":"city"},{"id":"id-1214135","label":"Parapat","lat":2.663,"lon":98.9349,"type":"city"},{"id":"id-1632358","label":"Pare","lat":-7.7679,"lon":112.198,"type":"city"},{"id":"id-1632353","label":"Parepare","lat":-4.0135,"lon":119.6255,"type":"city"},{"id":"id-1632334","label":"Pariaman","lat":-0.61898,"lon":100.11997,"type":"city"},{"id":"id-1214257","label":"Parmonangan","lat":2.397,"lon":99.0515,"type":"city"},{"id":"id-1214256","label":"Paropo","lat":2.8663,"lon":98.5211,"type":"city"},{"id":"id-1632276","label":"Parung","lat":-6.42139,"lon":106.73306,"type":"city"},{"id":"id-1632228","label":"Pasarkemis","lat":-6.17028,"lon":106.53028,"type":"city"},{"id":"id-1632197","label":"Paseh","lat":-7.068,"lon":107.794,"type":"city"},{"id":"id-1632033","label":"Pasuruan","lat":-7.6453,"lon":112.9075,"type":"city"},{"id":"id-1631992","label":"Pati","lat":-6.7559,"lon":111.038,"type":"city"},{"id":"id-1631905","label":"Payakumbuh","lat":-0.2159,"lon":100.6334,"type":"city"},{"id":"id-1631851","label":"Pecangaan","lat":-6.6978,"lon":110.7107,"type":"city"},{"id":"id-1631766","label":"Pekalongan","lat":-6.8886,"lon":109.6753,"type":"city"},{"id":"id-8449493","label":"Pekan Bahapal","lat":3.11313,"lon":99.17352,"type":"city"},{"id":"id-1631761","label":"Pekanbaru","lat":0.51667,"lon":101.44167,"type":"city"},{"id":"id-1631733","label":"Pelabuhanratu","lat":-6.9875,"lon":106.55139,"type":"city"},{"id":"id-1631648","label":"Pemalang","lat":-6.89193,"lon":109.38263,"type":"city"},{"id":"id-1631637","label":"Pemangkat","lat":1.16667,"lon":108.96667,"type":"city"},{"id":"id-1214204","label":"Pematangsiantar","lat":2.9595,"lon":99.0687,"type":"city"},{"id":"id-1214191","label":"Perbaungan","lat":3.5679,"lon":98.956,"type":"city"},{"id":"id-1214189","label":"Percut","lat":3.6253,"lon":98.864,"type":"city"},{"id":"id-1630997","label":"Plumbon","lat":-6.705,"lon":108.47278,"type":"city"},{"id":"id-1630935","label":"Polewali","lat":-3.4324,"lon":119.3435,"type":"city"},{"id":"id-1630798","label":"Ponorogo","lat":-7.8685,"lon":111.462,"type":"city"},{"id":"id-1630789","label":"Pontianak","lat":-0.03194,"lon":109.325,"type":"city"},{"id":"id-1630723","label":"Poso","lat":-1.3959,"lon":120.7524,"type":"city"},{"id":"id-1631393","label":"Prabumulih","lat":-3.43447,"lon":104.23056,"type":"city"},{"id":"id-1630662","label":"Praya","lat":-8.70536,"lon":116.27036,"type":"city"},{"id":"id-1630649","label":"Prigen","lat":-7.68333,"lon":112.61667,"type":"city"},{"id":"id-1630634","label":"Probolinggo","lat":-7.7543,"lon":113.2159,"type":"city"},{"id":"id-1630416","label":"Pundong","lat":-7.95222,"lon":110.34861,"type":"city"},{"id":"id-1630366","label":"Purbalingga","lat":-7.38806,"lon":109.36389,"type":"city"},{"id":"id-1630341","label":"Purwakarta","lat":-6.55694,"lon":107.44333,"type":"city"},{"id":"id-1630333","label":"Purwodadi","lat":-7.0868,"lon":110.9158,"type":"city"},{"id":"id-1630328","label":"Purwokerto","lat":-7.42139,"lon":109.23444,"type":"city"},{"id":"id-1630238","label":"Raha","lat":-4.838,"lon":122.7209,"type":"city"},{"id":"id-1630200","label":"Rajapolah","lat":-7.221,"lon":108.1896,"type":"city"},{"id":"id-13118656","label":"Ranai Kota","lat":3.94005,"lon":108.37771,"type":"city"},{"id":"id-1630088","label":"Randudongkal","lat":-7.0981,"lon":109.3243,"type":"city"},{"id":"id-1630058","label":"Rangkasbitung","lat":-6.3591,"lon":106.2494,"type":"city"},{"id":"id-1630034","label":"Ransiki","lat":-1.5083,"lon":134.1708,"type":"city"},{"id":"id-1214073","label":"Rantauprapat","lat":2.1,"lon":99.83333,"type":"city"},{"id":"id-1629974","label":"Rantepao","lat":-2.9701,"lon":119.8978,"type":"city"},{"id":"id-1629749","label":"Rembangan","lat":-6.7036,"lon":111.3416,"type":"city"},{"id":"id-1629710","label":"Rengasdengklok","lat":-6.15917,"lon":107.29806,"type":"city"},{"id":"id-1214055","label":"Reuleuet","lat":5.21667,"lon":96.28333,"type":"city"},{"id":"id-1629380","label":"Ruteng","lat":-8.61139,"lon":120.46444,"type":"city"},{"id":"id-1214026","label":"Sabang","lat":5.88969,"lon":95.31644,"type":"city"},{"id":"id-1629131","label":"Salatiga","lat":-7.33194,"lon":110.49278,"type":"city"},{"id":"id-1629001","label":"Samarinda","lat":-0.49167,"lon":117.14583,"type":"city"},{"id":"id-1628899","label":"Sampang","lat":-7.1872,"lon":113.2394,"type":"city"},{"id":"id-1628884","label":"Sampit","lat":-2.5315,"lon":112.9496,"type":"city"},{"id":"id-1628858","label":"Sanana","lat":-2.05853,"lon":125.97786,"type":"city"},{"id":"id-1628767","label":"Sangkapura","lat":-5.84525,"lon":112.65173,"type":"city"},{"id":"id-1902387","label":"Sanur","lat":-8.675,"lon":115.26111,"type":"city"},{"id":"id-1628587","label":"Sarmi","lat":-1.85302,"lon":138.75093,"type":"city"},{"id":"id-1628501","label":"Saumlaki","lat":-7.98618,"lon":131.29675,"type":"city"},{"id":"id-1628453","label":"Sawangan","lat":-6.40278,"lon":106.77444,"type":"city"},{"id":"id-1627969","label":"Selogiri","lat":-7.78333,"lon":110.86667,"type":"city"},{"id":"id-1627957","label":"Selong","lat":-8.6503,"lon":116.5318,"type":"city"},{"id":"id-1627896","label":"Semarang","lat":-6.99306,"lon":110.42083,"type":"city"},{"id":"id-1626921","label":"Sengkang","lat":-4.1279,"lon":120.0297,"type":"city"},{"id":"id-2082460","label":"Sentani","lat":-2.5691,"lon":140.5127,"type":"city"},{"id":"id-1627610","label":"Sepatan","lat":-6.11889,"lon":106.575,"type":"city"},{"id":"id-1627549","label":"Serang","lat":-6.11528,"lon":106.15417,"type":"city"},{"id":"id-7084521","label":"Seririt","lat":-8.1928,"lon":114.9388,"type":"city"},{"id":"id-1627459","label":"Serpong","lat":-6.31694,"lon":106.66417,"type":"city"},{"id":"id-1627453","label":"Serui","lat":-1.8802,"lon":136.2426,"type":"city"},{"id":"id-1627357","label":"Sewon","lat":-7.87639,"lon":110.35889,"type":"city"},{"id":"id-1213855","label":"Sibolga","lat":1.74016,"lon":98.78117,"type":"city"},{"id":"id-1627267","label":"Sidareja","lat":-7.4846,"lon":108.7923,"type":"city"},{"id":"id-1213840","label":"Sidikalang","lat":2.74899,"lon":98.3127,"type":"city"},{"id":"id-1627253","label":"Sidoarjo","lat":-7.4478,"lon":112.7183,"type":"city"},{"id":"id-1213821","label":"Sigli","lat":5.3848,"lon":95.9609,"type":"city"},{"id":"id-1627185","label":"Sijunjung","lat":-0.7005,"lon":100.9774,"type":"city"},{"id":"id-1627035","label":"Simpang","lat":-1.26424,"lon":104.09701,"type":"city"},{"id":"id-1213721","label":"Sinabang","lat":2.4803,"lon":96.3801,"type":"city"},{"id":"id-1626936","label":"Singaparna","lat":-7.3515,"lon":108.111,"type":"city"},{"id":"id-1626932","label":"Singaraja","lat":-8.112,"lon":115.08818,"type":"city"},{"id":"id-1626916","label":"Singkawang","lat":0.90925,"lon":108.98463,"type":"city"},{"id":"id-1213713","label":"Singkil","lat":2.2874,"lon":97.7884,"type":"city"},{"id":"id-1626903","label":"Singojuruh","lat":-8.31667,"lon":114.23333,"type":"city"},{"id":"id-1626899","label":"Singosari","lat":-7.8924,"lon":112.6658,"type":"city"},{"id":"id-1626895","label":"Sinjai","lat":-5.1241,"lon":120.253,"type":"city"},{"id":"id-1626887","label":"Sintang","lat":0.06667,"lon":111.5,"type":"city"},{"id":"id-1626801","label":"Situbondo","lat":-7.70623,"lon":114.00976,"type":"city"},{"id":"id-1626758","label":"Slawi","lat":-6.9816,"lon":109.1407,"type":"city"},{"id":"id-1626754","label":"Sleman","lat":-7.71556,"lon":110.35556,"type":"city"},{"id":"id-1626703","label":"Soe","lat":-9.86071,"lon":124.28395,"type":"city"},{"id":"id-1626698","label":"Sofifi","lat":0.73729,"lon":127.5588,"type":"city"},{"id":"id-1626312","label":"Sokaraja","lat":-7.45806,"lon":109.28806,"type":"city"},{"id":"id-1626673","label":"Soko","lat":-7.48315,"lon":112.42704,"type":"city"},{"id":"id-1626649","label":"Solok","lat":-0.8006,"lon":100.6571,"type":"city"},{"id":"id-1626560","label":"Soreang","lat":-7.03306,"lon":107.51833,"type":"city"},{"id":"id-1626542","label":"Sorong","lat":-0.87956,"lon":131.26104,"type":"city"},{"id":"id-8581443","label":"South Tangerang","lat":-6.28862,"lon":106.71789,"type":"city"},{"id":"id-1626498","label":"Sragen","lat":-7.42639,"lon":111.02222,"type":"city"},{"id":"id-1626493","label":"Srandakan","lat":-7.93861,"lon":110.25056,"type":"city"},{"id":"id-1626486","label":"Srono","lat":-8.40003,"lon":114.26661,"type":"city"},{"id":"id-1213655","label":"Stabat","lat":3.73335,"lon":98.45025,"type":"city"},{"id":"id-1626444","label":"Subang","lat":-6.57,"lon":107.75667,"type":"city"},{"id":"id-6713355","label":"Subulussalam","lat":2.662,"lon":97.8827,"type":"city"},{"id":"id-1626381","label":"Sukabumi","lat":-6.91806,"lon":106.92667,"type":"city"},{"id":"id-7334948","label":"Sukawati","lat":-8.4913,"lon":115.0459,"type":"city"},{"id":"id-1626185","label":"Sumbawa Besar","lat":-8.49317,"lon":117.42024,"type":"city"},{"id":"id-1626183","label":"Sumber","lat":-6.76028,"lon":108.48306,"type":"city"},{"id":"id-1626134","label":"Sumberpucung","lat":-8.15856,"lon":112.48292,"type":"city"},{"id":"id-1626103","label":"Sumedang","lat":-6.85861,"lon":107.91639,"type":"city"},{"id":"id-1626100","label":"Sumedang Utara","lat":-6.85,"lon":107.91667,"type":"city"},{"id":"id-1626099","label":"Sumenep","lat":-7.01152,"lon":113.86042,"type":"city"},{"id":"id-1625929","label":"Sungai Penuh","lat":-2.0561,"lon":101.3913,"type":"city"},{"id":"id-1625908","label":"Sungai Raya","lat":0.7,"lon":108.9,"type":"city"},{"id":"id-1625958","label":"Sungailiat","lat":-1.85442,"lon":106.12215,"type":"city"},{"id":"id-1213614","label":"Sunggal","lat":3.5765,"lon":98.6151,"type":"city"},{"id":"id-1625822","label":"Surabaya","lat":-7.24917,"lon":112.75083,"type":"city"},{"id":"id-1625812","label":"Surakarta","lat":-7.55611,"lon":110.83167,"type":"city"},{"id":"id-1625708","label":"Tabanan","lat":-8.5413,"lon":115.12522,"type":"city"},{"id":"id-1625585","label":"Tahuna","lat":3.61099,"lon":125.4858,"type":"city"},{"id":"id-1625420","label":"Taliwang","lat":-8.7449,"lon":116.8532,"type":"city"},{"id":"id-7336548","label":"Tambolaka","lat":-9.4283,"lon":119.238,"type":"city"},{"id":"id-1625084","label":"Tangerang","lat":-6.17806,"lon":106.63,"type":"city"},{"id":"id-1625067","label":"Tanggulangin","lat":-7.49958,"lon":112.69992,"type":"city"},{"id":"id-1625014","label":"Tanjung","lat":-2.1709,"lon":115.4077,"type":"city"},{"id":"id-1624974","label":"Tanjung Balai","lat":1.00005,"lon":103.42186,"type":"city"},{"id":"id-1624877","label":"Tanjung Pandan","lat":-2.73353,"lon":107.63477,"type":"city"},{"id":"id-1624863","label":"Tanjung Pinang","lat":0.91667,"lon":104.45833,"type":"city"},{"id":"id-1624827","label":"Tanjung Selor","lat":2.8375,"lon":117.36528,"type":"city"},{"id":"id-1624987","label":"Tanjungagung","lat":-3.93728,"lon":103.80465,"type":"city"},{"id":"id-1213547","label":"Tanjungbalai","lat":2.96667,"lon":99.8,"type":"city"},{"id":"id-1213530","label":"Tanjungtiram","lat":4.0613,"lon":98.3699,"type":"city"},{"id":"id-1624725","label":"Tarakan","lat":3.31332,"lon":117.59152,"type":"city"},{"id":"id-1624668","label":"Tarub","lat":-6.93333,"lon":109.16667,"type":"city"},{"id":"id-1213504","label":"Tarutung","lat":2.01467,"lon":98.96548,"type":"city"},{"id":"id-1624647","label":"Tasikmalaya","lat":-7.3274,"lon":108.2207,"type":"city"},{"id":"id-1624545","label":"Tayu","lat":-6.5397,"lon":111.0518,"type":"city"},{"id":"id-1213500","label":"Tebingtinggi","lat":3.3285,"lon":99.1625,"type":"city"},{"id":"id-1624494","label":"Tegal","lat":-6.8694,"lon":109.1402,"type":"city"},{"id":"id-1213495","label":"Teluk Dalam","lat":0.5729,"lon":97.8034,"type":"city"},{"id":"id-1213493","label":"Teluk Nibung","lat":3.001,"lon":99.8164,"type":"city"},{"id":"id-1990589","label":"Teluknaga","lat":-6.09889,"lon":106.63806,"type":"city"},{"id":"id-1624196","label":"Teminabuan","lat":-1.4416,"lon":132.01428,"type":"city"},{"id":"id-1624058","label":"Terbanggi Besar","lat":-4.87898,"lon":105.21818,"type":"city"},{"id":"id-1624041","label":"Ternate","lat":0.79065,"lon":127.38424,"type":"city"},{"id":"id-11010427","label":"Tiakur","lat":-8.15,"lon":127.795,"type":"city"},{"id":"id-1623834","label":"Timika","lat":-4.61407,"lon":136.67679,"type":"city"},{"id":"id-1623772","label":"Tiom","lat":-3.92361,"lon":138.45472,"type":"city"},{"id":"id-1623651","label":"Tobelo","lat":1.72837,"lon":128.00948,"type":"city"},{"id":"id-8433052","label":"Tobong","lat":3.29055,"lon":106.29051,"type":"city"},{"id":"id-1623502","label":"Toli-Toli","lat":1.04018,"lon":120.81764,"type":"city"},{"id":"id-1623446","label":"Tomohon","lat":1.31678,"lon":124.80379,"type":"city"},{"id":"id-1213443","label":"Tomok Bolon","lat":2.6521,"lon":98.8608,"type":"city"},{"id":"id-1623424","label":"Tondano","lat":1.3054,"lon":124.91261,"type":"city"},{"id":"id-1213442","label":"Tongging","lat":2.8985,"lon":98.5231,"type":"city"},{"id":"id-1623251","label":"Trenggalek","lat":-8.0764,"lon":111.70641,"type":"city"},{"id":"id-1623223","label":"Trucuk","lat":-7.71833,"lon":110.65889,"type":"city"},{"id":"id-1623197","label":"Tual","lat":-5.62878,"lon":132.75229,"type":"city"},{"id":"id-11033761","label":"Tuapejat","lat":-2.02833,"lon":99.58944,"type":"city"},{"id":"id-1623180","label":"Tuban","lat":-6.8976,"lon":112.0649,"type":"city"},{"id":"id-7529299","label":"Tuban","lat":-8.7427,"lon":115.1724,"type":"city"},{"id":"id-1623096","label":"Tulangan Utara","lat":-7.4737,"lon":112.6505,"type":"city"},{"id":"id-1623080","label":"Tulungagung","lat":-8.0657,"lon":111.9025,"type":"city"},{"id":"id-1622846","label":"Ubud","lat":-8.5098,"lon":115.2654,"type":"city"},{"id":"id-1622636","label":"Ungaran","lat":-7.13972,"lon":110.405,"type":"city"},{"id":"id-1622552","label":"Utan","lat":-6.17694,"lon":106.94667,"type":"city"},{"id":"id-1622318","label":"Waingapu","lat":-9.6567,"lon":120.2641,"type":"city"},{"id":"id-1622293","label":"Waisai","lat":-0.2379,"lon":130.5072,"type":"city"},{"id":"id-1622167","label":"Wamena","lat":-4.09583,"lon":138.94806,"type":"city"},{"id":"id-1622138","label":"Wanaraja","lat":-7.1749,"lon":107.9808,"type":"city"},{"id":"id-1622090","label":"Wangon","lat":-7.51611,"lon":109.05389,"type":"city"},{"id":"id-1621884","label":"Watampone","lat":-4.5386,"lon":120.3279,"type":"city"},{"id":"id-1621678","label":"Wedi","lat":-7.74306,"lon":110.57944,"type":"city"},{"id":"id-1621659","label":"Welahan","lat":-6.8,"lon":110.71667,"type":"city"},{"id":"id-1621655","label":"Weleri","lat":-6.9713,"lon":110.0666,"type":"city"},{"id":"id-1621613","label":"Weru","lat":-6.711,"lon":108.5037,"type":"city"},{"id":"id-1621520","label":"Wiradesa","lat":-6.8922,"lon":109.619,"type":"city"},{"id":"id-1621439","label":"Wongsorejo","lat":-7.9908,"lon":114.4009,"type":"city"},{"id":"id-1621416","label":"Wonopringgo","lat":-6.98333,"lon":109.61667,"type":"city"},{"id":"id-1621399","label":"Wonosari","lat":-7.96556,"lon":110.60361,"type":"city"},{"id":"id-1621395","label":"Wonosobo","lat":-7.35889,"lon":109.90306,"type":"city"},{"id":"id-1621177","label":"Yogyakarta","lat":-7.80139,"lon":110.36472,"type":"city"}]