[{"id":"il-8374203","label":"'Ar'ara BaNegev","lat":31.16046,"lon":35.02274,"type":"city"},{"id":"il-295291","label":"'Eilabun","lat":32.83675,"lon":35.40083,"type":"city"},{"id":"il-295285","label":"'Ein Mahil","lat":32.72325,"lon":35.35298,"type":"city"},{"id":"il-294654","label":"'Ilut","lat":32.71763,"lon":35.25986,"type":"city"},{"id":"il-294642","label":"'Isfiya","lat":32.71836,"lon":35.06509,"type":"city"},{"id":"il-293982","label":"'Omer","lat":31.26489,"lon":34.84766,"type":"city"},{"id":"il-295655","label":"`Ara-`Ar`ara","lat":32.49565,"lon":35.09261,"type":"city"},{"id":"il-295772","label":"Abu Ghaush","lat":31.80592,"lon":35.1093,"type":"city"},{"id":"il-295765","label":"Abu Sinan","lat":32.95891,"lon":35.17152,"type":"city"},{"id":"il-295721","label":"Acre","lat":32.92814,"lon":35.07647,"type":"city"},{"id":"il-295740","label":"Afula","lat":32.60907,"lon":35.2892,"type":"city"},{"id":"il-295411","label":"Al-Bi`na","lat":32.93046,"lon":35.27134,"type":"city"},{"id":"il-12156432","label":"AlSayid Tribe","lat":31.28252,"lon":34.91505,"type":"city"},{"id":"il-295174","label":"Ar Rayna","lat":32.7222,"lon":35.3156,"type":"city"},{"id":"il-295657","label":"Arad","lat":31.25882,"lon":35.21282,"type":"city"},{"id":"il-8199394","label":"Ariel","lat":32.1065,"lon":35.18449,"type":"city"},{"id":"il-295629","label":"Ashdod","lat":31.79213,"lon":34.64966,"type":"city"},{"id":"il-295620","label":"Ashkelon","lat":31.66926,"lon":34.57149,"type":"city"},{"id":"il-295613","label":"Atlit","lat":32.68889,"lon":34.94236,"type":"city"},{"id":"il-295584","label":"Azor","lat":32.0243,"lon":34.80632,"type":"city"},{"id":"il-295571","label":"Baqa el Gharbiya","lat":32.41806,"lon":35.04312,"type":"city"},{"id":"il-12156812","label":"Basma","lat":32.52904,"lon":35.10059,"type":"city"},{"id":"il-295553","label":"Basmat Tab'un","lat":32.73913,"lon":35.15696,"type":"city"},{"id":"il-8141252","label":"Bat Hefer","lat":32.33307,"lon":35.01272,"type":"city"},{"id":"il-295548","label":"Bat Yam","lat":32.02379,"lon":34.75185,"type":"city"},{"id":"il-295525","label":"Be'er Ya'aqov","lat":31.93864,"lon":34.83749,"type":"city"},{"id":"il-295530","label":"Beersheba","lat":31.25181,"lon":34.7913,"type":"city"},{"id":"il-295523","label":"Beit Jann","lat":32.96482,"lon":35.37701,"type":"city"},{"id":"il-295475","label":"Bet Dagan","lat":32.00191,"lon":34.82977,"type":"city"},{"id":"il-295473","label":"Bet El'azari","lat":31.84429,"lon":34.80368,"type":"city"},{"id":"il-295435","label":"Bet She'an","lat":32.49658,"lon":35.4965,"type":"city"},{"id":"il-295432","label":"Bet Shemesh","lat":31.73072,"lon":34.99293,"type":"city"},{"id":"il-12156557","label":"Binyamina-Giv'at Ada","lat":32.51824,"lon":34.95398,"type":"city"},{"id":"il-295410","label":"Binyamina-Giv`at `Ada","lat":32.52305,"lon":34.94487,"type":"city"},{"id":"il-295404","label":"Bir el Maksur","lat":32.7773,"lon":35.22066,"type":"city"},{"id":"il-12156436","label":"Bir Hadaj","lat":31.02416,"lon":34.70857,"type":"city"},{"id":"il-295515","label":"Bnei Ayish","lat":31.79,"lon":34.759,"type":"city"},{"id":"il-295514","label":"Bnei Brak","lat":32.08074,"lon":34.8338,"type":"city"},{"id":"il-11979636","label":"Bu'ayna-Nujaydat","lat":32.80966,"lon":35.36987,"type":"city"},{"id":"il-295380","label":"Bu`eina","lat":32.80634,"lon":35.36435,"type":"city"},{"id":"il-295379","label":"Buqei'a","lat":32.97803,"lon":35.33362,"type":"city"},{"id":"il-7117228","label":"Caesarea","lat":32.51888,"lon":34.90459,"type":"city"},{"id":"il-295370","label":"Dabburiya","lat":32.69256,"lon":35.37123,"type":"city"},{"id":"il-295365","label":"Daliyat al Karmel","lat":32.69383,"lon":35.04686,"type":"city"},{"id":"il-295341","label":"Deir el Asad","lat":32.9362,"lon":35.26383,"type":"city"},{"id":"il-295339","label":"Deir Hanna","lat":32.86196,"lon":35.36365,"type":"city"},{"id":"il-295328","label":"Dimona","lat":31.07079,"lon":35.03269,"type":"city"},{"id":"il-295277","label":"Eilat","lat":29.55805,"lon":34.94821,"type":"city"},{"id":"il-8428480","label":"El'ad","lat":32.04984,"lon":34.95382,"type":"city"},{"id":"il-295130","label":"Et Taiyiba","lat":32.26616,"lon":35.00893,"type":"city"},{"id":"il-295127","label":"Et Tira","lat":32.2341,"lon":34.95023,"type":"city"},{"id":"il-295122","label":"Even Yehuda","lat":32.26959,"lon":34.88759,"type":"city"},{"id":"il-295269","label":"Furaydis","lat":32.59727,"lon":34.9527,"type":"city"},{"id":"il-295080","label":"Gan Yavne","lat":31.78737,"lon":34.70659,"type":"city"},{"id":"il-295089","label":"Ganei Tikva","lat":32.05971,"lon":34.8732,"type":"city"},{"id":"il-295064","label":"Gedera","lat":31.81456,"lon":34.77998,"type":"city"},{"id":"il-294981","label":"Giv'at Shmuel","lat":32.07817,"lon":34.84858,"type":"city"},{"id":"il-281187","label":"Giv`at Hananya","lat":31.76667,"lon":35.23333,"type":"city"},{"id":"il-294999","label":"Givatayim","lat":32.07225,"lon":34.81253,"type":"city"},{"id":"il-294946","label":"Hadera","lat":32.44192,"lon":34.9039,"type":"city"},{"id":"il-294801","label":"Haifa","lat":32.81303,"lon":34.99928,"type":"city"},{"id":"il-8141842","label":"Harish","lat":32.46096,"lon":35.0435,"type":"city"},{"id":"il-294809","label":"Hatsor HaGlilit","lat":32.98234,"lon":35.54494,"type":"city"},{"id":"il-294778","label":"Herzliya","lat":32.16627,"lon":34.82536,"type":"city"},{"id":"il-8478264","label":"Herzliya Pituah","lat":32.17409,"lon":34.8028,"type":"city"},{"id":"il-294760","label":"Hod HaSharon","lat":32.15934,"lon":34.8932,"type":"city"},{"id":"il-294751","label":"Holon","lat":32.01034,"lon":34.77918,"type":"city"},{"id":"il-8374209","label":"Hura","lat":31.30084,"lon":34.93606,"type":"city"},{"id":"il-294666","label":"Hurfeish","lat":33.01762,"lon":35.34786,"type":"city"},{"id":"il-294663","label":"I'billin","lat":32.82233,"lon":35.19271,"type":"city"},{"id":"il-294658","label":"Iksal","lat":32.68164,"lon":35.32365,"type":"city"},{"id":"il-293253","label":"Jaffa","lat":32.05043,"lon":34.75224,"type":"city"},{"id":"il-294634","label":"Jaljulya","lat":32.1547,"lon":34.95372,"type":"city"},{"id":"il-294630","label":"Jatt","lat":32.39843,"lon":35.03933,"type":"city"},{"id":"il-281184","label":"Jerusalem","lat":31.76904,"lon":35.21633,"type":"city"},{"id":"il-294626","label":"Jisr ez Zarqa","lat":32.53684,"lon":34.9127,"type":"city"},{"id":"il-294622","label":"Judeida Makr","lat":32.9282,"lon":35.15705,"type":"city"},{"id":"il-294620","label":"Julis","lat":32.94267,"lon":35.18278,"type":"city"},{"id":"il-8265524","label":"Ka`abiyya-Tabbash-Hajajra","lat":32.74952,"lon":35.18368,"type":"city"},{"id":"il-294615","label":"Kabul","lat":32.86856,"lon":35.21171,"type":"city"},{"id":"il-11524864","label":"Kadima Zoran","lat":32.27782,"lon":34.9194,"type":"city"},{"id":"il-294610","label":"Kafr Kanna","lat":32.7466,"lon":35.34242,"type":"city"},{"id":"il-294608","label":"Kafr Manda","lat":32.81095,"lon":35.26071,"type":"city"},{"id":"il-294605","label":"Kafr Qari'","lat":32.50527,"lon":35.05215,"type":"city"},{"id":"il-294604","label":"Kafr Qasim","lat":32.11406,"lon":34.97624,"type":"city"},{"id":"il-294577","label":"Karmi'el","lat":32.90951,"lon":35.29768,"type":"city"},{"id":"il-443093","label":"Katzrin","lat":32.99194,"lon":35.69139,"type":"city"},{"id":"il-294514","label":"Kfar Saba","lat":32.175,"lon":34.90694,"type":"city"},{"id":"il-386445","label":"Kfar Vradim","lat":32.99385,"lon":35.27793,"type":"city"},{"id":"il-294600","label":"Kfar Yasif","lat":32.95451,"lon":35.1623,"type":"city"},{"id":"il-294545","label":"KfarHabad","lat":31.98793,"lon":34.8516,"type":"city"},{"id":"il-294492","label":"KfarYona","lat":32.31669,"lon":34.93507,"type":"city"},{"id":"il-293842","label":"Kiryat Gat","lat":31.60998,"lon":34.76422,"type":"city"},{"id":"il-12031840","label":"Kiryat Ono","lat":32.06124,"lon":34.85618,"type":"city"},{"id":"il-11979665","label":"Kisra - Sume'a","lat":32.97262,"lon":35.29877,"type":"city"},{"id":"il-8141161","label":"Kokhav Ya'ir","lat":32.22623,"lon":35.00222,"type":"city"},{"id":"il-8374220","label":"Kuseifa","lat":31.24535,"lon":35.0931,"type":"city"},{"id":"il-8184241","label":"Laqiyya","lat":31.3185,"lon":34.8589,"type":"city"},{"id":"il-6693244","label":"Lehavim","lat":31.37284,"lon":34.81619,"type":"city"},{"id":"il-294421","label":"Lod","lat":31.9467,"lon":34.8903,"type":"city"},{"id":"il-11979755","label":"Maale Iron","lat":32.55382,"lon":35.18412,"type":"city"},{"id":"il-293420","label":"maalot Tarshiha","lat":33.01667,"lon":35.26667,"type":"city"},{"id":"il-294387","label":"Maghar","lat":32.88888,"lon":35.40831,"type":"city"},{"id":"il-294373","label":"Majd el Kurum","lat":32.92094,"lon":35.25438,"type":"city"},{"id":"il-294303","label":"Mazkeret Batya","lat":31.85357,"lon":34.84646,"type":"city"},{"id":"il-8062538","label":"Meitar","lat":31.32726,"lon":34.93855,"type":"city"},{"id":"il-294245","label":"MevasseretTsiyyon","lat":31.80186,"lon":35.15072,"type":"city"},{"id":"il-294210","label":"Migdal Ha'Emeq","lat":32.67788,"lon":35.24158,"type":"city"},{"id":"il-294166","label":"Mitzpe Ramon","lat":30.60944,"lon":34.80111,"type":"city"},{"id":"il-282926","label":"Modi'in Makkabbim Re'ut","lat":31.89385,"lon":35.01504,"type":"city"},{"id":"il-8199378","label":"Modiin Ilit","lat":31.93221,"lon":35.04416,"type":"city"},{"id":"il-294117","label":"Nahariyya","lat":33.00892,"lon":35.09814,"type":"city"},{"id":"il-294114","label":"Nahf","lat":32.93312,"lon":35.31751,"type":"city"},{"id":"il-294098","label":"Nazareth","lat":32.70087,"lon":35.29719,"type":"city"},{"id":"il-294097","label":"Nazerat 'Illit","lat":32.70816,"lon":35.32469,"type":"city"},{"id":"il-294078","label":"Nesher","lat":32.76622,"lon":35.04425,"type":"city"},{"id":"il-294074","label":"Ness Ziona","lat":31.92933,"lon":34.79868,"type":"city"},{"id":"il-294071","label":"Netanya","lat":32.33291,"lon":34.85992,"type":"city"},{"id":"il-294068","label":"Netivot","lat":31.42305,"lon":34.58911,"type":"city"},{"id":"il-293992","label":"Ofaqim","lat":31.3141,"lon":34.62025,"type":"city"},{"id":"il-293969","label":"Or Akiva","lat":32.5064,"lon":34.92087,"type":"city"},{"id":"il-293962","label":"Or Yehuda","lat":32.02923,"lon":34.85788,"type":"city"},{"id":"il-293943","label":"Pardes Hanna Karkur","lat":32.47408,"lon":34.97781,"type":"city"},{"id":"il-293942","label":"Pardesiyya","lat":32.30577,"lon":34.90911,"type":"city"},{"id":"il-293918","label":"Petah Tiqva","lat":32.08707,"lon":34.88747,"type":"city"},{"id":"il-293896","label":"Qalansuwa","lat":32.28493,"lon":34.98106,"type":"city"},{"id":"il-294552","label":"Qiryat 'Eqron","lat":31.86119,"lon":34.82275,"type":"city"},{"id":"il-293845","label":"Qiryat Ata","lat":32.81149,"lon":35.11323,"type":"city"},{"id":"il-293844","label":"Qiryat Bialik","lat":32.8275,"lon":35.08583,"type":"city"},{"id":"il-293837","label":"Qiryat HaYovel","lat":31.76667,"lon":35.16667,"type":"city"},{"id":"il-293835","label":"Qiryat Mal'akhi","lat":31.72888,"lon":34.74632,"type":"city"},{"id":"il-293823","label":"Qiryat Tiv'on","lat":32.71217,"lon":35.12505,"type":"city"},{"id":"il-293822","label":"Qiryat Yam","lat":32.84966,"lon":35.06973,"type":"city"},{"id":"il-293821","label":"Qiryat Ye'arim","lat":31.803,"lon":35.102,"type":"city"},{"id":"il-293831","label":"QiryatMotsqin","lat":32.83706,"lon":35.0776,"type":"city"},{"id":"il-293825","label":"QiryatShmona","lat":33.21204,"lon":35.57044,"type":"city"},{"id":"il-293807","label":"Ra'anana","lat":32.1836,"lon":34.87386,"type":"city"},{"id":"il-8184212","label":"Rahat","lat":31.39547,"lon":34.75699,"type":"city"},{"id":"il-293793","label":"Rama","lat":32.93859,"lon":35.36643,"type":"city"},{"id":"il-293788","label":"Ramat Gan","lat":32.08227,"lon":34.81065,"type":"city"},{"id":"il-293783","label":"Ramat HaSharon","lat":32.14613,"lon":34.8394,"type":"city"},{"id":"il-293773","label":"Ramat Yishay","lat":32.70104,"lon":35.16433,"type":"city"},{"id":"il-293768","label":"Ramla","lat":31.92624,"lon":34.8635,"type":"city"},{"id":"il-293725","label":"Rehovot","lat":31.89421,"lon":34.81199,"type":"city"},{"id":"il-293721","label":"Rekhasim","lat":32.74958,"lon":35.10057,"type":"city"},{"id":"il-293703","label":"Rishon LeTsiyyon","lat":31.97102,"lon":34.78939,"type":"city"},{"id":"il-293690","label":"Rosh Ha'Ayin","lat":32.09556,"lon":34.95664,"type":"city"},{"id":"il-293100","label":"Safed","lat":32.96465,"lon":35.496,"type":"city"},{"id":"il-293655","label":"Sakhnin","lat":32.86506,"lon":35.29771,"type":"city"},{"id":"il-293619","label":"Sderot","lat":31.525,"lon":34.59693,"type":"city"},{"id":"il-8184332","label":"Segev Shalom","lat":31.19918,"lon":34.83956,"type":"city"},{"id":"il-293595","label":"Sha`ab","lat":32.89014,"lon":35.23885,"type":"city"},{"id":"il-293539","label":"Shefar'am","lat":32.80583,"lon":35.16895,"type":"city"},{"id":"il-12156807","label":"Shibli-Umm al-Ghanam","lat":32.68395,"lon":35.39621,"type":"city"},{"id":"il-293522","label":"Shlomi","lat":33.07186,"lon":35.14527,"type":"city"},{"id":"il-8428283","label":"Shoham","lat":31.99866,"lon":34.94559,"type":"city"},{"id":"il-293426","label":"Tamra","lat":32.85301,"lon":35.1987,"type":"city"},{"id":"il-293397","label":"Tel Aviv","lat":32.08088,"lon":34.78057,"type":"city"},{"id":"il-293354","label":"Tel Mond","lat":32.24995,"lon":34.91737,"type":"city"},{"id":"il-8310136","label":"Tel Sheva'","lat":31.24864,"lon":34.86007,"type":"city"},{"id":"il-293322","label":"Tiberias","lat":32.79396,"lon":35.53152,"type":"city"},{"id":"il-293308","label":"Tirat Karmel","lat":32.76025,"lon":34.96874,"type":"city"},{"id":"il-11979772","label":"Tsur Itshak","lat":32.24047,"lon":34.99788,"type":"city"},{"id":"il-293298","label":"Tuba Zangariya","lat":32.96612,"lon":35.59332,"type":"city"},{"id":"il-293286","label":"Umm el Fahm","lat":32.51758,"lon":35.15397,"type":"city"},{"id":"il-7498240","label":"West Jerusalem","lat":31.78199,"lon":35.21961,"type":"city"},{"id":"il-293254","label":"Yafa","lat":32.68923,"lon":35.27832,"type":"city"},{"id":"il-11979655","label":"Yanuah Jat","lat":32.9798,"lon":35.23806,"type":"city"},{"id":"il-12156671","label":"Yanuh-Jat","lat":32.98515,"lon":35.2491,"type":"city"},{"id":"il-293222","label":"Yavne","lat":31.87808,"lon":34.73983,"type":"city"},{"id":"il-293207","label":"Yehud","lat":32.03317,"lon":34.89091,"type":"city"},{"id":"il-10227184","label":"Yehud-Monosson","lat":32.0284,"lon":34.8796,"type":"city"},{"id":"il-293203","label":"Yeroham","lat":30.98822,"lon":34.93176,"type":"city"},{"id":"il-293181","label":"Yirka","lat":32.95435,"lon":35.21197,"type":"city"},{"id":"il-293153","label":"Yoqne'am 'Illit","lat":32.64661,"lon":35.09202,"type":"city"},{"id":"il-8264669","label":"Zarzir","lat":32.72754,"lon":35.21381,"type":"city"},{"id":"il-8142386","label":"Zemer","lat":32.36658,"lon":35.03312,"type":"city"},{"id":"il-293067","label":"Zikhron Ya'aqov","lat":32.56883,"lon":34.95427,"type":"city"}]