[{"id":"kp-1879682","label":"Anak","lat":38.51083,"lon":125.49417,"type":"city"},{"id":"kp-1879672","label":"Anbyon-up","lat":39.0425,"lon":127.52389,"type":"city"},{"id":"kp-1879613","label":"Anju","lat":39.61778,"lon":125.66472,"type":"city"},{"id":"kp-2045311","label":"Aoji-ri","lat":42.52182,"lon":130.39572,"type":"city"},{"id":"kp-1879544","label":"Ayang-ni","lat":38.24719,"lon":125.79476,"type":"city"},{"id":"kp-1878458","label":"Ch'ongdan-up","lat":37.97028,"lon":125.9375,"type":"city"},{"id":"kp-1889792","label":"Ch'osal-li","lat":39.40333,"lon":125.50889,"type":"city"},{"id":"kp-1879490","label":"Chaeryong-ni","lat":38.73583,"lon":125.23083,"type":"city"},{"id":"kp-1879487","label":"Chaeryong-up","lat":38.39917,"lon":125.61556,"type":"city"},{"id":"kp-2045220","label":"Changam-ch'on","lat":40.60611,"lon":128.78194,"type":"city"},{"id":"kp-1879029","label":"Changyon","lat":38.25083,"lon":125.09611,"type":"city"},{"id":"kp-2045005","label":"Chasong","lat":41.46083,"lon":126.64139,"type":"city"},{"id":"kp-2044757","label":"Chongjin","lat":41.79556,"lon":129.77583,"type":"city"},{"id":"kp-1878389","label":"Chongju","lat":39.69333,"lon":125.21028,"type":"city"},{"id":"kp-2044489","label":"Chunggang","lat":41.77722,"lon":126.87361,"type":"city"},{"id":"kp-1877872","label":"Chunghwa","lat":38.86389,"lon":125.8,"type":"city"},{"id":"kp-1877615","label":"Haeju","lat":38.04056,"lon":125.71472,"type":"city"},{"id":"kp-1877449","label":"Hamhung","lat":39.91833,"lon":127.53639,"type":"city"},{"id":"kp-2044149","label":"Hau-ri","lat":41.20056,"lon":129.47028,"type":"city"},{"id":"kp-2044104","label":"Hoemul-li","lat":41.43389,"lon":129.67,"type":"city"},{"id":"kp-2044091","label":"Hoeryong","lat":42.44113,"lon":129.74601,"type":"city"},{"id":"kp-1877148","label":"Hoeyang","lat":38.71028,"lon":127.59833,"type":"city"},{"id":"kp-2044050","label":"Hongwon","lat":40.02528,"lon":127.95583,"type":"city"},{"id":"kp-1877046","label":"Hukkyo-ri","lat":38.79861,"lon":125.79194,"type":"city"},{"id":"kp-1877030","label":"Hungnam","lat":39.84198,"lon":127.63206,"type":"city"},{"id":"kp-2043962","label":"Hwadae","lat":40.83806,"lon":129.49694,"type":"city"},{"id":"kp-1876873","label":"Hwangju-up","lat":38.67028,"lon":125.77611,"type":"city"},{"id":"kp-2042709","label":"Hwasong","lat":41.25556,"lon":129.49278,"type":"city"},{"id":"kp-2043837","label":"Hyesan","lat":41.40167,"lon":128.17778,"type":"city"},{"id":"kp-2043835","label":"Hyesan-dong","lat":41.3953,"lon":128.18727,"type":"city"},{"id":"kp-2043677","label":"Iwon-up","lat":40.32306,"lon":128.65528,"type":"city"},{"id":"kp-1876401","label":"Kaech'on","lat":39.70056,"lon":125.89333,"type":"city"},{"id":"kp-1876373","label":"Kaesong","lat":37.97083,"lon":126.55444,"type":"city"},{"id":"kp-1876153","label":"Kangdong-up","lat":39.1425,"lon":126.09611,"type":"city"},{"id":"kp-2043572","label":"Kanggye","lat":40.96946,"lon":126.58523,"type":"city"},{"id":"kp-1876124","label":"Kangnyong","lat":37.9075,"lon":125.51,"type":"city"},{"id":"kp-1876105","label":"Kangson","lat":38.93639,"lon":125.58111,"type":"city"},{"id":"kp-2043531","label":"Kapsan-up","lat":41.09028,"lon":128.29333,"type":"city"},{"id":"kp-2043484","label":"Kilju","lat":40.96417,"lon":129.32778,"type":"city"},{"id":"kp-1875790","label":"Koksan-up","lat":38.78194,"lon":126.66639,"type":"city"},{"id":"kp-2050500","label":"Komusan Il-tong","lat":42.11015,"lon":129.69919,"type":"city"},{"id":"kp-2043335","label":"Kop'ung","lat":40.60389,"lon":125.94667,"type":"city"},{"id":"kp-1875632","label":"Kosan","lat":38.85583,"lon":127.41806,"type":"city"},{"id":"kp-1875588","label":"Kowon-up","lat":39.43806,"lon":127.24306,"type":"city"},{"id":"kp-1875506","label":"Kujang-up","lat":39.86722,"lon":126.03028,"type":"city"},{"id":"kp-1875107","label":"Kusong-si","lat":39.97969,"lon":125.2529,"type":"city"},{"id":"kp-1875060","label":"Kwail-up","lat":38.44611,"lon":125.01861,"type":"city"},{"id":"kp-1875054","label":"Kwaksan","lat":39.6875,"lon":125.08278,"type":"city"},{"id":"kp-2042987","label":"Kyongsong","lat":41.58778,"lon":129.60611,"type":"city"},{"id":"kp-1874533","label":"Man'gyongdae-ri","lat":38.99182,"lon":125.65871,"type":"city"},{"id":"kp-2042893","label":"Manp'o","lat":41.15472,"lon":126.28944,"type":"city"},{"id":"kp-2042738","label":"Musan-up","lat":42.22609,"lon":129.20776,"type":"city"},{"id":"kp-2042718","label":"Myongch'on","lat":41.07056,"lon":129.42917,"type":"city"},{"id":"kp-2055401","label":"Myonggan-dong","lat":41.13722,"lon":129.49472,"type":"city"},{"id":"kp-1873757","label":"Namp'o","lat":38.7375,"lon":125.40778,"type":"city"},{"id":"kp-2042503","label":"Namyang","lat":42.95044,"lon":129.85571,"type":"city"},{"id":"kp-2042500","label":"Namyang-nodongjagu","lat":42.95389,"lon":129.85722,"type":"city"},{"id":"kp-1873172","label":"Ongjin","lat":37.93472,"lon":125.36194,"type":"city"},{"id":"kp-2042267","label":"Onsong","lat":42.95722,"lon":129.99333,"type":"city"},{"id":"kp-2042255","label":"Orang","lat":41.44778,"lon":129.65556,"type":"city"},{"id":"kp-1871871","label":"P'yongsong","lat":39.24639,"lon":125.87194,"type":"city"},{"id":"kp-1873014","label":"Paech'on-up","lat":37.99306,"lon":126.30139,"type":"city"},{"id":"kp-1950953","label":"Paek'ak","lat":39.46275,"lon":125.60594,"type":"city"},{"id":"kp-1872726","label":"Panghyon-dong","lat":39.88722,"lon":125.24139,"type":"city"},{"id":"kp-1871932","label":"Pongch'on-up","lat":38.12389,"lon":126.20472,"type":"city"},{"id":"kp-2041817","label":"Pukchin-rodongjagu","lat":40.20194,"lon":125.74833,"type":"city"},{"id":"kp-2041702","label":"Puryong-up","lat":42.06224,"lon":129.70457,"type":"city"},{"id":"kp-1871967","label":"Pyoksong-up","lat":38.0475,"lon":125.55667,"type":"city"},{"id":"kp-1871859","label":"Pyongyang","lat":39.03385,"lon":125.75432,"type":"city"},{"id":"kp-2042645","label":"Rajin","lat":42.25559,"lon":130.28308,"type":"city"},{"id":"kp-2042498","label":"Ranam","lat":41.71361,"lon":129.68444,"type":"city"},{"id":"kp-1866362","label":"Ryonggang-up","lat":38.85611,"lon":125.42444,"type":"city"},{"id":"kp-2041533","label":"Sakchu-up","lat":40.38944,"lon":125.04667,"type":"city"},{"id":"kp-1871537","label":"Samch'on","lat":38.35944,"lon":125.32586,"type":"city"},{"id":"kp-1871484","label":"Samho-rodongjagu","lat":39.9475,"lon":127.87111,"type":"city"},{"id":"kp-2041442","label":"Samjiyon-up","lat":41.80356,"lon":128.31886,"type":"city"},{"id":"kp-1871028","label":"Sangsong-ni","lat":39.16944,"lon":126.88556,"type":"city"},{"id":"kp-1870883","label":"Sariwon-si","lat":38.50722,"lon":125.75583,"type":"city"},{"id":"kp-2041164","label":"Satan","lat":42.48208,"lon":130.14303,"type":"city"},{"id":"kp-2041137","label":"Sijung","lat":41.07889,"lon":126.375,"type":"city"},{"id":"kp-1870413","label":"Sil-li","lat":39.49472,"lon":125.47361,"type":"city"},{"id":"kp-1870742","label":"Sinanju","lat":39.59806,"lon":125.60972,"type":"city"},{"id":"kp-1870648","label":"Sinch'on-up","lat":38.35323,"lon":125.48423,"type":"city"},{"id":"kp-1870586","label":"Sindo","lat":39.80639,"lon":124.23417,"type":"city"},{"id":"kp-1870434","label":"Sinmak","lat":38.41667,"lon":126.23333,"type":"city"},{"id":"kp-2040959","label":"Sinp'o","lat":40.03971,"lon":128.1943,"type":"city"},{"id":"kp-1932058","label":"Sinsang-ni","lat":39.64989,"lon":127.40729,"type":"city"},{"id":"kp-2040893","label":"Sinuiju","lat":40.10056,"lon":124.39806,"type":"city"},{"id":"kp-1870277","label":"Sinwon-up","lat":38.23532,"lon":125.76244,"type":"city"},{"id":"kp-2040674","label":"Sonbong","lat":42.35118,"lon":130.38307,"type":"city"},{"id":"kp-1869577","label":"Songhwa","lat":38.36028,"lon":125.13722,"type":"city"},{"id":"kp-2042985","label":"Songnae-ri","lat":42.81243,"lon":130.15401,"type":"city"},{"id":"kp-1869446","label":"Songnim-ni","lat":38.76349,"lon":125.64096,"type":"city"},{"id":"kp-2040480","label":"Songwon","lat":40.37704,"lon":125.87867,"type":"city"},{"id":"kp-2042704","label":"Songwon-up","lat":40.37278,"lon":126.30833,"type":"city"},{"id":"kp-1869021","label":"Sunan","lat":39.20323,"lon":125.69312,"type":"city"},{"id":"kp-1869012","label":"Sunch'on","lat":39.43167,"lon":125.93278,"type":"city"},{"id":"kp-2040316","label":"Sungam-nodongjagu","lat":41.66972,"lon":129.66889,"type":"city"},{"id":"kp-1868998","label":"Sungho 1-tong","lat":38.99139,"lon":125.97778,"type":"city"},{"id":"kp-2049653","label":"Sungjibaegam","lat":41.24278,"lon":128.79889,"type":"city"},{"id":"kp-1868578","label":"T'aet'an-up","lat":38.08822,"lon":125.2983,"type":"city"},{"id":"kp-1867927","label":"T'ongch'on-up","lat":38.95389,"lon":127.89167,"type":"city"},{"id":"kp-1868144","label":"Tokch'on","lat":39.75261,"lon":126.25798,"type":"city"},{"id":"kp-1876976","label":"Twimoraet'o","lat":38.99567,"lon":125.69026,"type":"city"},{"id":"kp-2039623","label":"Uiju","lat":40.19944,"lon":124.53167,"type":"city"},{"id":"kp-1867429","label":"Ullyul","lat":38.51389,"lon":125.18972,"type":"city"},{"id":"kp-1867377","label":"Unch'on-up","lat":38.56556,"lon":125.42722,"type":"city"},{"id":"kp-2039589","label":"Undok","lat":42.51878,"lon":130.33479,"type":"city"},{"id":"kp-13446724","label":"Unggi","lat":42.34166,"lon":130.41081,"type":"city"},{"id":"kp-2039557","label":"Ungsang-nodongjagu","lat":42.35778,"lon":130.46222,"type":"city"},{"id":"kp-1866923","label":"Wonsan","lat":39.15278,"lon":127.44361,"type":"city"},{"id":"kp-2055638","label":"Yoch'im-dong","lat":40.36174,"lon":126.65852,"type":"city"},{"id":"kp-1866587","label":"Yomju","lat":39.89297,"lon":124.59756,"type":"city"},{"id":"kp-1866569","label":"Yonan-up","lat":37.90889,"lon":126.16111,"type":"city"},{"id":"kp-1866453","label":"Yongbyon","lat":39.81333,"lon":125.80417,"type":"city"},{"id":"kp-2042249","label":"Yonggwang-up","lat":40.01833,"lon":127.45472,"type":"city"},{"id":"kp-2038902","label":"Yonsa-up","lat":41.90806,"lon":129.01111,"type":"city"},{"id":"kp-2038854","label":"Yuktae-dong","lat":40.02472,"lon":128.15972,"type":"city"}]