[{"id":"lu-12035864","label":"Belair","lat":49.6116,"lon":6.10682,"type":"city"},{"id":"lu-2960800","label":"Belvaux","lat":49.51014,"lon":5.92414,"type":"city"},{"id":"lu-2960782","label":"Bertrange","lat":49.61111,"lon":6.05,"type":"city"},{"id":"lu-2960777","label":"Bettembourg","lat":49.51861,"lon":6.10278,"type":"city"},{"id":"lu-12035866","label":"Bonnevoie-Sud","lat":49.59679,"lon":6.14719,"type":"city"},{"id":"lu-12035868","label":"Cents","lat":49.61707,"lon":6.16413,"type":"city"},{"id":"lu-2960694","label":"Cessange","lat":49.58944,"lon":6.10694,"type":"city"},{"id":"lu-2960657","label":"Diekirch","lat":49.86687,"lon":6.15451,"type":"city"},{"id":"lu-2960651","label":"Differdange","lat":49.52417,"lon":5.89139,"type":"city"},{"id":"lu-2960634","label":"Dudelange","lat":49.48056,"lon":6.0875,"type":"city"},{"id":"lu-2960596","label":"Esch-sur-Alzette","lat":49.49583,"lon":5.98056,"type":"city"},{"id":"lu-2960589","label":"Ettelbruck","lat":49.8475,"lon":6.10417,"type":"city"},{"id":"lu-12035865","label":"Gare","lat":49.60175,"lon":6.12971,"type":"city"},{"id":"lu-2960548","label":"Gasperich","lat":49.58556,"lon":6.12306,"type":"city"},{"id":"lu-2960515","label":"Grevenmacher","lat":49.67751,"lon":6.44022,"type":"city"},{"id":"lu-2960439","label":"Hollerich","lat":49.60314,"lon":6.11423,"type":"city"},{"id":"lu-7290933","label":"Howald","lat":49.58387,"lon":6.14277,"type":"city"},{"id":"lu-2960380","label":"Kirchberg","lat":49.62389,"lon":6.14944,"type":"city"},{"id":"lu-2960330","label":"Limpertsberg","lat":49.62083,"lon":6.12167,"type":"city"},{"id":"lu-2960316","label":"Luxembourg","lat":49.60982,"lon":6.13268,"type":"city"},{"id":"lu-2960299","label":"Mamer","lat":49.6275,"lon":6.02333,"type":"city"},{"id":"lu-2960277","label":"Merl","lat":49.60333,"lon":6.09556,"type":"city"},{"id":"lu-2960276","label":"Mersch","lat":49.75055,"lon":6.10627,"type":"city"},{"id":"lu-12035863","label":"Neudorf-Weimershof","lat":49.6256,"lon":6.16926,"type":"city"},{"id":"lu-2960187","label":"Petange","lat":49.55833,"lon":5.88056,"type":"city"},{"id":"lu-2960160","label":"Redange-sur-Attert","lat":49.76437,"lon":5.88997,"type":"city"},{"id":"lu-2960143","label":"Rodange","lat":49.54639,"lon":5.84083,"type":"city"},{"id":"lu-2960107","label":"Schengen","lat":49.47,"lon":6.362,"type":"city"},{"id":"lu-2960102","label":"Schifflange","lat":49.50639,"lon":6.01278,"type":"city"},{"id":"lu-2960067","label":"Soleuvre","lat":49.52148,"lon":5.93781,"type":"city"},{"id":"lu-2960054","label":"Strassen","lat":49.62056,"lon":6.07333,"type":"city"},{"id":"lu-2960010","label":"Walferdange","lat":49.66321,"lon":6.13224,"type":"city"},{"id":"lu-2959977","label":"Wiltz","lat":49.96547,"lon":5.9339,"type":"city"}]