[{"id":"ly-2220368","label":"Abu Zayyan","lat":32.09972,"lon":12.97861,"type":"city"},{"id":"ly-89113","label":"Ajdabiya","lat":30.75545,"lon":20.22625,"type":"city"},{"id":"ly-2220139","label":"Al 'Aziziyah","lat":32.53194,"lon":13.0175,"type":"city"},{"id":"ly-89090","label":"Al Abraq","lat":32.78991,"lon":22.0005,"type":"city"},{"id":"ly-89087","label":"Al Abyar","lat":32.19,"lon":20.59653,"type":"city"},{"id":"ly-2219701","label":"Al Ajaylat","lat":32.75718,"lon":12.37633,"type":"city"},{"id":"ly-2220153","label":"Al Asabi'ah","lat":32.03333,"lon":12.86667,"type":"city"},{"id":"ly-2220109","label":"Al Barakat","lat":24.894,"lon":10.18336,"type":"city"},{"id":"ly-80509","label":"Al Bardiyah","lat":31.75601,"lon":25.0853,"type":"city"},{"id":"ly-89055","label":"Al Bayda'","lat":32.76272,"lon":21.75506,"type":"city"},{"id":"ly-2215210","label":"Al Burayqah","lat":30.40624,"lon":19.57386,"type":"city"},{"id":"ly-2220061","label":"Al Ghurayfah","lat":26.52161,"lon":13.01072,"type":"city"},{"id":"ly-2219994","label":"Al Hurshah","lat":32.76472,"lon":12.67389,"type":"city"},{"id":"ly-2219960","label":"Al Jadid","lat":27.05,"lon":14.4,"type":"city"},{"id":"ly-88962","label":"Al Jawf","lat":24.1989,"lon":23.29093,"type":"city"},{"id":"ly-2219936","label":"Al Jumayl","lat":32.85286,"lon":12.0612,"type":"city"},{"id":"ly-2219918","label":"Al Khadra'","lat":32.44403,"lon":13.76735,"type":"city"},{"id":"ly-2219905","label":"Al Khums","lat":32.64861,"lon":14.26191,"type":"city"},{"id":"ly-88903","label":"Al Marj","lat":32.49257,"lon":20.82909,"type":"city"},{"id":"ly-2219812","label":"Al Mayah","lat":32.80194,"lon":12.87917,"type":"city"},{"id":"ly-2219739","label":"Al Qatrun","lat":24.95139,"lon":14.64861,"type":"city"},{"id":"ly-2219736","label":"Al Qawasim","lat":32.18418,"lon":13.06045,"type":"city"},{"id":"ly-88835","label":"Al Qubbah","lat":32.75684,"lon":22.24106,"type":"city"},{"id":"ly-12687304","label":"Al-'Aluas","lat":32.71007,"lon":13.96713,"type":"city"},{"id":"ly-2219591","label":"An Nasiriyah","lat":32.63278,"lon":12.87361,"type":"city"},{"id":"ly-2219471","label":"Ar Rayayinah","lat":32.02684,"lon":12.35643,"type":"city"},{"id":"ly-2219463","label":"Ar Rujban","lat":31.95,"lon":12.16667,"type":"city"},{"id":"ly-12687312","label":"Ar-Rahaibat","lat":31.84637,"lon":11.8436,"type":"city"},{"id":"ly-2219356","label":"As Sawani","lat":32.71667,"lon":13.06667,"type":"city"},{"id":"ly-88562","label":"At Taj","lat":24.20487,"lon":23.2857,"type":"city"},{"id":"ly-88533","label":"Awjilah","lat":29.10806,"lon":21.28694,"type":"city"},{"id":"ly-2218983","label":"Az Zahra'","lat":32.67889,"lon":12.87327,"type":"city"},{"id":"ly-2218970","label":"Az Zawiyah","lat":32.7571,"lon":12.72764,"type":"city"},{"id":"ly-88380","label":"Az Zuwaytinah","lat":30.9522,"lon":20.12022,"type":"city"},{"id":"ly-2218840","label":"Bani Walid","lat":31.74554,"lon":13.98354,"type":"city"},{"id":"ly-2218761","label":"Barqin","lat":27.54801,"lon":13.62914,"type":"city"},{"id":"ly-88319","label":"Benghazi","lat":32.11486,"lon":20.06859,"type":"city"},{"id":"ly-2218562","label":"Bin Jawwad","lat":30.80418,"lon":18.0772,"type":"city"},{"id":"ly-2218478","label":"Brak","lat":27.54956,"lon":14.27139,"type":"city"},{"id":"ly-2217774","label":"Daraj","lat":30.16502,"lon":10.45804,"type":"city"},{"id":"ly-87205","label":"Darnah","lat":32.76704,"lon":22.63669,"type":"city"},{"id":"ly-87192","label":"Daryanah","lat":32.34751,"lon":20.30933,"type":"city"},{"id":"ly-2217440","label":"Ghadames","lat":30.13366,"lon":9.50072,"type":"city"},{"id":"ly-2217362","label":"Gharyan","lat":32.17222,"lon":13.02028,"type":"city"},{"id":"ly-2217351","label":"Ghat","lat":24.96334,"lon":10.18003,"type":"city"},{"id":"ly-2216645","label":"Hun","lat":29.12684,"lon":15.94772,"type":"city"},{"id":"ly-2220309","label":"Idri","lat":27.44707,"lon":13.05173,"type":"city"},{"id":"ly-2216432","label":"Jadu","lat":31.95506,"lon":12.02901,"type":"city"},{"id":"ly-86049","label":"Jalu","lat":29.03333,"lon":21.55,"type":"city"},{"id":"ly-2216349","label":"Janzur","lat":32.81868,"lon":13.01727,"type":"city"},{"id":"ly-86002","label":"Jardas al 'Abid","lat":32.30337,"lon":20.98615,"type":"city"},{"id":"ly-2216155","label":"Kabaw","lat":31.84724,"lon":11.33055,"type":"city"},{"id":"ly-85819","label":"Kambut","lat":31.90434,"lon":24.4784,"type":"city"},{"id":"ly-2215758","label":"Kiklah","lat":32.08333,"lon":12.7,"type":"city"},{"id":"ly-85074","label":"Martubah","lat":32.57421,"lon":22.76353,"type":"city"},{"id":"ly-85026","label":"Massah","lat":32.75249,"lon":21.62807,"type":"city"},{"id":"ly-2214846","label":"Misratah","lat":32.37535,"lon":15.09254,"type":"city"},{"id":"ly-2214827","label":"Mizdah","lat":31.44934,"lon":12.9853,"type":"city"},{"id":"ly-12687313","label":"Msalatah","lat":32.58345,"lon":14.03627,"type":"city"},{"id":"ly-2214603","label":"Murzuk","lat":25.91552,"lon":13.91839,"type":"city"},{"id":"ly-2214433","label":"Nalut","lat":31.86848,"lon":10.9812,"type":"city"},{"id":"ly-84257","label":"Qaminis","lat":31.6576,"lon":20.01697,"type":"city"},{"id":"ly-84244","label":"Qandulah","lat":32.53798,"lon":21.57525,"type":"city"},{"id":"ly-12687305","label":"Qarquzah","lat":32.74572,"lon":12.84234,"type":"city"},{"id":"ly-84130","label":"Qaryat 'Umar al Mukhtar","lat":32.62978,"lon":21.67651,"type":"city"},{"id":"ly-89053","label":"Qaryat al Bayyadah","lat":32.56501,"lon":21.25415,"type":"city"},{"id":"ly-81604","label":"Qaryat Suluq","lat":31.66818,"lon":20.25205,"type":"city"},{"id":"ly-2213695","label":"Qasr al Qarabulli","lat":32.74506,"lon":13.71467,"type":"city"},{"id":"ly-2213618","label":"Qasr Bin Ghashir","lat":32.68333,"lon":13.18333,"type":"city"},{"id":"ly-2213570","label":"Qasr Khiyar","lat":32.69677,"lon":13.84634,"type":"city"},{"id":"ly-83861","label":"Qasr Libiya","lat":32.63333,"lon":21.41667,"type":"city"},{"id":"ly-2213371","label":"Qirah","lat":27.58595,"lon":14.35375,"type":"city"},{"id":"ly-2212775","label":"Sabha","lat":27.03766,"lon":14.42832,"type":"city"},{"id":"ly-2212771","label":"Sabratah","lat":32.79335,"lon":12.48845,"type":"city"},{"id":"ly-7602388","label":"Shahhat","lat":32.8043,"lon":21.86605,"type":"city"},{"id":"ly-2211464","label":"Sidi as Sayd","lat":32.33462,"lon":13.47942,"type":"city"},{"id":"ly-2212882","label":"Sidi Bin Zinah","lat":32.88718,"lon":11.98729,"type":"city"},{"id":"ly-2210554","label":"Sirte","lat":31.20892,"lon":16.58866,"type":"city"},{"id":"ly-2210627","label":"Suknah","lat":29.06941,"lon":15.78266,"type":"city"},{"id":"ly-2210560","label":"Surman","lat":32.75668,"lon":12.57159,"type":"city"},{"id":"ly-81584","label":"Susah","lat":32.89702,"lon":21.96583,"type":"city"},{"id":"ly-2210394","label":"Tajura'","lat":32.88167,"lon":13.35056,"type":"city"},{"id":"ly-2210300","label":"Tamzawah","lat":27.57154,"lon":14.20234,"type":"city"},{"id":"ly-2210242","label":"Taraghin","lat":25.92333,"lon":14.42056,"type":"city"},{"id":"ly-2210221","label":"Tarhuna","lat":32.43501,"lon":13.6332,"type":"city"},{"id":"ly-12687306","label":"Tazirbu","lat":25.67289,"lon":21.07286,"type":"city"},{"id":"ly-2209970","label":"Tiji","lat":32.01493,"lon":11.35461,"type":"city"},{"id":"ly-81302","label":"Tobruk","lat":32.08963,"lon":23.95385,"type":"city"},{"id":"ly-2210247","label":"Tripoli","lat":32.88743,"lon":13.18733,"type":"city"},{"id":"ly-88834","label":"Tukrah","lat":32.53414,"lon":20.57911,"type":"city"},{"id":"ly-2219235","label":"Ubari","lat":26.59034,"lon":12.77511,"type":"city"},{"id":"ly-2209662","label":"Umm al Aranib","lat":26.13386,"lon":14.7372,"type":"city"},{"id":"ly-81071","label":"Umm ar Rizam","lat":32.53332,"lon":23.00904,"type":"city"},{"id":"ly-12687307","label":"Umm Sa'ad","lat":31.60968,"lon":25.04999,"type":"city"},{"id":"ly-2209055","label":"Waddan","lat":29.1614,"lon":16.13904,"type":"city"},{"id":"ly-12687308","label":"Wadi 'Utbah","lat":26.09502,"lon":13.55744,"type":"city"},{"id":"ly-12687309","label":"Wardamah","lat":32.79661,"lon":21.79099,"type":"city"},{"id":"ly-2208791","label":"Yafran","lat":32.06329,"lon":12.52859,"type":"city"},{"id":"ly-2208655","label":"Zaltan","lat":32.94699,"lon":11.86668,"type":"city"},{"id":"ly-2216885","label":"Zawiya","lat":32.75222,"lon":12.72778,"type":"city"},{"id":"ly-2208518","label":"Zillah","lat":28.55099,"lon":17.54358,"type":"city"},{"id":"ly-2218963","label":"Zintan","lat":31.93155,"lon":12.25291,"type":"city"},{"id":"ly-2208485","label":"Zliten","lat":32.46739,"lon":14.56874,"type":"city"},{"id":"ly-2208425","label":"Zuwarah","lat":32.9312,"lon":12.08199,"type":"city"}]