[{"id":"mg-1084740","label":"Alarobia","lat":-18.96667,"lon":47.73333,"type":"city"},{"id":"mg-1083968","label":"Ambalavao","lat":-21.83333,"lon":46.93333,"type":"city"},{"id":"mg-1083724","label":"Ambanja","lat":-13.669,"lon":48.453,"type":"city"},{"id":"mg-1083676","label":"Ambarakaraka","lat":-13.5,"lon":48.86667,"type":"city"},{"id":"mg-1083257","label":"Ambato Boeny","lat":-16.46667,"lon":46.71667,"type":"city"},{"id":"mg-1083239","label":"Ambatofinandrahana","lat":-20.55284,"lon":46.80365,"type":"city"},{"id":"mg-1082992","label":"Ambatolampy","lat":-19.38333,"lon":47.41667,"type":"city"},{"id":"mg-1082639","label":"Ambatondrazaka","lat":-17.83333,"lon":48.41667,"type":"city"},{"id":"mg-1082243","label":"Ambilobe","lat":-13.2,"lon":49.05,"type":"city"},{"id":"mg-1081863","label":"Amboanjo","lat":-22,"lon":47.85,"type":"city"},{"id":"mg-1081790","label":"Amboasary","lat":-25.03333,"lon":46.38333,"type":"city"},{"id":"mg-1081530","label":"Ambodifotatra","lat":-16.98333,"lon":49.85,"type":"city"},{"id":"mg-1081199","label":"Ambodimanga II","lat":-17.26667,"lon":49.16667,"type":"city"},{"id":"mg-1080809","label":"Ambodivoara","lat":-14.33333,"lon":49.98333,"type":"city"},{"id":"mg-1080522","label":"Ambohidratrimo","lat":-18.818,"lon":47.43382,"type":"city"},{"id":"mg-1080438","label":"Ambohimahasoa","lat":-21.11667,"lon":47.21667,"type":"city"},{"id":"mg-1079846","label":"Ambohitrandriamanitra","lat":-19.08333,"lon":47.78333,"type":"city"},{"id":"mg-1079777","label":"Ambohitrolomahitsy","lat":-18.7,"lon":47.68333,"type":"city"},{"id":"mg-1079681","label":"Ambohitseheno","lat":-18.78333,"lon":47.8,"type":"city"},{"id":"mg-1079088","label":"Ambositra","lat":-20.53034,"lon":47.24344,"type":"city"},{"id":"mg-1079048","label":"Ambovombe","lat":-25.17838,"lon":46.08722,"type":"city"},{"id":"mg-1078966","label":"Ampahana","lat":-14.75,"lon":50.21667,"type":"city"},{"id":"mg-1078553","label":"Ampanihy","lat":-24.6937,"lon":44.74581,"type":"city"},{"id":"mg-1078446","label":"Amparafaravola","lat":-17.5876,"lon":48.22391,"type":"city"},{"id":"mg-1078171","label":"Ampasimanolotra","lat":-18.81667,"lon":49.06667,"type":"city"},{"id":"mg-1077222","label":"Analalava","lat":-14.63333,"lon":47.75,"type":"city"},{"id":"mg-1076454","label":"Andapa","lat":-14.65,"lon":49.65,"type":"city"},{"id":"mg-1076194","label":"Andilamena","lat":-17.01009,"lon":48.57313,"type":"city"},{"id":"mg-1076227","label":"Andovoranto","lat":-18.95443,"lon":49.1094,"type":"city"},{"id":"mg-1073665","label":"Anjepy","lat":-18.85,"lon":47.71667,"type":"city"},{"id":"mg-1073482","label":"Anjozorobe","lat":-18.4,"lon":47.86667,"type":"city"},{"id":"mg-1072879","label":"Ankazoabo","lat":-22.28333,"lon":44.51667,"type":"city"},{"id":"mg-1072849","label":"Ankazobe","lat":-18.31667,"lon":47.11667,"type":"city"},{"id":"mg-1072711","label":"Ankazondandy","lat":-18.7,"lon":47.78333,"type":"city"},{"id":"mg-1071299","label":"Antakotako","lat":-15.31667,"lon":49.8,"type":"city"},{"id":"mg-1071296","label":"Antalaha","lat":-14.90033,"lon":50.27876,"type":"city"},{"id":"mg-1070940","label":"Antananarivo","lat":-18.91368,"lon":47.53613,"type":"city"},{"id":"mg-1070895","label":"Antanandava","lat":-19.08333,"lon":47.95,"type":"city"},{"id":"mg-1070661","label":"Antanifotsy","lat":-19.65,"lon":47.31667,"type":"city"},{"id":"mg-1069579","label":"Antsalova","lat":-18.66667,"lon":44.61667,"type":"city"},{"id":"mg-1069166","label":"Antsirabe","lat":-19.86586,"lon":47.03333,"type":"city"},{"id":"mg-1069164","label":"Antsirabe Afovoany","lat":-15.95,"lon":48.96667,"type":"city"},{"id":"mg-1069129","label":"Antsiranana","lat":-12.31732,"lon":49.29188,"type":"city"},{"id":"mg-1068971","label":"Antsohihy","lat":-14.87959,"lon":47.98751,"type":"city"},{"id":"mg-1068955","label":"Antsohimbondrona","lat":-13.08333,"lon":48.85,"type":"city"},{"id":"mg-1068865","label":"Arivonimamo","lat":-19.01667,"lon":47.18333,"type":"city"},{"id":"mg-1068670","label":"Bealanana","lat":-14.54329,"lon":48.74981,"type":"city"},{"id":"mg-1068387","label":"Befandriana","lat":-15.2567,"lon":48.54249,"type":"city"},{"id":"mg-1068130","label":"Behompy","lat":-23.25,"lon":43.85,"type":"city"},{"id":"mg-1067982","label":"Bekily","lat":-24.21667,"lon":45.31667,"type":"city"},{"id":"mg-1067531","label":"Belo sur Tsiribihina","lat":-19.69787,"lon":44.54587,"type":"city"},{"id":"mg-1067565","label":"Beloha","lat":-25.16667,"lon":45.05,"type":"city"},{"id":"mg-1067487","label":"Bemaitso","lat":-17.06667,"lon":48.5,"type":"city"},{"id":"mg-1066831","label":"Beroroha","lat":-21.66667,"lon":45.16667,"type":"city"},{"id":"mg-1066702","label":"Besalampy","lat":-16.75,"lon":44.48333,"type":"city"},{"id":"mg-1066514","label":"Betafo","lat":-19.83333,"lon":46.85,"type":"city"},{"id":"mg-1066317","label":"Beteza","lat":-24.45,"lon":45.11667,"type":"city"},{"id":"mg-1066310","label":"Betioky","lat":-23.72065,"lon":44.38069,"type":"city"},{"id":"mg-1066248","label":"Betroka","lat":-23.26667,"lon":46.08333,"type":"city"},{"id":"mg-1057996","label":"Boriziny","lat":-15.55,"lon":47.66667,"type":"city"},{"id":"mg-1065531","label":"Didy","lat":-18.11667,"lon":48.53333,"type":"city"},{"id":"mg-1065230","label":"Fandrandava","lat":-21.51667,"lon":47.25,"type":"city"},{"id":"mg-1065222","label":"Fandriana","lat":-20.23333,"lon":47.38333,"type":"city"},{"id":"mg-1065158","label":"Farafangana","lat":-22.82223,"lon":47.82615,"type":"city"},{"id":"mg-1065140","label":"Faratsiho","lat":-19.4,"lon":46.95,"type":"city"},{"id":"mg-1064980","label":"Fenoarivo Atsinanana","lat":-17.38095,"lon":49.40826,"type":"city"},{"id":"mg-1064978","label":"Fenoarivo Be","lat":-18.43333,"lon":46.56667,"type":"city"},{"id":"mg-1064890","label":"Fianarantsoa","lat":-21.45267,"lon":47.08569,"type":"city"},{"id":"mg-1076105","label":"Hell-Ville","lat":-13.39718,"lon":48.26663,"type":"city"},{"id":"mg-1064366","label":"Ifanadiana","lat":-21.3,"lon":47.63333,"type":"city"},{"id":"mg-1064334","label":"Ifatsy","lat":-22.4,"lon":47.75,"type":"city"},{"id":"mg-1064311","label":"Iharana","lat":-13.35,"lon":50,"type":"city"},{"id":"mg-1064275","label":"Ihosy","lat":-22.40293,"lon":46.12576,"type":"city"},{"id":"mg-1064258","label":"Ikalamavony","lat":-21.15,"lon":46.58333,"type":"city"},{"id":"mg-1064234","label":"Ikongo","lat":-21.88333,"lon":47.43333,"type":"city"},{"id":"mg-1064131","label":"Imerimandroso","lat":-17.43333,"lon":48.58333,"type":"city"},{"id":"mg-1064121","label":"Imerintsiatosika","lat":-18.98333,"lon":47.31667,"type":"city"},{"id":"mg-1063930","label":"Itampolo","lat":-24.68333,"lon":43.95,"type":"city"},{"id":"mg-1063852","label":"Ivato","lat":-22.41667,"lon":47.26667,"type":"city"},{"id":"mg-1063858","label":"Ivato","lat":-18.8,"lon":47.48333,"type":"city"},{"id":"mg-1063835","label":"Ivohibe","lat":-22.48333,"lon":46.88333,"type":"city"},{"id":"mg-1063782","label":"Jafaro","lat":-24.91667,"lon":45.51667,"type":"city"},{"id":"mg-1063368","label":"Kopoky","lat":-25.2,"lon":45.2,"type":"city"},{"id":"mg-1062842","label":"Maevatanana","lat":-16.95,"lon":46.83333,"type":"city"},{"id":"mg-1062818","label":"Mahabe","lat":-17.08333,"lon":45.33333,"type":"city"},{"id":"mg-1062663","label":"Mahajanga","lat":-15.71667,"lon":46.31667,"type":"city"},{"id":"mg-1062553","label":"Mahanoro","lat":-19.9,"lon":48.8,"type":"city"},{"id":"mg-1062146","label":"Mahavelona","lat":-17.68475,"lon":49.50869,"type":"city"},{"id":"mg-1061912","label":"Maintirano","lat":-18.06354,"lon":44.02951,"type":"city"},{"id":"mg-1061700","label":"Mampikony","lat":-16.092,"lon":47.647,"type":"city"},{"id":"mg-1061605","label":"Manakara","lat":-22.14862,"lon":48.01055,"type":"city"},{"id":"mg-1061412","label":"Mananara","lat":-16.16864,"lon":49.76622,"type":"city"},{"id":"mg-1061335","label":"Mananjary","lat":-21.23034,"lon":48.34173,"type":"city"},{"id":"mg-1061216","label":"Manato","lat":-22.4,"lon":47.48333,"type":"city"},{"id":"mg-1060673","label":"Manjakandriana","lat":-18.91667,"lon":47.8,"type":"city"},{"id":"mg-1060527","label":"Mantasoa","lat":-19.01667,"lon":47.83333,"type":"city"},{"id":"mg-1060283","label":"Maroantsetra","lat":-15.43527,"lon":49.73794,"type":"city"},{"id":"mg-1060007","label":"Marolambo","lat":-20.05,"lon":48.11667,"type":"city"},{"id":"mg-1059949","label":"Maromandia","lat":-14.21667,"lon":48.08333,"type":"city"},{"id":"mg-1059628","label":"Marovantaza","lat":-15.38333,"lon":47.66667,"type":"city"},{"id":"mg-1059556","label":"Marovatolena","lat":-15.18333,"lon":47.65,"type":"city"},{"id":"mg-1059507","label":"Marovoay","lat":-16.11064,"lon":46.64383,"type":"city"},{"id":"mg-1059136","label":"Merikanjaka","lat":-19.13333,"lon":47.85,"type":"city"},{"id":"mg-1059098","label":"Miadanandriana","lat":-19.03333,"lon":47.78333,"type":"city"},{"id":"mg-1059059","label":"Miandrarivo","lat":-19.43333,"lon":46.75,"type":"city"},{"id":"mg-1059051","label":"Miandrivazo","lat":-19.52905,"lon":45.45559,"type":"city"},{"id":"mg-1059011","label":"Miarinarivo","lat":-18.95873,"lon":46.90553,"type":"city"},{"id":"mg-1058532","label":"Moramanga","lat":-18.94948,"lon":48.23007,"type":"city"},{"id":"mg-1058390","label":"Morombe","lat":-21.74499,"lon":43.36055,"type":"city"},{"id":"mg-1058381","label":"Morondava","lat":-20.28869,"lon":44.31782,"type":"city"},{"id":"mg-1058080","label":"Nosy Varika","lat":-20.58333,"lon":48.53333,"type":"city"},{"id":"mg-1057922","label":"Ranohira","lat":-22.48333,"lon":45.4,"type":"city"},{"id":"mg-1057688","label":"Sadabe","lat":-18.63333,"lon":47.7,"type":"city"},{"id":"mg-1057681","label":"Sadjoavato","lat":-12.61667,"lon":49.35,"type":"city"},{"id":"mg-1057330","label":"Sahatavy","lat":-17.45,"lon":49,"type":"city"},{"id":"mg-1057277","label":"Sahavato","lat":-20.6,"lon":48.33333,"type":"city"},{"id":"mg-1057095","label":"Sakaraha","lat":-22.9,"lon":44.53333,"type":"city"},{"id":"mg-1056922","label":"Sambaina","lat":-18.9,"lon":47.78333,"type":"city"},{"id":"mg-1056899","label":"Sambava","lat":-14.26667,"lon":50.16667,"type":"city"},{"id":"mg-1056531","label":"Sitampiky","lat":-16.66667,"lon":46.1,"type":"city"},{"id":"mg-1056487","label":"Soalala","lat":-16.1,"lon":45.31667,"type":"city"},{"id":"mg-1056386","label":"Soanierana Ivongo","lat":-16.91667,"lon":49.58333,"type":"city"},{"id":"mg-1056381","label":"Soanindrariny","lat":-19.9,"lon":47.23333,"type":"city"},{"id":"mg-1056151","label":"Soavinandriana","lat":-19.16667,"lon":46.73333,"type":"city"},{"id":"mg-1053384","label":"Toamasina","lat":-18.1492,"lon":49.40234,"type":"city"},{"id":"mg-1055433","label":"Tolanaro","lat":-25.03249,"lon":46.98329,"type":"city"},{"id":"mg-1055429","label":"Toliara","lat":-23.35,"lon":43.66667,"type":"city"},{"id":"mg-1055317","label":"Tranovaho","lat":-25.3,"lon":44.96667,"type":"city"},{"id":"mg-1055059","label":"Tsaratanana","lat":-16.79706,"lon":47.65165,"type":"city"},{"id":"mg-1054500","label":"Tsiombe","lat":-25.3,"lon":45.48333,"type":"city"},{"id":"mg-1054463","label":"Tsiroanomandidy","lat":-18.76969,"lon":46.04653,"type":"city"},{"id":"mg-1054329","label":"Vangaindrano","lat":-23.35,"lon":47.6,"type":"city"},{"id":"mg-1054257","label":"Vatomandry","lat":-19.33018,"lon":48.97791,"type":"city"},{"id":"mg-1054192","label":"Vavatenina","lat":-17.46667,"lon":49.2,"type":"city"},{"id":"mg-1054035","label":"Vohibinany","lat":-17.35,"lon":49.03333,"type":"city"},{"id":"mg-1053900","label":"Vohimanitra","lat":-21.7,"lon":47.7,"type":"city"},{"id":"mg-1053778","label":"Vohipaho","lat":-23.55,"lon":47.5,"type":"city"},{"id":"mg-1053765","label":"Vohipeno","lat":-22.35,"lon":47.83333,"type":"city"},{"id":"mg-1053507","label":"Vondrozo","lat":-22.81667,"lon":47.28333,"type":"city"}]