[{"id":"nc-2141714","label":"Bourail","lat":-21.5669,"lon":165.49736,"type":"city"},{"id":"nc-2141394","label":"Dumbea","lat":-22.15757,"lon":166.4572,"type":"city"},{"id":"nc-2140691","label":"Kone","lat":-21.05951,"lon":164.86582,"type":"city"},{"id":"nc-2140466","label":"La Foa","lat":-21.71079,"lon":165.82764,"type":"city"},{"id":"nc-11956106","label":"Magenta","lat":-22.26867,"lon":166.47122,"type":"city"},{"id":"nc-2140066","label":"Mont-Dore","lat":-22.26257,"lon":166.56621,"type":"city"},{"id":"nc-2139521","label":"Noumea","lat":-22.27407,"lon":166.44884,"type":"city"},{"id":"nc-2138981","label":"Paita","lat":-22.13105,"lon":166.35717,"type":"city"},{"id":"nc-2138717","label":"Poindimie","lat":-20.93714,"lon":165.33121,"type":"city"},{"id":"nc-11956101","label":"Riviere-Salee","lat":-22.23144,"lon":166.46421,"type":"city"},{"id":"nc-2138285","label":"Tadine","lat":-21.54751,"lon":167.88019,"type":"city"},{"id":"nc-11956197","label":"Vallee des Colons","lat":-22.27727,"lon":166.45803,"type":"city"},{"id":"nc-2137690","label":"We","lat":-20.91687,"lon":167.26461,"type":"city"}]