[{"id":"om-287830","label":"'Ibri","lat":23.22573,"lon":56.51572,"type":"city"},{"id":"om-289433","label":"Adam","lat":22.37934,"lon":57.52718,"type":"city"},{"id":"om-289317","label":"Al Buraymi","lat":24.25088,"lon":55.79312,"type":"city"},{"id":"om-289199","label":"Al Khaburah","lat":23.97144,"lon":57.09313,"type":"city"},{"id":"om-289142","label":"Al Qabil","lat":22.571,"lon":58.69472,"type":"city"},{"id":"om-288955","label":"As Suwayq","lat":23.84944,"lon":57.43861,"type":"city"},{"id":"om-288902","label":"Badiyah","lat":22.45,"lon":58.8,"type":"city"},{"id":"om-288899","label":"Bahla'","lat":22.97886,"lon":57.3047,"type":"city"},{"id":"om-288789","label":"Barka'","lat":23.67872,"lon":57.88605,"type":"city"},{"id":"om-288764","label":"Bawshar","lat":23.57769,"lon":58.39982,"type":"city"},{"id":"om-412084","label":"Bayt al `Awabi","lat":23.30324,"lon":57.52459,"type":"city"},{"id":"om-288721","label":"Bidbid","lat":23.40787,"lon":58.1283,"type":"city"},{"id":"om-287939","label":"Hayma'","lat":19.95931,"lon":56.27575,"type":"city"},{"id":"om-287832","label":"Ibra'","lat":22.69057,"lon":58.53337,"type":"city"},{"id":"om-287814","label":"Izki","lat":22.93333,"lon":57.76667,"type":"city"},{"id":"om-287614","label":"Khasab","lat":26.17993,"lon":56.24774,"type":"city"},{"id":"om-289174","label":"Liwa","lat":24.53077,"lon":56.563,"type":"city"},{"id":"om-287286","label":"Muscat","lat":23.58413,"lon":58.40778,"type":"city"},{"id":"om-286987","label":"Nizwa","lat":22.93333,"lon":57.53333,"type":"city"},{"id":"om-286839","label":"Qurayyat","lat":23.26298,"lon":58.92014,"type":"city"},{"id":"om-289011","label":"Rustaq","lat":23.39083,"lon":57.42444,"type":"city"},{"id":"om-286647","label":"Saham","lat":24.17222,"lon":56.88861,"type":"city"},{"id":"om-286621","label":"Salalah","lat":17.01505,"lon":54.09237,"type":"city"},{"id":"om-286590","label":"Sama'il","lat":23.29838,"lon":57.9531,"type":"city"},{"id":"om-288967","label":"Seeb","lat":23.67027,"lon":58.18911,"type":"city"},{"id":"om-286402","label":"Shinas","lat":24.7426,"lon":56.46698,"type":"city"},{"id":"om-286282","label":"Sohar","lat":24.34745,"lon":56.70937,"type":"city"},{"id":"om-286293","label":"Sufalat Sama'il","lat":23.31667,"lon":58.01667,"type":"city"},{"id":"om-286245","label":"Sur","lat":22.56667,"lon":59.52889,"type":"city"},{"id":"om-286140","label":"Thamarit","lat":17.67,"lon":54.03333,"type":"city"},{"id":"om-411849","label":"Yanqul","lat":23.58645,"lon":56.53969,"type":"city"}]