[{"id":"sa-108655","label":"'Inak","lat":26.51959,"lon":50.02715,"type":"city"},{"id":"sa-105586","label":"'Irqah","lat":24.68029,"lon":46.61109,"type":"city"},{"id":"sa-100732","label":"'Uqlat as Suqur","lat":25.82916,"lon":42.20119,"type":"city"},{"id":"sa-108782","label":"'Uyun al Jiwa'","lat":26.49829,"lon":43.6312,"type":"city"},{"id":"sa-110690","label":"Abha","lat":18.21639,"lon":42.50528,"type":"city"},{"id":"sa-107312","label":"Abqaiq","lat":25.93402,"lon":49.6688,"type":"city"},{"id":"sa-110619","label":"Abu 'Arish","lat":16.96887,"lon":42.83251,"type":"city"},{"id":"sa-110328","label":"Ad Darb","lat":17.72285,"lon":42.25261,"type":"city"},{"id":"sa-110325","label":"Ad Dawadimi","lat":24.50772,"lon":44.39237,"type":"city"},{"id":"sa-110314","label":"Ad Dilam","lat":23.99104,"lon":47.16181,"type":"city"},{"id":"sa-110312","label":"Ad Dir'iyah","lat":24.75187,"lon":46.53874,"type":"city"},{"id":"sa-110275","label":"Adh Dhibiyah","lat":26.027,"lon":43.157,"type":"city"},{"id":"sa-110250","label":"Afif","lat":23.9065,"lon":42.91724,"type":"city"},{"id":"sa-110059","label":"Al 'Aqiq","lat":20.65,"lon":41.41667,"type":"city"},{"id":"sa-110060","label":"Al 'Aqiq","lat":20.27358,"lon":41.66434,"type":"city"},{"id":"sa-109998","label":"Al 'Awwamiyah","lat":26.59144,"lon":49.97951,"type":"city"},{"id":"sa-108787","label":"Al 'Uyaynah","lat":24.9074,"lon":46.3846,"type":"city"},{"id":"sa-110031","label":"Al Artawiyah","lat":26.50387,"lon":45.34813,"type":"city"},{"id":"sa-110107","label":"Al Awjam","lat":26.56324,"lon":49.94331,"type":"city"},{"id":"sa-397833","label":"Al Bada'i' al Wusta","lat":25.98546,"lon":43.73659,"type":"city"},{"id":"sa-109953","label":"Al Bahah","lat":20.01288,"lon":41.46767,"type":"city"},{"id":"sa-109915","label":"Al Battaliyah","lat":25.43333,"lon":49.63333,"type":"city"},{"id":"sa-109878","label":"Al Bukayriyah","lat":26.13915,"lon":43.65782,"type":"city"},{"id":"sa-397513","label":"Al Fuwayliq","lat":26.4436,"lon":43.25164,"type":"city"},{"id":"sa-410084","label":"Al Hada","lat":21.35903,"lon":40.2803,"type":"city"},{"id":"sa-109615","label":"Al Hayathim","lat":24.16555,"lon":47.23764,"type":"city"},{"id":"sa-109571","label":"Al Hufuf","lat":25.36467,"lon":49.58764,"type":"city"},{"id":"sa-109502","label":"Al Jafr","lat":25.37736,"lon":49.72154,"type":"city"},{"id":"sa-109481","label":"Al Jaradiyah","lat":16.57946,"lon":42.9124,"type":"city"},{"id":"sa-12495738","label":"Al Ju'aymah","lat":26.75007,"lon":49.90469,"type":"city"},{"id":"sa-109435","label":"Al Jubayl","lat":27.0174,"lon":49.62251,"type":"city"},{"id":"sa-109436","label":"Al Jubayl","lat":25.4,"lon":49.65,"type":"city"},{"id":"sa-109432","label":"Al Jubaylah","lat":24.91116,"lon":46.4465,"type":"city"},{"id":"sa-109417","label":"Al Jumum","lat":21.61951,"lon":39.69659,"type":"city"},{"id":"sa-109391","label":"Al Khabra'","lat":26.07179,"lon":43.62497,"type":"city"},{"id":"sa-109380","label":"Al Khafji","lat":28.43905,"lon":48.49132,"type":"city"},{"id":"sa-109353","label":"Al Kharj","lat":24.15541,"lon":47.33457,"type":"city"},{"id":"sa-109306","label":"Al Khurmah","lat":21.91149,"lon":42.03092,"type":"city"},{"id":"sa-109253","label":"Al Lith","lat":20.14804,"lon":40.27224,"type":"city"},{"id":"sa-399518","label":"Al Majaridah","lat":19.132,"lon":41.924,"type":"city"},{"id":"sa-109165","label":"Al Markaz","lat":25.4,"lon":49.73333,"type":"city"},{"id":"sa-12513572","label":"Al Mash'iliyah","lat":17.75558,"lon":44.468,"type":"city"},{"id":"sa-109118","label":"Al Mindak","lat":20.1588,"lon":41.28337,"type":"city"},{"id":"sa-109131","label":"Al Mithnab","lat":25.86012,"lon":44.22228,"type":"city"},{"id":"sa-109101","label":"Al Mubarraz","lat":25.40768,"lon":49.59028,"type":"city"},{"id":"sa-11829674","label":"Al Mulayda'","lat":26.31781,"lon":43.78527,"type":"city"},{"id":"sa-109059","label":"Al Munayzilah","lat":25.38333,"lon":49.66667,"type":"city"},{"id":"sa-109008","label":"Al Mutayrifi","lat":25.47878,"lon":49.55824,"type":"city"},{"id":"sa-409993","label":"Al Muwayh","lat":22.43333,"lon":41.75829,"type":"city"},{"id":"sa-108957","label":"Al Qarah","lat":25.41667,"lon":49.66667,"type":"city"},{"id":"sa-108927","label":"Al Qatif","lat":26.56542,"lon":50.0089,"type":"city"},{"id":"sa-108890","label":"Al Qurayn","lat":25.48333,"lon":49.6,"type":"city"},{"id":"sa-108753","label":"Al Wadi'ah","lat":17.05838,"lon":47.08902,"type":"city"},{"id":"sa-108773","label":"Al Wajh","lat":26.23094,"lon":36.46492,"type":"city"},{"id":"sa-108841","label":"Al-`Ula","lat":26.60853,"lon":37.92316,"type":"city"},{"id":"sa-108617","label":"An Nimas","lat":19.14547,"lon":42.12009,"type":"city"},{"id":"sa-108435","label":"Ar Rass","lat":25.86944,"lon":43.4973,"type":"city"},{"id":"sa-108512","label":"Arar","lat":30.97531,"lon":41.03808,"type":"city"},{"id":"sa-108142","label":"As Saffaniyah","lat":27.97083,"lon":48.73,"type":"city"},{"id":"sa-108048","label":"As Sulayyil","lat":20.46067,"lon":45.57792,"type":"city"},{"id":"sa-410096","label":"Ash Shafa","lat":21.07268,"lon":40.31842,"type":"city"},{"id":"sa-101973","label":"Ash Shuqayri","lat":17.13109,"lon":42.82674,"type":"city"},{"id":"sa-107959","label":"At Taraf","lat":25.36232,"lon":49.72757,"type":"city"},{"id":"sa-101344","label":"At Tubi","lat":26.55778,"lon":49.99167,"type":"city"},{"id":"sa-107840","label":"Ayn Ibn Fuhayd","lat":26.77157,"lon":44.2071,"type":"city"},{"id":"sa-100399","label":"Az Zabyah","lat":17.11788,"lon":42.66694,"type":"city"},{"id":"sa-107781","label":"Az Zulfi","lat":26.29945,"lon":44.81542,"type":"city"},{"id":"sa-107744","label":"Badr Hunayn","lat":23.78292,"lon":38.79047,"type":"city"},{"id":"sa-107692","label":"Baljurashi","lat":19.85944,"lon":41.55722,"type":"city"},{"id":"sa-107588","label":"Baq'a'","lat":27.90647,"lon":42.38898,"type":"city"},{"id":"sa-12495725","label":"Bariq","lat":18.92966,"lon":41.92953,"type":"city"},{"id":"sa-107304","label":"Buraydah","lat":26.32599,"lon":43.97497,"type":"city"},{"id":"sa-107117","label":"Damad","lat":17.10426,"lon":42.78155,"type":"city"},{"id":"sa-110336","label":"Dammam","lat":26.43442,"lon":50.10326,"type":"city"},{"id":"sa-13645279","label":"Dhahaban","lat":18.09976,"lon":41.61605,"type":"city"},{"id":"sa-107797","label":"Dhahran","lat":26.28864,"lon":50.11396,"type":"city"},{"id":"sa-106909","label":"Duba","lat":27.35134,"lon":35.69014,"type":"city"},{"id":"sa-106872","label":"Dukhnah","lat":25.35621,"lon":43.62268,"type":"city"},{"id":"sa-106744","label":"Farasan","lat":16.70222,"lon":42.11833,"type":"city"},{"id":"sa-106667","label":"Fayfa'","lat":17.2806,"lon":43.13735,"type":"city"},{"id":"sa-106281","label":"Ha'il","lat":27.52188,"lon":41.69073,"type":"city"},{"id":"sa-12513575","label":"Habuna","lat":17.84722,"lon":44.02081,"type":"city"},{"id":"sa-106297","label":"Hafar Al-Batin","lat":28.43279,"lon":45.97077,"type":"city"},{"id":"sa-106102","label":"Haql","lat":29.28627,"lon":34.94687,"type":"city"},{"id":"sa-13631408","label":"Hawtah Bani Tamim","lat":23.49598,"lon":46.87801,"type":"city"},{"id":"sa-105343","label":"Jeddah","lat":21.49012,"lon":39.18624,"type":"city"},{"id":"sa-105299","label":"Jizan","lat":16.88917,"lon":42.55111,"type":"city"},{"id":"sa-105252","label":"Julayjilah","lat":25.5,"lon":49.6,"type":"city"},{"id":"sa-105072","label":"Khamis Mushait","lat":18.3,"lon":42.73333,"type":"city"},{"id":"sa-109323","label":"Khobar","lat":26.27944,"lon":50.20833,"type":"city"},{"id":"sa-13645278","label":"Khubash","lat":17.55627,"lon":44.748,"type":"city"},{"id":"sa-104923","label":"Khulays","lat":22.15553,"lon":39.32015,"type":"city"},{"id":"sa-11524299","label":"King Abdullah City","lat":22.44633,"lon":39.12455,"type":"city"},{"id":"sa-104828","label":"King Faisal Military City","lat":28.45,"lon":45.96667,"type":"city"},{"id":"sa-8449855","label":"King Khalid Military City","lat":27.90509,"lon":45.55326,"type":"city"},{"id":"sa-104716","label":"Layla","lat":22.29206,"lon":46.72376,"type":"city"},{"id":"sa-109223","label":"Madinah","lat":24.46861,"lon":39.61417,"type":"city"},{"id":"sa-104578","label":"Mahd adh Dhahab","lat":23.49966,"lon":40.88408,"type":"city"},{"id":"sa-104515","label":"Makkah","lat":21.42664,"lon":39.82563,"type":"city"},{"id":"sa-104376","label":"Marat","lat":25.07064,"lon":45.45775,"type":"city"},{"id":"sa-104269","label":"Misliyah","lat":17.45988,"lon":42.5572,"type":"city"},{"id":"sa-410874","label":"Mizhirah","lat":16.82611,"lon":42.73333,"type":"city"},{"id":"sa-103922","label":"Mulayjah","lat":27.27103,"lon":48.42419,"type":"city"},{"id":"sa-103630","label":"Najran","lat":17.49326,"lon":44.12766,"type":"city"},{"id":"sa-108918","label":"Qaisumah","lat":28.31117,"lon":46.12729,"type":"city"},{"id":"sa-103369","label":"Qal`at Bishah","lat":20.00054,"lon":42.6052,"type":"city"},{"id":"sa-103220","label":"Qibah","lat":27.40285,"lon":44.3277,"type":"city"},{"id":"sa-108648","label":"Qurayyat","lat":31.33176,"lon":37.34282,"type":"city"},{"id":"sa-103035","label":"Rabigh","lat":22.79856,"lon":39.03493,"type":"city"},{"id":"sa-102985","label":"Rahimah","lat":26.70791,"lon":50.06194,"type":"city"},{"id":"sa-12546009","label":"Ranyah","lat":21.2504,"lon":42.84751,"type":"city"},{"id":"sa-102891","label":"Ras Tanura","lat":26.70742,"lon":50.06735,"type":"city"},{"id":"sa-11835536","label":"Riyad al Khabra'","lat":26.06672,"lon":43.55344,"type":"city"},{"id":"sa-108410","label":"Riyadh","lat":24.68773,"lon":46.72185,"type":"city"},{"id":"sa-102744","label":"Rumah","lat":25.56395,"lon":47.16408,"type":"city"},{"id":"sa-11670045","label":"Sabt Alalayah","lat":19.5773,"lon":41.96357,"type":"city"},{"id":"sa-102651","label":"Sabya","lat":17.1495,"lon":42.62537,"type":"city"},{"id":"sa-102585","label":"Safwa","lat":26.6497,"lon":49.95522,"type":"city"},{"id":"sa-108121","label":"Sajir","lat":25.18251,"lon":44.59964,"type":"city"},{"id":"sa-102527","label":"Sakakah","lat":29.96974,"lon":40.20641,"type":"city"},{"id":"sa-102451","label":"Samitah","lat":16.59601,"lon":42.94435,"type":"city"},{"id":"sa-12500245","label":"Sarat 'Abidah","lat":18.089,"lon":43.132,"type":"city"},{"id":"sa-102318","label":"Sayhat","lat":26.48345,"lon":50.04849,"type":"city"},{"id":"sa-102170","label":"Shaqra","lat":25.24019,"lon":45.25104,"type":"city"},{"id":"sa-101760","label":"Sultanah","lat":24.49258,"lon":39.58572,"type":"city"},{"id":"sa-392753","label":"Suwayr","lat":30.11713,"lon":40.38925,"type":"city"},{"id":"sa-107968","label":"Ta'if","lat":21.27028,"lon":40.41583,"type":"city"},{"id":"sa-101633","label":"Tabalah","lat":19.95,"lon":42.4,"type":"city"},{"id":"sa-101628","label":"Tabuk","lat":28.3998,"lon":36.57151,"type":"city"},{"id":"sa-101581","label":"Tanumah","lat":27.1,"lon":44.13333,"type":"city"},{"id":"sa-101554","label":"Tarut","lat":26.5733,"lon":50.04028,"type":"city"},{"id":"sa-101516","label":"Tayma'","lat":27.62233,"lon":38.53882,"type":"city"},{"id":"sa-107991","label":"Thuqbah","lat":26.26022,"lon":50.20486,"type":"city"},{"id":"sa-409682","label":"Thuwal","lat":22.28272,"lon":39.11245,"type":"city"},{"id":"sa-101631","label":"Tubarjal","lat":30.49987,"lon":38.21603,"type":"city"},{"id":"sa-396550","label":"Tumayr","lat":25.70347,"lon":45.86835,"type":"city"},{"id":"sa-101322","label":"Turabah","lat":21.21406,"lon":41.6331,"type":"city"},{"id":"sa-101312","label":"Turaif","lat":31.67252,"lon":38.66374,"type":"city"},{"id":"sa-101313","label":"Turayf","lat":31.672,"lon":38.663,"type":"city"},{"id":"sa-393275","label":"Turubah","lat":28.25849,"lon":42.92457,"type":"city"},{"id":"sa-100926","label":"Umluj","lat":25.02126,"lon":37.2685,"type":"city"},{"id":"sa-101035","label":"Umm as Sahik","lat":26.65361,"lon":49.91639,"type":"city"},{"id":"sa-101732","label":"Unaizah","lat":26.1,"lon":44,"type":"city"},{"id":"sa-100425","label":"Yanbu","lat":24.08954,"lon":38.0618,"type":"city"}]