[{"id":"sk-3061188","label":"Banovce nad Bebravou","lat":48.7213,"lon":18.25754,"type":"city"},{"id":"sk-3061186","label":"Banska Bystrica","lat":48.73947,"lon":19.14932,"type":"city"},{"id":"sk-3061184","label":"Banska Stiavnica","lat":48.44858,"lon":18.91003,"type":"city"},{"id":"sk-725168","label":"Bardejov","lat":49.29175,"lon":21.27271,"type":"city"},{"id":"sk-3061130","label":"Belusa","lat":49.0649,"lon":18.32685,"type":"city"},{"id":"sk-3061107","label":"Bernolakovo","lat":48.20068,"lon":17.30186,"type":"city"},{"id":"sk-3061015","label":"Bojnice","lat":48.78511,"lon":18.5864,"type":"city"},{"id":"sk-3060972","label":"Bratislava","lat":48.14816,"lon":17.10674,"type":"city"},{"id":"sk-3060280","label":"Bratislava - Vajnory","lat":48.20563,"lon":17.20759,"type":"city"},{"id":"sk-3060950","label":"Brezno","lat":48.80431,"lon":19.63631,"type":"city"},{"id":"sk-3060852","label":"Bytca","lat":49.22404,"lon":18.55878,"type":"city"},{"id":"sk-3060835","label":"Cadca","lat":49.43503,"lon":18.78895,"type":"city"},{"id":"sk-725017","label":"Cana","lat":48.60994,"lon":21.32622,"type":"city"},{"id":"sk-3060715","label":"Chorvatsky Grob","lat":48.22787,"lon":17.29094,"type":"city"},{"id":"sk-3060291","label":"Chorvatsky Grob - Cierna Voda","lat":48.2249,"lon":17.2324,"type":"city"},{"id":"sk-3060589","label":"Detva","lat":48.56082,"lon":19.41954,"type":"city"},{"id":"sk-3077170","label":"Devinska Nova Ves","lat":48.20711,"lon":16.9786,"type":"city"},{"id":"sk-13118651","label":"Dlhe diely","lat":48.15454,"lon":17.04607,"type":"city"},{"id":"sk-724893","label":"Dobsina","lat":48.82073,"lon":20.36988,"type":"city"},{"id":"sk-3060405","label":"Dolny Kubin","lat":49.20983,"lon":19.30341,"type":"city"},{"id":"sk-3060346","label":"Dubnica nad Vahom","lat":48.95981,"lon":18.16634,"type":"city"},{"id":"sk-3060322","label":"Dubravka","lat":48.18872,"lon":17.03521,"type":"city"},{"id":"sk-8436244","label":"Dunajska Luzna","lat":48.08347,"lon":17.26072,"type":"city"},{"id":"sk-3060308","label":"Dunajska Streda","lat":47.99268,"lon":17.61211,"type":"city"},{"id":"sk-3060267","label":"Dvory nad Zitavou","lat":47.98946,"lon":18.26717,"type":"city"},{"id":"sk-3060242","label":"Filakovo","lat":48.26757,"lon":19.82473,"type":"city"},{"id":"sk-3060224","label":"Gabcikovo","lat":47.89211,"lon":17.57884,"type":"city"},{"id":"sk-3060219","label":"Galanta","lat":48.19001,"lon":17.72747,"type":"city"},{"id":"sk-724800","label":"Gelnica","lat":48.85584,"lon":20.93713,"type":"city"},{"id":"sk-3060139","label":"Handlova","lat":48.7276,"lon":18.76012,"type":"city"},{"id":"sk-3060095","label":"Hlohovec","lat":48.43174,"lon":17.8031,"type":"city"},{"id":"sk-3060089","label":"Hnusta","lat":48.57257,"lon":19.95395,"type":"city"},{"id":"sk-3060077","label":"Holic","lat":48.81105,"lon":17.16238,"type":"city"},{"id":"sk-3059870","label":"Hrinova","lat":48.57787,"lon":19.52574,"type":"city"},{"id":"sk-724627","label":"Humenne","lat":48.93707,"lon":21.91625,"type":"city"},{"id":"sk-3059821","label":"Hurbanovo","lat":47.86984,"lon":18.19233,"type":"city"},{"id":"sk-3059796","label":"Ilava","lat":48.99769,"lon":18.2353,"type":"city"},{"id":"sk-3059767","label":"Ivanka pri Dunaji","lat":48.18675,"lon":17.2554,"type":"city"},{"id":"sk-724579","label":"Jarovnice","lat":49.05801,"lon":21.05806,"type":"city"},{"id":"sk-3059564","label":"Karlova Ves","lat":48.15344,"lon":17.05522,"type":"city"},{"id":"sk-724503","label":"Kezmarok","lat":49.13571,"lon":20.43352,"type":"city"},{"id":"sk-3059448","label":"Kolarovo","lat":47.92294,"lon":17.98467,"type":"city"},{"id":"sk-3059435","label":"Komarno","lat":48.11667,"lon":18.31667,"type":"city"},{"id":"sk-3059436","label":"Komarno","lat":47.76356,"lon":18.12263,"type":"city"},{"id":"sk-724443","label":"Kosice","lat":48.71441,"lon":21.25802,"type":"city"},{"id":"sk-724411","label":"Kralovsky Chlmec","lat":48.42336,"lon":21.97944,"type":"city"},{"id":"sk-3059289","label":"Krasno nad Kysucou","lat":49.39572,"lon":18.83431,"type":"city"},{"id":"sk-724377","label":"Krompachy","lat":48.91447,"lon":20.87514,"type":"city"},{"id":"sk-3059244","label":"Krupina","lat":48.3554,"lon":19.06474,"type":"city"},{"id":"sk-3059179","label":"Kysucke Nove Mesto","lat":49.3,"lon":18.78333,"type":"city"},{"id":"sk-3059163","label":"Lamac","lat":48.19298,"lon":17.05078,"type":"city"},{"id":"sk-724301","label":"Lendak","lat":49.23441,"lon":20.35646,"type":"city"},{"id":"sk-3059101","label":"Levice","lat":48.21563,"lon":18.60705,"type":"city"},{"id":"sk-724294","label":"Levoca","lat":49.02173,"lon":20.59212,"type":"city"},{"id":"sk-724286","label":"Lipany","lat":49.15376,"lon":20.96382,"type":"city"},{"id":"sk-3059053","label":"Liptovsky Hradok","lat":49.03962,"lon":19.72335,"type":"city"},{"id":"sk-3059050","label":"Liptovsky Mikulas","lat":49.08061,"lon":19.62218,"type":"city"},{"id":"sk-3058986","label":"Lucenec","lat":48.33249,"lon":19.66708,"type":"city"},{"id":"sk-3058897","label":"Malacky","lat":48.43604,"lon":17.02188,"type":"city"},{"id":"sk-3058780","label":"Martin","lat":49.06651,"lon":18.92399,"type":"city"},{"id":"sk-724156","label":"Medzilaborce","lat":49.27195,"lon":21.90073,"type":"city"},{"id":"sk-724144","label":"Michalovce","lat":48.75434,"lon":21.9195,"type":"city"},{"id":"sk-3058663","label":"Modra","lat":48.33397,"lon":17.30711,"type":"city"},{"id":"sk-724111","label":"Moldava nad Bodvou","lat":48.61428,"lon":20.99957,"type":"city"},{"id":"sk-3058611","label":"Myjava","lat":48.75876,"lon":17.56866,"type":"city"},{"id":"sk-3058579","label":"Namestovo","lat":49.4079,"lon":19.48032,"type":"city"},{"id":"sk-3058546","label":"Nemsova","lat":48.96702,"lon":18.11892,"type":"city"},{"id":"sk-3058540","label":"Nesvady","lat":47.92819,"lon":18.12675,"type":"city"},{"id":"sk-3058531","label":"Nitra","lat":48.30763,"lon":18.08453,"type":"city"},{"id":"sk-3058498","label":"Nova Bana","lat":48.42305,"lon":18.64037,"type":"city"},{"id":"sk-3058496","label":"Nova Dubnica","lat":48.93479,"lon":18.14632,"type":"city"},{"id":"sk-3058477","label":"Nove Mesto nad Vahom","lat":48.75763,"lon":17.8309,"type":"city"},{"id":"sk-3058472","label":"Nove Zamky","lat":47.98544,"lon":18.16195,"type":"city"},{"id":"sk-3058354","label":"Oscadnica","lat":49.43572,"lon":18.8819,"type":"city"},{"id":"sk-3058268","label":"Partizanske","lat":48.62861,"lon":18.38455,"type":"city"},{"id":"sk-3058213","label":"Petrzalka","lat":48.12331,"lon":17.12866,"type":"city"},{"id":"sk-3058210","label":"Pezinok","lat":48.28986,"lon":17.26664,"type":"city"},{"id":"sk-3058202","label":"Piestany","lat":48.59479,"lon":17.82591,"type":"city"},{"id":"sk-3058117","label":"Podunajske Biskupice","lat":48.13246,"lon":17.20963,"type":"city"},{"id":"sk-3058083","label":"Poltar","lat":48.43094,"lon":19.79408,"type":"city"},{"id":"sk-723846","label":"Poprad","lat":49.06144,"lon":20.29798,"type":"city"},{"id":"sk-3058060","label":"Povazska Bystrica","lat":49.12153,"lon":18.42169,"type":"city"},{"id":"sk-723819","label":"Presov","lat":48.99923,"lon":21.2355,"type":"city"},{"id":"sk-3058000","label":"Prievidza","lat":48.77446,"lon":18.6275,"type":"city"},{"id":"sk-3057963","label":"Puchov","lat":49.12494,"lon":18.32597,"type":"city"},{"id":"sk-3057934","label":"Rabca","lat":49.48602,"lon":19.47618,"type":"city"},{"id":"sk-3057910","label":"Rajec","lat":49.08899,"lon":18.64007,"type":"city"},{"id":"sk-3057903","label":"Rakova","lat":49.44481,"lon":18.73792,"type":"city"},{"id":"sk-723747","label":"Revuca","lat":48.68346,"lon":20.11734,"type":"city"},{"id":"sk-723736","label":"Rimavska Sobota","lat":48.38284,"lon":20.02239,"type":"city"},{"id":"sk-3057831","label":"Rovinka","lat":48.09783,"lon":17.23632,"type":"city"},{"id":"sk-723713","label":"Roznava","lat":48.66009,"lon":20.53758,"type":"city"},{"id":"sk-3057789","label":"Ruzomberok","lat":49.0748,"lon":19.30751,"type":"city"},{"id":"sk-723674","label":"Sabinov","lat":49.10309,"lon":21.0988,"type":"city"},{"id":"sk-3057772","label":"Sahy","lat":48.07408,"lon":18.94946,"type":"city"},{"id":"sk-3057769","label":"Sala","lat":48.15127,"lon":17.88062,"type":"city"},{"id":"sk-3057757","label":"Samorin","lat":48.03015,"lon":17.30972,"type":"city"},{"id":"sk-723637","label":"Secovce","lat":48.70074,"lon":21.66104,"type":"city"},{"id":"sk-3057692","label":"Senec","lat":48.21951,"lon":17.40043,"type":"city"},{"id":"sk-3057691","label":"Senica","lat":48.67922,"lon":17.36697,"type":"city"},{"id":"sk-3056889","label":"Senkvice","lat":48.29817,"lon":17.34959,"type":"city"},{"id":"sk-3057685","label":"Sereg","lat":48.29117,"lon":17.73331,"type":"city"},{"id":"sk-3057630","label":"Skalica","lat":48.8449,"lon":17.22635,"type":"city"},{"id":"sk-3057627","label":"Skalite","lat":49.49664,"lon":18.89706,"type":"city"},{"id":"sk-3057602","label":"Sladkovicovo","lat":48.20137,"lon":17.63852,"type":"city"},{"id":"sk-3057559","label":"Slovensky Grob","lat":48.2576,"lon":17.27428,"type":"city"},{"id":"sk-723566","label":"Smizany","lat":48.95446,"lon":20.52341,"type":"city"},{"id":"sk-723559","label":"Snina","lat":48.98857,"lon":22.15099,"type":"city"},{"id":"sk-723554","label":"Sobrance","lat":48.74455,"lon":22.18136,"type":"city"},{"id":"sk-723529","label":"Spisska Bela","lat":49.18725,"lon":20.45948,"type":"city"},{"id":"sk-723526","label":"Spisska Nova Ves","lat":48.94464,"lon":20.56153,"type":"city"},{"id":"sk-723505","label":"Stara Lubovna","lat":49.29859,"lon":20.6862,"type":"city"},{"id":"sk-3057480","label":"Stara Tura","lat":48.77721,"lon":17.69433,"type":"city"},{"id":"sk-3057478","label":"Stare Mesto","lat":48.15039,"lon":17.09002,"type":"city"},{"id":"sk-723455","label":"Stropkov","lat":49.20211,"lon":21.65216,"type":"city"},{"id":"sk-3057384","label":"Stupava","lat":48.27474,"lon":17.03173,"type":"city"},{"id":"sk-3057379","label":"Sturovo","lat":47.79495,"lon":18.7175,"type":"city"},{"id":"sk-3057339","label":"Surany","lat":48.08613,"lon":18.18447,"type":"city"},{"id":"sk-3057304","label":"Svaety Jur","lat":48.25216,"lon":17.21539,"type":"city"},{"id":"sk-723417","label":"Svidnik","lat":49.30819,"lon":21.5703,"type":"city"},{"id":"sk-723411","label":"Svit","lat":49.06014,"lon":20.20695,"type":"city"},{"id":"sk-3057174","label":"Topolcany","lat":48.56361,"lon":18.16712,"type":"city"},{"id":"sk-723365","label":"Tornala","lat":48.41915,"lon":20.32566,"type":"city"},{"id":"sk-723358","label":"Trebisov","lat":48.62858,"lon":21.71954,"type":"city"},{"id":"sk-3057140","label":"Trencin","lat":48.89452,"lon":18.04436,"type":"city"},{"id":"sk-3057124","label":"Trnava","lat":48.37773,"lon":17.58603,"type":"city"},{"id":"sk-3057108","label":"Trstena","lat":49.36101,"lon":19.61249,"type":"city"},{"id":"sk-3057086","label":"Turcianske Teplice","lat":48.86225,"lon":18.86048,"type":"city"},{"id":"sk-3057069","label":"Turzovka","lat":49.40429,"lon":18.62258,"type":"city"},{"id":"sk-3057063","label":"Tvrdosin","lat":49.337,"lon":19.556,"type":"city"},{"id":"sk-3057062","label":"Tvrdosovce","lat":48.0945,"lon":18.06686,"type":"city"},{"id":"sk-723265","label":"Velke Kapusany","lat":48.55197,"lon":22.08036,"type":"city"},{"id":"sk-3056825","label":"Velky Krtis","lat":48.21059,"lon":19.35043,"type":"city"},{"id":"sk-3056816","label":"Velky Meder","lat":47.85798,"lon":17.76884,"type":"city"},{"id":"sk-723246","label":"Velky Saris","lat":49.04114,"lon":21.1993,"type":"city"},{"id":"sk-3056711","label":"Vrable","lat":48.24371,"lon":18.30846,"type":"city"},{"id":"sk-3056708","label":"Vrakuna","lat":48.1383,"lon":17.20866,"type":"city"},{"id":"sk-723195","label":"Vranov nad Toplou","lat":48.88836,"lon":21.68479,"type":"city"},{"id":"sk-3056697","label":"Vrbove","lat":48.61973,"lon":17.7226,"type":"city"},{"id":"sk-3056683","label":"Vrutky","lat":49.11328,"lon":18.91714,"type":"city"},{"id":"sk-3056610","label":"Zakamenne","lat":49.38859,"lon":19.29294,"type":"city"},{"id":"sk-3056589","label":"Zarnovica","lat":48.48123,"lon":18.71565,"type":"city"},{"id":"sk-3056547","label":"Zeliezovce","lat":48.05075,"lon":18.65421,"type":"city"},{"id":"sk-3056523","label":"Ziar nad Hronom","lat":48.59184,"lon":18.84958,"type":"city"},{"id":"sk-3056508","label":"Zilina","lat":49.22315,"lon":18.73941,"type":"city"},{"id":"sk-3056495","label":"Zlate Moravce","lat":48.38553,"lon":18.40063,"type":"city"},{"id":"sk-3056459","label":"Zvolen","lat":48.57442,"lon":19.15324,"type":"city"}]