[{"id":"sm-3183500","label":"Acquaviva","lat":43.94593,"lon":12.4185,"type":"city"},{"id":"sm-3181793","label":"Borgo Maggiore","lat":43.94193,"lon":12.44738,"type":"city"},{"id":"sm-3177564","label":"Dogana","lat":43.98034,"lon":12.49051,"type":"city"},{"id":"sm-3177542","label":"Domagnano","lat":43.94961,"lon":12.46828,"type":"city"},{"id":"sm-3177299","label":"Faetano","lat":43.92831,"lon":12.49798,"type":"city"},{"id":"sm-3176966","label":"Fiorentino","lat":43.91001,"lon":12.45738,"type":"city"},{"id":"sm-3172906","label":"Monte Giardino","lat":43.90878,"lon":12.48201,"type":"city"},{"id":"sm-3170472","label":"Poggio di Chiesanuova","lat":43.90451,"lon":12.42142,"type":"city"},{"id":"sm-3168070","label":"San Marino","lat":43.93667,"lon":12.44639,"type":"city"},{"id":"sm-3166645","label":"Serravalle","lat":43.96897,"lon":12.48167,"type":"city"},{"id":"sm-8199071","label":"Valdragone","lat":43.94021,"lon":12.45622,"type":"city"}]