[{"id":"tg-2368574","label":"Adeta","lat":7.13333,"lon":0.73333,"type":"city"},{"id":"tg-2368490","label":"Afanyangan","lat":6.48333,"lon":1.65,"type":"city"},{"id":"tg-2368035","label":"Amlame","lat":7.46667,"lon":0.9,"type":"city"},{"id":"tg-2367990","label":"Aneho","lat":6.22798,"lon":1.5919,"type":"city"},{"id":"tg-2367981","label":"Anie","lat":7.75,"lon":1.2,"type":"city"},{"id":"tg-2367886","label":"Atakpame","lat":7.53333,"lon":1.13333,"type":"city"},{"id":"tg-2367660","label":"Badou","lat":7.58333,"lon":0.6,"type":"city"},{"id":"tg-2367656","label":"Bafilo","lat":9.35,"lon":1.26667,"type":"city"},{"id":"tg-2367568","label":"Bassar","lat":9.25025,"lon":0.78213,"type":"city"},{"id":"tg-2367423","label":"Blitta","lat":8.32335,"lon":0.98595,"type":"city"},{"id":"tg-13132463","label":"Danyi-Apeyeme","lat":7.20365,"lon":0.69563,"type":"city"},{"id":"tg-2367164","label":"Dapaong","lat":10.86225,"lon":0.20762,"type":"city"},{"id":"tg-2366775","label":"Elavagnon","lat":7.28333,"lon":0.71667,"type":"city"},{"id":"tg-2366445","label":"Guerin-Kouka","lat":9.69056,"lon":0.61139,"type":"city"},{"id":"tg-2366168","label":"Kande","lat":9.95778,"lon":1.04472,"type":"city"},{"id":"tg-2366152","label":"Kara","lat":9.55111,"lon":1.18611,"type":"city"},{"id":"tg-2365673","label":"Kouniohou","lat":7.66667,"lon":0.8,"type":"city"},{"id":"tg-2365560","label":"Kpalime","lat":6.9,"lon":0.63333,"type":"city"},{"id":"tg-2365267","label":"Lome","lat":6.12874,"lon":1.22154,"type":"city"},{"id":"tg-2365195","label":"Mandouri","lat":10.85,"lon":0.81667,"type":"city"},{"id":"tg-2365190","label":"Mango","lat":10.35917,"lon":0.47083,"type":"city"},{"id":"tg-2364812","label":"Niamtougou","lat":9.76806,"lon":1.10528,"type":"city"},{"id":"tg-2364752","label":"Notse","lat":6.95,"lon":1.16667,"type":"city"},{"id":"tg-2365571","label":"Pagouda","lat":9.7525,"lon":1.32778,"type":"city"},{"id":"tg-2367226","label":"Sinkasse","lat":11.10389,"lon":0.00944,"type":"city"},{"id":"tg-2364104","label":"Sokode","lat":8.98333,"lon":1.13333,"type":"city"},{"id":"tg-2364079","label":"Sotouboua","lat":8.5634,"lon":0.98399,"type":"city"},{"id":"tg-2364041","label":"Tabligbo","lat":6.58333,"lon":1.5,"type":"city"},{"id":"tg-2363908","label":"Tchamba","lat":9.03333,"lon":1.41667,"type":"city"},{"id":"tg-2363669","label":"Tohoun","lat":7.03333,"lon":1.61667,"type":"city"},{"id":"tg-2363534","label":"Tsevie","lat":6.42611,"lon":1.21333,"type":"city"},{"id":"tg-2363490","label":"Vogan","lat":6.33333,"lon":1.53333,"type":"city"}]