[{"id":"tr-325474","label":"Acarlar","lat":37.82444,"lon":27.74667,"type":"city"},{"id":"tr-325449","label":"Acigoel","lat":38.55028,"lon":34.50917,"type":"city"},{"id":"tr-325426","label":"Acipayam","lat":37.42385,"lon":29.34941,"type":"city"},{"id":"tr-325420","label":"Acirli","lat":37.45619,"lon":41.29509,"type":"city"},{"id":"tr-750249","label":"Adalar","lat":40.86778,"lon":29.13306,"type":"city"},{"id":"tr-325363","label":"Adana","lat":36.98615,"lon":35.32531,"type":"city"},{"id":"tr-752850","label":"Adapazari","lat":40.78056,"lon":30.40333,"type":"city"},{"id":"tr-325336","label":"Adilcevaz","lat":38.79911,"lon":42.73159,"type":"city"},{"id":"tr-325330","label":"Adiyaman","lat":37.76441,"lon":38.27629,"type":"city"},{"id":"tr-325304","label":"Afsin","lat":38.24769,"lon":36.91399,"type":"city"},{"id":"tr-325303","label":"Afyonkarahisar","lat":38.75667,"lon":30.54333,"type":"city"},{"id":"tr-325269","label":"Agacoeren","lat":38.87484,"lon":33.91674,"type":"city"},{"id":"tr-309647","label":"Agri","lat":39.71467,"lon":43.04015,"type":"city"},{"id":"tr-752765","label":"Agva","lat":41.13806,"lon":29.85667,"type":"city"},{"id":"tr-325103","label":"Ahlat","lat":38.7489,"lon":42.48007,"type":"city"},{"id":"tr-13590566","label":"Ahmet Taner Kislali","lat":38.4977,"lon":27.08383,"type":"city"},{"id":"tr-325066","label":"Ahmetli","lat":38.5196,"lon":27.93865,"type":"city"},{"id":"tr-325028","label":"Akarsu","lat":37.22616,"lon":41.05138,"type":"city"},{"id":"tr-302006","label":"Akbez","lat":36.85551,"lon":36.51788,"type":"city"},{"id":"tr-752627","label":"Akcaabat","lat":41.02121,"lon":39.57146,"type":"city"},{"id":"tr-324953","label":"Akcadag","lat":38.33899,"lon":37.97021,"type":"city"},{"id":"tr-324944","label":"Akcakale","lat":36.71111,"lon":38.9475,"type":"city"},{"id":"tr-752584","label":"Akcakoca","lat":41.08935,"lon":31.12362,"type":"city"},{"id":"tr-324859","label":"Akcapinar","lat":38.94728,"lon":38.9423,"type":"city"},{"id":"tr-324768","label":"Akdagmadeni","lat":39.66028,"lon":35.88361,"type":"city"},{"id":"tr-6686001","label":"Akgedik","lat":38.63988,"lon":27.27944,"type":"city"},{"id":"tr-324698","label":"Akhisar","lat":38.91852,"lon":27.84006,"type":"city"},{"id":"tr-752489","label":"Akhisar","lat":40.11825,"lon":29.46623,"type":"city"},{"id":"tr-752437","label":"Akkus","lat":40.79306,"lon":37.01639,"type":"city"},{"id":"tr-324496","label":"Aksaray","lat":38.37255,"lon":34.02537,"type":"city"},{"id":"tr-7669106","label":"Aksaray","lat":41.00866,"lon":28.95018,"type":"city"},{"id":"tr-324490","label":"Aksehir","lat":38.3575,"lon":31.41639,"type":"city"},{"id":"tr-324486","label":"Akseki","lat":37.04861,"lon":31.79,"type":"city"},{"id":"tr-752359","label":"Aksu","lat":40.08964,"lon":38.03467,"type":"city"},{"id":"tr-324415","label":"Aktoprak","lat":37.18624,"lon":37.28575,"type":"city"},{"id":"tr-752288","label":"Akyazi","lat":40.685,"lon":30.62222,"type":"city"},{"id":"tr-752284","label":"Akyurt","lat":40.13512,"lon":33.08614,"type":"city"},{"id":"tr-752278","label":"Alaca","lat":40.16833,"lon":34.8425,"type":"city"},{"id":"tr-324190","label":"Alanya","lat":36.54375,"lon":31.99982,"type":"city"},{"id":"tr-752184","label":"Alapli","lat":41.1814,"lon":31.38514,"type":"city"},{"id":"tr-324172","label":"Alasehir","lat":38.35083,"lon":28.51718,"type":"city"},{"id":"tr-324106","label":"Aliaga","lat":38.79975,"lon":26.97203,"type":"city"},{"id":"tr-324052","label":"Alifaki","lat":36.88309,"lon":34.995,"type":"city"},{"id":"tr-752083","label":"Almus","lat":40.37583,"lon":36.90444,"type":"city"},{"id":"tr-323963","label":"Alpu","lat":39.76903,"lon":30.9606,"type":"city"},{"id":"tr-323930","label":"Altinekin","lat":38.30778,"lon":32.86861,"type":"city"},{"id":"tr-411563","label":"Altinkum","lat":37.35765,"lon":27.28786,"type":"city"},{"id":"tr-323911","label":"Altinoluk","lat":39.57944,"lon":26.73722,"type":"city"},{"id":"tr-13591680","label":"Altinsehir","lat":37.74121,"lon":38.22897,"type":"city"},{"id":"tr-323902","label":"Altinsu","lat":37.32166,"lon":44.55212,"type":"city"},{"id":"tr-323886","label":"Altinyayla","lat":39.27249,"lon":36.75098,"type":"city"},{"id":"tr-297119","label":"Altpinar","lat":39.20417,"lon":32.74778,"type":"city"},{"id":"tr-7628395","label":"Altunizade","lat":41.01779,"lon":29.04794,"type":"city"},{"id":"tr-752016","label":"Amasra","lat":41.74633,"lon":32.38633,"type":"city"},{"id":"tr-752015","label":"Amasya","lat":40.65333,"lon":35.83306,"type":"city"},{"id":"tr-323854","label":"Ambar","lat":37.85305,"lon":40.52798,"type":"city"},{"id":"tr-323828","label":"Anamur","lat":36.07508,"lon":32.83691,"type":"city"},{"id":"tr-323797","label":"Andirin","lat":37.57757,"lon":36.35492,"type":"city"},{"id":"tr-323786","label":"Ankara","lat":39.91987,"lon":32.85427,"type":"city"},{"id":"tr-323779","label":"Antakya","lat":36.20655,"lon":36.15722,"type":"city"},{"id":"tr-323777","label":"Antalya","lat":36.90812,"lon":30.69556,"type":"city"},{"id":"tr-323750","label":"Araban","lat":37.42667,"lon":37.689,"type":"city"},{"id":"tr-751976","label":"Arac","lat":41.24222,"lon":33.32767,"type":"city"},{"id":"tr-751971","label":"Arakli","lat":40.93854,"lon":40.05842,"type":"city"},{"id":"tr-323735","label":"Aralik","lat":39.87278,"lon":44.51917,"type":"city"},{"id":"tr-323721","label":"Arapgir","lat":39.04117,"lon":38.49516,"type":"city"},{"id":"tr-751952","label":"Ardahan","lat":41.10871,"lon":42.70222,"type":"city"},{"id":"tr-751950","label":"Ardanuc","lat":41.11955,"lon":42.06882,"type":"city"},{"id":"tr-751949","label":"Ardesen","lat":41.19064,"lon":40.97935,"type":"city"},{"id":"tr-751931","label":"Arhavi","lat":41.35121,"lon":41.30456,"type":"city"},{"id":"tr-323653","label":"Aricak","lat":38.5634,"lon":40.1248,"type":"city"},{"id":"tr-751868","label":"Arnavutkoey","lat":41.18355,"lon":28.7402,"type":"city"},{"id":"tr-751864","label":"Arpacay","lat":40.84522,"lon":43.32747,"type":"city"},{"id":"tr-323559","label":"Arpacbahsis","lat":36.64552,"lon":34.35077,"type":"city"},{"id":"tr-751838","label":"Arsin","lat":40.95271,"lon":39.92674,"type":"city"},{"id":"tr-298435","label":"Arsuz","lat":36.41305,"lon":35.89033,"type":"city"},{"id":"tr-751818","label":"Artova","lat":40.11578,"lon":36.3001,"type":"city"},{"id":"tr-751817","label":"Artvin","lat":41.18161,"lon":41.82172,"type":"city"},{"id":"tr-13192127","label":"Asagi Hisar","lat":36.78238,"lon":31.44805,"type":"city"},{"id":"tr-323094","label":"Askale","lat":39.92083,"lon":40.695,"type":"city"},{"id":"tr-323039","label":"Atabey","lat":37.95083,"lon":30.63861,"type":"city"},{"id":"tr-388145","label":"Atakent","lat":36.40067,"lon":34.0579,"type":"city"},{"id":"tr-9888789","label":"Atakent","lat":38.46309,"lon":27.08865,"type":"city"},{"id":"tr-6947637","label":"Atasehir","lat":40.9833,"lon":29.1167,"type":"city"},{"id":"tr-9888776","label":"Atasehir","lat":38.48855,"lon":27.06132,"type":"city"},{"id":"tr-10632124","label":"Atayurt","lat":36.38364,"lon":34.02232,"type":"city"},{"id":"tr-323014","label":"Atca","lat":37.88859,"lon":28.21528,"type":"city"},{"id":"tr-751575","label":"Atkaracalar","lat":40.81593,"lon":33.07556,"type":"city"},{"id":"tr-322965","label":"Avanos","lat":38.715,"lon":34.84667,"type":"city"},{"id":"tr-322887","label":"Avsallar","lat":36.62448,"lon":31.76941,"type":"city"},{"id":"tr-322869","label":"Avsuyu","lat":36.19355,"lon":36.31347,"type":"city"},{"id":"tr-751516","label":"Ayancik","lat":41.94472,"lon":34.58611,"type":"city"},{"id":"tr-751511","label":"Ayas","lat":40.01933,"lon":32.33221,"type":"city"},{"id":"tr-13589446","label":"Ayazli","lat":41.02702,"lon":37.47885,"type":"city"},{"id":"tr-322830","label":"Aydin","lat":37.84501,"lon":27.83963,"type":"city"},{"id":"tr-322826","label":"Aydincik","lat":36.1437,"lon":33.32016,"type":"city"},{"id":"tr-751491","label":"Aydincik","lat":40.12727,"lon":35.28765,"type":"city"},{"id":"tr-751475","label":"Aydintepe","lat":40.38325,"lon":40.14272,"type":"city"},{"id":"tr-322692","label":"Ayvacik","lat":39.60111,"lon":26.40472,"type":"city"},{"id":"tr-751427","label":"Ayvacik","lat":40.99111,"lon":36.63139,"type":"city"},{"id":"tr-322673","label":"Ayvalik","lat":39.31927,"lon":26.69341,"type":"city"},{"id":"tr-751371","label":"Babaeski","lat":41.42809,"lon":27.0966,"type":"city"},{"id":"tr-751335","label":"Bafra","lat":41.56787,"lon":35.90311,"type":"city"},{"id":"tr-322537","label":"Bagarasi","lat":37.7071,"lon":27.54875,"type":"city"},{"id":"tr-751324","label":"Bagcilar","lat":41.03903,"lon":28.85671,"type":"city"},{"id":"tr-322391","label":"Bahce","lat":37.19724,"lon":36.57658,"type":"city"},{"id":"tr-751277","label":"Bahcecik","lat":40.6681,"lon":29.91478,"type":"city"},{"id":"tr-322329","label":"Bahcelievler","lat":39.92479,"lon":32.825,"type":"city"},{"id":"tr-7627067","label":"Bahcelievler","lat":41.00231,"lon":28.8598,"type":"city"},{"id":"tr-322250","label":"Baklan","lat":37.97694,"lon":29.60861,"type":"city"},{"id":"tr-322212","label":"Balatcik","lat":38.51626,"lon":27.04752,"type":"city"},{"id":"tr-322165","label":"Balikesir","lat":39.64917,"lon":27.88611,"type":"city"},{"id":"tr-322051","label":"Banaz","lat":38.73707,"lon":29.75194,"type":"city"},{"id":"tr-751077","label":"Bandirma","lat":40.35222,"lon":27.97667,"type":"city"},{"id":"tr-751057","label":"Bartin","lat":41.63583,"lon":32.3375,"type":"city"},{"id":"tr-6947639","label":"Basaksehir","lat":41.106,"lon":28.791,"type":"city"},{"id":"tr-751036","label":"Basciftlik","lat":40.54694,"lon":37.16917,"type":"city"},{"id":"tr-321940","label":"Baskale","lat":38.04526,"lon":44.01718,"type":"city"},{"id":"tr-321929","label":"Baskil","lat":38.56866,"lon":38.81634,"type":"city"},{"id":"tr-321887","label":"Basmakci","lat":37.89722,"lon":30.01167,"type":"city"},{"id":"tr-298053","label":"Basverimli","lat":37.20332,"lon":42.53755,"type":"city"},{"id":"tr-447049","label":"Basyayla","lat":36.75337,"lon":32.68018,"type":"city"},{"id":"tr-442301","label":"Batikent","lat":39.96833,"lon":32.73083,"type":"city"},{"id":"tr-321836","label":"Batman","lat":37.88738,"lon":41.13221,"type":"city"},{"id":"tr-750948","label":"Bayat","lat":40.64583,"lon":34.26139,"type":"city"},{"id":"tr-750938","label":"Bayburt","lat":40.25631,"lon":40.22289,"type":"city"},{"id":"tr-321786","label":"Bayindir","lat":38.21741,"lon":27.64744,"type":"city"},{"id":"tr-321750","label":"Baykan","lat":38.15754,"lon":41.7733,"type":"city"},{"id":"tr-750864","label":"Bebek","lat":41.07815,"lon":29.04309,"type":"city"},{"id":"tr-321580","label":"Belek","lat":36.8631,"lon":31.06541,"type":"city"},{"id":"tr-321572","label":"Belen","lat":36.48866,"lon":36.19489,"type":"city"},{"id":"tr-321426","label":"Bergama","lat":39.12074,"lon":27.18052,"type":"city"},{"id":"tr-750735","label":"Besikduezue","lat":41.05202,"lon":39.23294,"type":"city"},{"id":"tr-321360","label":"Besiri","lat":37.91573,"lon":41.2865,"type":"city"},{"id":"tr-321337","label":"Besni","lat":37.69278,"lon":37.86111,"type":"city"},{"id":"tr-305680","label":"Beykonak","lat":36.32573,"lon":30.30302,"type":"city"},{"id":"tr-750656","label":"Beylerbeyi","lat":41.04392,"lon":29.04635,"type":"city"},{"id":"tr-6947640","label":"Beylikduezue","lat":40.982,"lon":28.6399,"type":"city"},{"id":"tr-321219","label":"Beylikova","lat":39.68694,"lon":31.20556,"type":"city"},{"id":"tr-750637","label":"Beypazari","lat":40.1675,"lon":31.92111,"type":"city"},{"id":"tr-321191","label":"Beysehir","lat":37.67735,"lon":31.72458,"type":"city"},{"id":"tr-321184","label":"Beytuessebap","lat":37.56318,"lon":43.16583,"type":"city"},{"id":"tr-750605","label":"Biga","lat":40.22806,"lon":27.24222,"type":"city"},{"id":"tr-321136","label":"Bigadic","lat":39.3925,"lon":28.13111,"type":"city"},{"id":"tr-750598","label":"Bilecik","lat":40.14192,"lon":29.97932,"type":"city"},{"id":"tr-321082","label":"Bingoel","lat":38.88472,"lon":40.49389,"type":"city"},{"id":"tr-321062","label":"Birecik","lat":37.02577,"lon":37.97841,"type":"city"},{"id":"tr-321031","label":"Bismil","lat":37.84514,"lon":40.65931,"type":"city"},{"id":"tr-321028","label":"Bitez","lat":37.04436,"lon":27.39333,"type":"city"},{"id":"tr-321025","label":"Bitlis","lat":38.40115,"lon":42.10784,"type":"city"},{"id":"tr-320995","label":"Bodrum","lat":37.03833,"lon":27.42917,"type":"city"},{"id":"tr-750519","label":"Bolluca","lat":41.20363,"lon":28.76638,"type":"city"},{"id":"tr-750516","label":"Bolu","lat":40.73583,"lon":31.60611,"type":"city"},{"id":"tr-320879","label":"Bolvadin","lat":38.71111,"lon":31.04861,"type":"city"},{"id":"tr-320871","label":"Bor","lat":37.89056,"lon":34.55889,"type":"city"},{"id":"tr-750496","label":"Borcka","lat":41.35792,"lon":41.66579,"type":"city"},{"id":"tr-750488","label":"Bostanbuekue","lat":41.21494,"lon":32.68786,"type":"city"},{"id":"tr-9888792","label":"Bostanli","lat":38.45921,"lon":27.09732,"type":"city"},{"id":"tr-750468","label":"Boyabat","lat":41.46889,"lon":34.76667,"type":"city"},{"id":"tr-750446","label":"Boyalik","lat":41.26337,"lon":28.63142,"type":"city"},{"id":"tr-320647","label":"Bozdogan","lat":37.67134,"lon":28.31395,"type":"city"},{"id":"tr-320621","label":"Bozkir","lat":37.18963,"lon":32.24736,"type":"city"},{"id":"tr-750392","label":"Bozkurt","lat":41.95769,"lon":34.01087,"type":"city"},{"id":"tr-320581","label":"Bozova","lat":37.3625,"lon":38.52667,"type":"city"},{"id":"tr-320557","label":"Bozueyuek","lat":39.90778,"lon":30.03667,"type":"city"},{"id":"tr-320552","label":"Bozyazi","lat":36.1082,"lon":32.96113,"type":"city"},{"id":"tr-320533","label":"Bucak","lat":37.45917,"lon":30.595,"type":"city"},{"id":"tr-320406","label":"Buenyan","lat":38.8463,"lon":35.86033,"type":"city"},{"id":"tr-6947641","label":"Bueyuekcekmece","lat":41.02072,"lon":28.58502,"type":"city"},{"id":"tr-750214","label":"Bueyuekdere","lat":41.16048,"lon":29.04154,"type":"city"},{"id":"tr-320374","label":"Buharkent","lat":37.96397,"lon":28.7427,"type":"city"},{"id":"tr-750317","label":"Bulancak","lat":40.93805,"lon":38.23148,"type":"city"},{"id":"tr-320448","label":"Bulanik","lat":39.08656,"lon":42.27158,"type":"city"},{"id":"tr-320437","label":"Buldan","lat":38.045,"lon":28.83056,"type":"city"},{"id":"tr-320392","label":"Burdur","lat":37.72028,"lon":30.29083,"type":"city"},{"id":"tr-320369","label":"Burhaniye","lat":39.50041,"lon":26.97269,"type":"city"},{"id":"tr-750269","label":"Bursa","lat":40.19559,"lon":29.06013,"type":"city"},{"id":"tr-9888782","label":"Cagdas","lat":38.50534,"lon":27.06234,"type":"city"},{"id":"tr-320004","label":"Caglayancerit","lat":37.74523,"lon":37.28618,"type":"city"},{"id":"tr-749916","label":"Camas","lat":40.902,"lon":37.52786,"type":"city"},{"id":"tr-749843","label":"Camlidere","lat":40.48958,"lon":32.47499,"type":"city"},{"id":"tr-325159","label":"Camyuva","lat":36.55361,"lon":30.55957,"type":"city"},{"id":"tr-749795","label":"Can","lat":40.03328,"lon":27.05236,"type":"city"},{"id":"tr-749780","label":"Canakkale","lat":40.15552,"lon":26.41271,"type":"city"},{"id":"tr-6955677","label":"Cankaya","lat":39.9179,"lon":32.86268,"type":"city"},{"id":"tr-749748","label":"Cankiri","lat":40.59995,"lon":33.6153,"type":"city"},{"id":"tr-749740","label":"Canta","lat":41.07897,"lon":28.08323,"type":"city"},{"id":"tr-749704","label":"Carsamba","lat":41.19889,"lon":36.72194,"type":"city"},{"id":"tr-319357","label":"Cat","lat":39.60641,"lon":40.96844,"type":"city"},{"id":"tr-749644","label":"Catalca","lat":41.14073,"lon":28.45967,"type":"city"},{"id":"tr-319118","label":"Cavuslu","lat":37.50018,"lon":41.25108,"type":"city"},{"id":"tr-319104","label":"Cay","lat":38.59167,"lon":31.02861,"type":"city"},{"id":"tr-749508","label":"Caycuma","lat":41.42639,"lon":32.07556,"type":"city"},{"id":"tr-749502","label":"Cayeli","lat":41.08609,"lon":40.72213,"type":"city"},{"id":"tr-319069","label":"Cayiralan","lat":39.30278,"lon":35.64389,"type":"city"},{"id":"tr-749481","label":"Cayirhan","lat":40.09806,"lon":31.67319,"type":"city"},{"id":"tr-749456","label":"Caykara","lat":40.74267,"lon":40.23175,"type":"city"},{"id":"tr-318987","label":"Cayyolu","lat":39.8808,"lon":32.70954,"type":"city"},{"id":"tr-749392","label":"Cekerek","lat":40.07306,"lon":35.49472,"type":"city"},{"id":"tr-857229","label":"Celaliye","lat":41.05151,"lon":28.41956,"type":"city"},{"id":"tr-318904","label":"Celikhan","lat":38.0256,"lon":38.23665,"type":"city"},{"id":"tr-318885","label":"Celtik","lat":39.02444,"lon":31.79056,"type":"city"},{"id":"tr-749323","label":"Cengelkoey","lat":41.05062,"lon":29.0551,"type":"city"},{"id":"tr-749279","label":"Cerkes","lat":40.81164,"lon":32.89358,"type":"city"},{"id":"tr-749274","label":"Cerkezkoey","lat":41.28629,"lon":27.99939,"type":"city"},{"id":"tr-318766","label":"Cermik","lat":38.13538,"lon":39.445,"type":"city"},{"id":"tr-318755","label":"Cesme","lat":38.32614,"lon":26.30574,"type":"city"},{"id":"tr-318749","label":"Cesmeli","lat":36.68599,"lon":34.42189,"type":"city"},{"id":"tr-10182514","label":"Cestepe","lat":37.82522,"lon":27.85166,"type":"city"},{"id":"tr-97473","label":"Cey","lat":37.2621,"lon":44.04086,"type":"city"},{"id":"tr-318675","label":"Ceyhan","lat":37.02472,"lon":35.8175,"type":"city"},{"id":"tr-318668","label":"Ceylanpinar","lat":36.84722,"lon":40.05,"type":"city"},{"id":"tr-749183","label":"Cide","lat":41.89211,"lon":33.00439,"type":"city"},{"id":"tr-318603","label":"Cifteler","lat":39.38306,"lon":31.03917,"type":"city"},{"id":"tr-749163","label":"Ciftlikkoey","lat":40.66028,"lon":29.32361,"type":"city"},{"id":"tr-320257","label":"Cigli","lat":38.49645,"lon":27.07029,"type":"city"},{"id":"tr-318506","label":"Cihanbeyli","lat":38.66072,"lon":32.92437,"type":"city"},{"id":"tr-8069036","label":"Cikcilli","lat":36.55403,"lon":32.02962,"type":"city"},{"id":"tr-298230","label":"Cimin","lat":39.70947,"lon":39.70015,"type":"city"},{"id":"tr-749075","label":"Cinarcik","lat":40.64538,"lon":29.1245,"type":"city"},{"id":"tr-318372","label":"Cine","lat":37.61266,"lon":28.05912,"type":"city"},{"id":"tr-8068986","label":"Ciplakli","lat":36.56266,"lon":32.05226,"type":"city"},{"id":"tr-318264","label":"Civril","lat":38.30139,"lon":29.73861,"type":"city"},{"id":"tr-318253","label":"Cizre","lat":37.33024,"lon":42.18484,"type":"city"},{"id":"tr-6692520","label":"Colakli","lat":36.83739,"lon":31.31842,"type":"city"},{"id":"tr-748893","label":"Corlu","lat":41.16069,"lon":27.80093,"type":"city"},{"id":"tr-748879","label":"Corum","lat":40.54889,"lon":34.95333,"type":"city"},{"id":"tr-748870","label":"Cubuk","lat":40.23861,"lon":33.03222,"type":"city"},{"id":"tr-8623183","label":"Cubuklu","lat":41.10419,"lon":29.08331,"type":"city"},{"id":"tr-317837","label":"Cuengues","lat":38.20798,"lon":39.28554,"type":"city"},{"id":"tr-317953","label":"Cukurca","lat":37.24806,"lon":43.61361,"type":"city"},{"id":"tr-8140653","label":"Cumayeri","lat":40.87389,"lon":30.95091,"type":"city"},{"id":"tr-9888807","label":"Cumhuriyet","lat":38.47934,"lon":27.09881,"type":"city"},{"id":"tr-317844","label":"Cumra","lat":37.5732,"lon":32.77446,"type":"city"},{"id":"tr-748761","label":"Daday","lat":41.47866,"lon":33.46667,"type":"city"},{"id":"tr-447273","label":"Dalaman","lat":36.76591,"lon":28.8028,"type":"city"},{"id":"tr-317588","label":"Darende","lat":38.54583,"lon":37.50583,"type":"city"},{"id":"tr-317587","label":"Dargecit","lat":37.54616,"lon":41.71652,"type":"city"},{"id":"tr-317543","label":"Datca","lat":36.73778,"lon":27.68417,"type":"city"},{"id":"tr-317515","label":"Davutlar","lat":37.73392,"lon":27.29283,"type":"city"},{"id":"tr-317496","label":"Dazkiri","lat":37.91861,"lon":29.86056,"type":"city"},{"id":"tr-317332","label":"Delice","lat":39.95371,"lon":34.02587,"type":"city"},{"id":"tr-317236","label":"Demirci","lat":39.8,"lon":29.01667,"type":"city"},{"id":"tr-317241","label":"Demirci","lat":39.04607,"lon":28.65889,"type":"city"},{"id":"tr-9888797","label":"Demirkoeprue","lat":38.46804,"lon":27.09867,"type":"city"},{"id":"tr-748378","label":"Demirtas","lat":40.27194,"lon":29.09833,"type":"city"},{"id":"tr-295781","label":"Demre","lat":36.24444,"lon":29.985,"type":"city"},{"id":"tr-438400","label":"Denizciler","lat":36.6411,"lon":36.21418,"type":"city"},{"id":"tr-317109","label":"Denizli","lat":37.77417,"lon":29.0875,"type":"city"},{"id":"tr-317095","label":"Derbent","lat":38.01422,"lon":32.01639,"type":"city"},{"id":"tr-317049","label":"Derebucak","lat":37.39179,"lon":31.50918,"type":"city"},{"id":"tr-748240","label":"Dereli","lat":40.7389,"lon":38.44337,"type":"city"},{"id":"tr-748208","label":"Derince","lat":40.75694,"lon":29.81472,"type":"city"},{"id":"tr-316877","label":"Derinkuyu","lat":38.3751,"lon":34.73419,"type":"city"},{"id":"tr-748200","label":"Dernekpazari","lat":40.79658,"lon":40.2446,"type":"city"},{"id":"tr-316795","label":"Develi","lat":38.39056,"lon":35.49222,"type":"city"},{"id":"tr-748167","label":"Devrek","lat":41.21917,"lon":31.95583,"type":"city"},{"id":"tr-748166","label":"Devrekani","lat":41.60303,"lon":33.83922,"type":"city"},{"id":"tr-316746","label":"Dicle","lat":38.36571,"lon":40.0645,"type":"city"},{"id":"tr-297090","label":"Didim","lat":37.38496,"lon":27.25643,"type":"city"},{"id":"tr-316726","label":"Dikili","lat":39.071,"lon":26.89017,"type":"city"},{"id":"tr-316667","label":"Dilek","lat":38.4422,"lon":38.25076,"type":"city"},{"id":"tr-12196106","label":"Diliskelesi","lat":40.77569,"lon":29.52678,"type":"city"},{"id":"tr-316634","label":"Dinar","lat":38.065,"lon":30.16557,"type":"city"},{"id":"tr-316544","label":"Divrigi","lat":39.371,"lon":38.1137,"type":"city"},{"id":"tr-316542","label":"Diyadin","lat":39.54056,"lon":43.67135,"type":"city"},{"id":"tr-316541","label":"Diyarbakir","lat":37.91363,"lon":40.21721,"type":"city"},{"id":"tr-316284","label":"Doertyol","lat":36.83917,"lon":36.23025,"type":"city"},{"id":"tr-316475","label":"Doganhisar","lat":38.1463,"lon":31.67648,"type":"city"},{"id":"tr-316469","label":"Dogankent","lat":36.84432,"lon":35.34396,"type":"city"},{"id":"tr-316440","label":"Dogansehir","lat":38.08574,"lon":37.87116,"type":"city"},{"id":"tr-316431","label":"Doganyol","lat":38.30746,"lon":39.03431,"type":"city"},{"id":"tr-316411","label":"Dogubayazit","lat":39.54694,"lon":44.08417,"type":"city"},{"id":"tr-316330","label":"Domanic","lat":39.80194,"lon":29.60918,"type":"city"},{"id":"tr-316214","label":"Duegrek","lat":37.20617,"lon":28.4097,"type":"city"},{"id":"tr-747764","label":"Duezce","lat":40.83889,"lon":31.16389,"type":"city"},{"id":"tr-747751","label":"Duezkoey","lat":40.87461,"lon":39.41536,"type":"city"},{"id":"tr-747826","label":"Duragan","lat":41.41583,"lon":35.05444,"type":"city"},{"id":"tr-316102","label":"Dursunbey","lat":39.58596,"lon":28.62568,"type":"city"},{"id":"tr-438119","label":"Dursunlu","lat":36.16736,"lon":36.15788,"type":"city"},{"id":"tr-747728","label":"Eceabat","lat":40.18416,"lon":26.3574,"type":"city"},{"id":"tr-747712","label":"Edirne","lat":41.67719,"lon":26.55597,"type":"city"},{"id":"tr-301529","label":"Edremit","lat":38.42069,"lon":43.25889,"type":"city"},{"id":"tr-315985","label":"Edremit","lat":39.59611,"lon":27.02444,"type":"city"},{"id":"tr-9888783","label":"Egekent","lat":38.505,"lon":27.064,"type":"city"},{"id":"tr-315905","label":"Egirdir","lat":37.87462,"lon":30.85042,"type":"city"},{"id":"tr-315835","label":"Ekinoezue","lat":38.05974,"lon":37.18786,"type":"city"},{"id":"tr-315808","label":"Elazig","lat":38.67431,"lon":39.22321,"type":"city"},{"id":"tr-315795","label":"Elbistan","lat":38.20591,"lon":37.1983,"type":"city"},{"id":"tr-747618","label":"Eldivan","lat":40.52975,"lon":33.49903,"type":"city"},{"id":"tr-315758","label":"Eleskirt","lat":39.79803,"lon":42.67574,"type":"city"},{"id":"tr-315720","label":"Elmadag","lat":39.92083,"lon":33.23083,"type":"city"},{"id":"tr-315697","label":"Elmali","lat":36.73583,"lon":29.91775,"type":"city"},{"id":"tr-315639","label":"Emet","lat":39.343,"lon":29.25847,"type":"city"},{"id":"tr-747538","label":"Eminoenue","lat":41.01754,"lon":28.97101,"type":"city"},{"id":"tr-315621","label":"Emirdag","lat":39.01972,"lon":31.15,"type":"city"},{"id":"tr-315617","label":"Emirgazi","lat":37.90222,"lon":33.83722,"type":"city"},{"id":"tr-747489","label":"Erbaa","lat":40.66889,"lon":36.5675,"type":"city"},{"id":"tr-315530","label":"Ercis","lat":39.02587,"lon":43.35964,"type":"city"},{"id":"tr-747482","label":"Erdek","lat":40.3996,"lon":27.79348,"type":"city"},{"id":"tr-315515","label":"Erdemli","lat":36.60498,"lon":34.30836,"type":"city"},{"id":"tr-315498","label":"Eregli","lat":37.51333,"lon":34.04672,"type":"city"},{"id":"tr-747471","label":"Eregli","lat":41.28261,"lon":31.41806,"type":"city"},{"id":"tr-315468","label":"Ergani","lat":38.26899,"lon":39.75446,"type":"city"},{"id":"tr-315401","label":"Ermenek","lat":36.64043,"lon":32.89179,"type":"city"},{"id":"tr-315378","label":"Eruh","lat":37.74183,"lon":42.17422,"type":"city"},{"id":"tr-296852","label":"Erzin","lat":36.95348,"lon":36.19839,"type":"city"},{"id":"tr-315373","label":"Erzincan","lat":39.73919,"lon":39.49015,"type":"city"},{"id":"tr-315368","label":"Erzurum","lat":39.90861,"lon":41.27694,"type":"city"},{"id":"tr-747340","label":"Esenler","lat":41.0435,"lon":28.87619,"type":"city"},{"id":"tr-13590569","label":"Esentepe","lat":38.51205,"lon":27.0624,"type":"city"},{"id":"tr-747323","label":"Esenyurt","lat":41.02697,"lon":28.67732,"type":"city"},{"id":"tr-315202","label":"Eskisehir","lat":39.77667,"lon":30.52056,"type":"city"},{"id":"tr-315183","label":"Esme","lat":38.39976,"lon":28.96905,"type":"city"},{"id":"tr-831432","label":"Espiye","lat":40.94705,"lon":38.70299,"type":"city"},{"id":"tr-7669146","label":"Etiler","lat":41.0843,"lon":29.03588,"type":"city"},{"id":"tr-315153","label":"Etlik","lat":39.98205,"lon":32.82459,"type":"city"},{"id":"tr-9888785","label":"Evka-Bes","lat":38.517,"lon":27.053,"type":"city"},{"id":"tr-9921442","label":"Evka-UEc","lat":38.47071,"lon":27.25094,"type":"city"},{"id":"tr-747191","label":"Eynesil","lat":41.06436,"lon":39.14274,"type":"city"},{"id":"tr-315061","label":"Ezine","lat":39.78561,"lon":26.34083,"type":"city"},{"id":"tr-747158","label":"Fatih","lat":41.0225,"lon":28.94083,"type":"city"},{"id":"tr-747155","label":"Fatsa","lat":41.02886,"lon":37.49977,"type":"city"},{"id":"tr-314996","label":"Felahiye","lat":39.09056,"lon":35.56722,"type":"city"},{"id":"tr-747135","label":"Ferizli","lat":40.94082,"lon":30.48583,"type":"city"},{"id":"tr-314967","label":"Fethiye","lat":36.64038,"lon":29.12758,"type":"city"},{"id":"tr-314923","label":"Finike","lat":36.295,"lon":30.14056,"type":"city"},{"id":"tr-314903","label":"Foca","lat":38.6703,"lon":26.75656,"type":"city"},{"id":"tr-314830","label":"Gaziantep","lat":37.05944,"lon":37.3825,"type":"city"},{"id":"tr-314812","label":"Gazipasa","lat":36.26942,"lon":32.31792,"type":"city"},{"id":"tr-747014","label":"Gebze","lat":40.80276,"lon":29.43068,"type":"city"},{"id":"tr-314716","label":"Gediz","lat":38.99389,"lon":29.39131,"type":"city"},{"id":"tr-314698","label":"Gelendost","lat":38.12083,"lon":31.01528,"type":"city"},{"id":"tr-746983","label":"Gelibolu","lat":40.40836,"lon":26.67174,"type":"city"},{"id":"tr-314677","label":"Gelinkaya","lat":37.41732,"lon":41.2695,"type":"city"},{"id":"tr-314665","label":"Gemerek","lat":39.18342,"lon":36.07189,"type":"city"},{"id":"tr-746958","label":"Gemlik","lat":40.43094,"lon":29.15969,"type":"city"},{"id":"tr-314648","label":"Genc","lat":38.74773,"lon":40.55343,"type":"city"},{"id":"tr-314608","label":"Gercues","lat":37.56249,"lon":41.37753,"type":"city"},{"id":"tr-746940","label":"Gerede","lat":40.80083,"lon":32.19694,"type":"city"},{"id":"tr-314573","label":"Germencik","lat":37.87056,"lon":27.60283,"type":"city"},{"id":"tr-746913","label":"Gerze","lat":41.80361,"lon":35.20111,"type":"city"},{"id":"tr-314557","label":"Gevas","lat":38.2921,"lon":43.10189,"type":"city"},{"id":"tr-746898","label":"Geyve","lat":40.5075,"lon":30.2925,"type":"city"},{"id":"tr-746881","label":"Giresun","lat":40.91698,"lon":38.38741,"type":"city"},{"id":"tr-746821","label":"Goekcebey","lat":41.30583,"lon":32.14234,"type":"city"},{"id":"tr-314188","label":"Goeksun","lat":38.02096,"lon":36.4973,"type":"city"},{"id":"tr-314133","label":"Goelbasi","lat":39.79043,"lon":32.80903,"type":"city"},{"id":"tr-314136","label":"Goelbasi","lat":37.78361,"lon":37.63667,"type":"city"},{"id":"tr-746666","label":"Goelcuek","lat":40.71501,"lon":29.81824,"type":"city"},{"id":"tr-746643","label":"Goele","lat":40.78746,"lon":42.60603,"type":"city"},{"id":"tr-314072","label":"Goelhisar","lat":37.1459,"lon":29.50876,"type":"city"},{"id":"tr-314038","label":"Goelmarmara","lat":38.71389,"lon":27.91417,"type":"city"},{"id":"tr-746602","label":"Goelpazari","lat":40.28472,"lon":30.31722,"type":"city"},{"id":"tr-313973","label":"Goenen","lat":37.95639,"lon":30.5114,"type":"city"},{"id":"tr-746574","label":"Goenen","lat":40.1049,"lon":27.65399,"type":"city"},{"id":"tr-313960","label":"Goerdes","lat":38.93278,"lon":28.28942,"type":"city"},{"id":"tr-746565","label":"Goerele","lat":41.03083,"lon":39.00306,"type":"city"},{"id":"tr-313947","label":"Goereme","lat":38.64284,"lon":34.82885,"type":"city"},{"id":"tr-746552","label":"Goeruekle","lat":40.23114,"lon":28.84017,"type":"city"},{"id":"tr-313900","label":"Goeynuek","lat":36.66,"lon":30.55,"type":"city"},{"id":"tr-746546","label":"Goeynuek","lat":40.40028,"lon":30.78833,"type":"city"},{"id":"tr-747263","label":"Goezyeri","lat":40.86596,"lon":32.54167,"type":"city"},{"id":"tr-745260","label":"Gokceada","lat":40.20107,"lon":25.90902,"type":"city"},{"id":"tr-746497","label":"Gueduel","lat":40.21051,"lon":32.24552,"type":"city"},{"id":"tr-313669","label":"Guelnar","lat":36.34148,"lon":33.39921,"type":"city"},{"id":"tr-313658","label":"Guelsehir","lat":38.74594,"lon":34.62524,"type":"city"},{"id":"tr-746426","label":"Guemueshacikoey","lat":40.87306,"lon":35.21472,"type":"city"},{"id":"tr-746425","label":"Guemueshane","lat":40.46001,"lon":39.47176,"type":"city"},{"id":"tr-313526","label":"Guendogmus","lat":36.81339,"lon":31.99971,"type":"city"},{"id":"tr-746308","label":"Gueneysu","lat":40.9813,"lon":40.60465,"type":"city"},{"id":"tr-6354985","label":"Guengoeren Merter","lat":41.00711,"lon":28.88795,"type":"city"},{"id":"tr-313379","label":"Guerbuez","lat":38.37911,"lon":40.36248,"type":"city"},{"id":"tr-746252","label":"Guergentepe","lat":40.78995,"lon":37.60073,"type":"city"},{"id":"tr-313331","label":"Gueroymak","lat":38.5758,"lon":42.01558,"type":"city"},{"id":"tr-746234","label":"Guerpinar","lat":40.99256,"lon":28.61428,"type":"city"},{"id":"tr-746232","label":"Guersu","lat":40.21876,"lon":29.19487,"type":"city"},{"id":"tr-313314","label":"Gueruen","lat":38.72225,"lon":37.27097,"type":"city"},{"id":"tr-313248","label":"Guezelcamli","lat":37.71333,"lon":27.22778,"type":"city"},{"id":"tr-13590565","label":"Guzeltepe","lat":38.50335,"lon":27.07283,"type":"city"},{"id":"tr-313110","label":"Hacibektas","lat":38.94077,"lon":34.5577,"type":"city"},{"id":"tr-313013","label":"Hacilar","lat":38.64631,"lon":35.44937,"type":"city"},{"id":"tr-312899","label":"Hadim","lat":36.98776,"lon":32.45674,"type":"city"},{"id":"tr-318137","label":"Hakkari","lat":37.57444,"lon":43.74083,"type":"city"},{"id":"tr-745903","label":"Hanak","lat":41.23344,"lon":42.84037,"type":"city"},{"id":"tr-312663","label":"Hani","lat":38.40741,"lon":40.38578,"type":"city"},{"id":"tr-312659","label":"Hanimciftligi","lat":38.37849,"lon":38.3348,"type":"city"},{"id":"tr-312531","label":"Harran","lat":36.86,"lon":39.03139,"type":"city"},{"id":"tr-312504","label":"Hasanbeyli","lat":37.12838,"lon":36.54608,"type":"city"},{"id":"tr-312405","label":"Hassa","lat":36.79944,"lon":36.51778,"type":"city"},{"id":"tr-312422","label":"Hasyurt","lat":36.32415,"lon":30.22285,"type":"city"},{"id":"tr-312355","label":"Havran","lat":39.55833,"lon":27.09833,"type":"city"},{"id":"tr-745719","label":"Havsa","lat":41.54898,"lon":26.82207,"type":"city"},{"id":"tr-745714","label":"Havza","lat":40.97056,"lon":35.66222,"type":"city"},{"id":"tr-312289","label":"Haymana","lat":39.43212,"lon":32.49732,"type":"city"},{"id":"tr-745697","label":"Hayrabolu","lat":41.21311,"lon":27.10688,"type":"city"},{"id":"tr-745693","label":"Hayrat","lat":40.8853,"lon":40.36495,"type":"city"},{"id":"tr-312253","label":"Hazro","lat":38.24903,"lon":40.77129,"type":"city"},{"id":"tr-312245","label":"Hekimhan","lat":38.81622,"lon":37.92882,"type":"city"},{"id":"tr-745664","label":"Hendek","lat":40.79944,"lon":30.74806,"type":"city"},{"id":"tr-312156","label":"Hidirbey","lat":36.20802,"lon":36.12787,"type":"city"},{"id":"tr-312134","label":"Hilvan","lat":37.58687,"lon":38.95505,"type":"city"},{"id":"tr-312114","label":"Hinis","lat":39.35766,"lon":41.69253,"type":"city"},{"id":"tr-312024","label":"Hizan","lat":38.22498,"lon":42.4183,"type":"city"},{"id":"tr-311962","label":"Honaz","lat":37.7573,"lon":29.26996,"type":"city"},{"id":"tr-745530","label":"Hopa","lat":41.39046,"lon":41.41966,"type":"city"},{"id":"tr-745527","label":"Horasan","lat":40.03885,"lon":42.16366,"type":"city"},{"id":"tr-311869","label":"Hozat","lat":39.10029,"lon":39.20816,"type":"city"},{"id":"tr-311777","label":"Hueyuek","lat":37.95388,"lon":31.59639,"type":"city"},{"id":"tr-322817","label":"Ibradi","lat":37.09694,"lon":31.59917,"type":"city"},{"id":"tr-311711","label":"Icmeler","lat":36.79859,"lon":28.22635,"type":"city"},{"id":"tr-311704","label":"Idil","lat":37.33481,"lon":41.88944,"type":"city"},{"id":"tr-311665","label":"Igdir","lat":39.92371,"lon":44.045,"type":"city"},{"id":"tr-311645","label":"Ihsaniye","lat":39.02916,"lon":30.41639,"type":"city"},{"id":"tr-745383","label":"Ihsaniye","lat":40.69087,"lon":29.83472,"type":"city"},{"id":"tr-745364","label":"Ikizce","lat":41.05833,"lon":37.08028,"type":"city"},{"id":"tr-745344","label":"Ilgaz","lat":40.92511,"lon":33.62586,"type":"city"},{"id":"tr-311553","label":"Ilgin","lat":38.27917,"lon":31.91389,"type":"city"},{"id":"tr-311547","label":"Ilic","lat":39.45654,"lon":38.56474,"type":"city"},{"id":"tr-311533","label":"Ilica","lat":39.94653,"lon":41.0952,"type":"city"},{"id":"tr-311453","label":"Imamoglu","lat":37.26506,"lon":35.65717,"type":"city"},{"id":"tr-745261","label":"Imrahor","lat":41.21695,"lon":28.74401,"type":"city"},{"id":"tr-311433","label":"Imranli","lat":39.87544,"lon":38.11358,"type":"city"},{"id":"tr-311381","label":"Incek","lat":39.80701,"lon":32.69816,"type":"city"},{"id":"tr-7926667","label":"Incirli","lat":39.98431,"lon":32.84317,"type":"city"},{"id":"tr-311314","label":"Incirliova","lat":37.85222,"lon":27.72361,"type":"city"},{"id":"tr-745175","label":"Inebolu","lat":41.97893,"lon":33.76012,"type":"city"},{"id":"tr-745169","label":"Inegol","lat":40.07806,"lon":29.51333,"type":"city"},{"id":"tr-311264","label":"Inoenue","lat":37.31667,"lon":33.76667,"type":"city"},{"id":"tr-9888786","label":"Inonu","lat":38.53283,"lon":27.05639,"type":"city"},{"id":"tr-745148","label":"Ipsala","lat":40.92115,"lon":26.38273,"type":"city"},{"id":"tr-311193","label":"Iscehisar","lat":38.86194,"lon":30.75028,"type":"city"},{"id":"tr-311159","label":"Isiklar","lat":38.67101,"lon":30.74098,"type":"city"},{"id":"tr-311111","label":"Iskenderun","lat":36.58718,"lon":36.17347,"type":"city"},{"id":"tr-745076","label":"Iskilip","lat":40.73528,"lon":34.47389,"type":"city"},{"id":"tr-311073","label":"Isparta","lat":37.76444,"lon":30.55222,"type":"city"},{"id":"tr-745047","label":"Ispir","lat":40.47981,"lon":40.99373,"type":"city"},{"id":"tr-745044","label":"Istanbul","lat":41.01384,"lon":28.94966,"type":"city"},{"id":"tr-745039","label":"Istinye","lat":41.11008,"lon":29.05094,"type":"city"},{"id":"tr-311054","label":"Ivrindi","lat":39.58389,"lon":27.48639,"type":"city"},{"id":"tr-745030","label":"Iyidere","lat":41.01192,"lon":40.36185,"type":"city"},{"id":"tr-9888784","label":"Izkent","lat":38.512,"lon":27.065,"type":"city"},{"id":"tr-311046","label":"Izmir","lat":38.41273,"lon":27.13838,"type":"city"},{"id":"tr-745028","label":"Izmit","lat":40.76499,"lon":29.92928,"type":"city"},{"id":"tr-745026","label":"Iznik","lat":40.42861,"lon":29.72111,"type":"city"},{"id":"tr-310982","label":"Kabala","lat":37.35045,"lon":40.80287,"type":"city"},{"id":"tr-744958","label":"Kabatas","lat":40.75,"lon":37.45,"type":"city"},{"id":"tr-310907","label":"Kadinhani","lat":38.23972,"lon":32.21139,"type":"city"},{"id":"tr-310892","label":"Kadirli","lat":37.37389,"lon":36.09611,"type":"city"},{"id":"tr-310888","label":"Kadisehri","lat":39.99568,"lon":35.79193,"type":"city"},{"id":"tr-8378719","label":"Kadriye","lat":36.88655,"lon":31.00608,"type":"city"},{"id":"tr-744873","label":"Kagizman","lat":40.15669,"lon":43.13424,"type":"city"},{"id":"tr-310859","label":"Kahramanmaras","lat":37.5847,"lon":36.92641,"type":"city"},{"id":"tr-310855","label":"Kahta","lat":37.78552,"lon":38.6237,"type":"city"},{"id":"tr-310784","label":"Kale","lat":39.03333,"lon":38,"type":"city"},{"id":"tr-310789","label":"Kale","lat":37.43917,"lon":28.84528,"type":"city"},{"id":"tr-744814","label":"Kalecik","lat":40.09722,"lon":33.40833,"type":"city"},{"id":"tr-744767","label":"Kalkandere","lat":40.92046,"lon":40.43692,"type":"city"},{"id":"tr-310641","label":"Kaman","lat":39.3575,"lon":33.72389,"type":"city"},{"id":"tr-744716","label":"Kandira","lat":41.07,"lon":30.15262,"type":"city"},{"id":"tr-310554","label":"Kangal","lat":39.23354,"lon":37.39111,"type":"city"},{"id":"tr-7701384","label":"Karabaglar","lat":38.382,"lon":27.132,"type":"city"},{"id":"tr-744562","label":"Karabuek","lat":41.20488,"lon":32.62768,"type":"city"},{"id":"tr-744537","label":"Karacabey","lat":40.21323,"lon":28.3612,"type":"city"},{"id":"tr-310083","label":"Karacaoeren","lat":37.47789,"lon":37.68225,"type":"city"},{"id":"tr-310044","label":"Karacasu","lat":37.72816,"lon":28.60569,"type":"city"},{"id":"tr-310004","label":"Karacoban","lat":39.34364,"lon":42.09918,"type":"city"},{"id":"tr-309758","label":"Karaisali","lat":37.25667,"lon":35.05889,"type":"city"},{"id":"tr-309705","label":"Karakecili","lat":39.59417,"lon":33.37778,"type":"city"},{"id":"tr-309683","label":"Karakise","lat":36.85,"lon":36.21667,"type":"city"},{"id":"tr-309663","label":"Karakocan","lat":38.95178,"lon":40.02706,"type":"city"},{"id":"tr-309610","label":"Karakoyunlu","lat":39.87036,"lon":43.63014,"type":"city"},{"id":"tr-309527","label":"Karaman","lat":37.18111,"lon":33.215,"type":"city"},{"id":"tr-744168","label":"Karamuersel","lat":40.69129,"lon":29.61649,"type":"city"},{"id":"tr-309415","label":"Karapinar","lat":37.71596,"lon":33.55064,"type":"city"},{"id":"tr-13591682","label":"Karapinar","lat":37.76092,"lon":38.25725,"type":"city"},{"id":"tr-744092","label":"Karasu","lat":41.10442,"lon":30.69664,"type":"city"},{"id":"tr-744093","label":"Karasu Mahallesi","lat":41.07096,"lon":30.78543,"type":"city"},{"id":"tr-309312","label":"Karatas","lat":36.58204,"lon":35.37014,"type":"city"},{"id":"tr-309199","label":"Karayazi","lat":39.69604,"lon":42.14277,"type":"city"},{"id":"tr-309192","label":"Karayilan","lat":36.71075,"lon":36.20488,"type":"city"},{"id":"tr-6692513","label":"Kargicak","lat":36.47817,"lon":32.10931,"type":"city"},{"id":"tr-309032","label":"Karliova","lat":39.29044,"lon":41.00594,"type":"city"},{"id":"tr-743952","label":"Kars","lat":40.59825,"lon":43.08548,"type":"city"},{"id":"tr-308988","label":"Karsiyaka","lat":38.45772,"lon":27.1142,"type":"city"},{"id":"tr-7642396","label":"Karsli","lat":37.05897,"lon":35.29903,"type":"city"},{"id":"tr-308948","label":"Kas","lat":36.20176,"lon":29.63766,"type":"city"},{"id":"tr-438056","label":"Kastal","lat":36.2476,"lon":36.2409,"type":"city"},{"id":"tr-743882","label":"Kastamonu","lat":41.37805,"lon":33.77528,"type":"city"},{"id":"tr-743851","label":"Kavak","lat":41.07833,"lon":36.0425,"type":"city"},{"id":"tr-743818","label":"Kavakli","lat":41.09258,"lon":28.33172,"type":"city"},{"id":"tr-8017101","label":"Kavaklidere","lat":39.91154,"lon":32.85795,"type":"city"},{"id":"tr-308697","label":"Kayabaglar","lat":37.98599,"lon":41.66756,"type":"city"},{"id":"tr-308572","label":"Kayapinar","lat":37.55762,"lon":41.16231,"type":"city"},{"id":"tr-743633","label":"Kaynarca","lat":41.03083,"lon":30.3075,"type":"city"},{"id":"tr-743624","label":"Kaynasli","lat":40.76917,"lon":31.32211,"type":"city"},{"id":"tr-308464","label":"Kayseri","lat":38.73222,"lon":35.48528,"type":"city"},{"id":"tr-743615","label":"Kazan","lat":40.23167,"lon":32.68389,"type":"city"},{"id":"tr-308389","label":"Keban","lat":38.7938,"lon":38.73517,"type":"city"},{"id":"tr-308365","label":"Keciborlu","lat":37.9425,"lon":30.30222,"type":"city"},{"id":"tr-743537","label":"Kelkit","lat":40.12682,"lon":39.43424,"type":"city"},{"id":"tr-308224","label":"Kemalpasa","lat":38.42621,"lon":27.41731,"type":"city"},{"id":"tr-308220","label":"Kemer","lat":36.59778,"lon":30.56056,"type":"city"},{"id":"tr-308208","label":"Kemeragzi","lat":37.10647,"lon":30.39864,"type":"city"},{"id":"tr-308133","label":"Kepsut","lat":39.68889,"lon":28.15222,"type":"city"},{"id":"tr-743439","label":"Kesan","lat":40.85525,"lon":26.63266,"type":"city"},{"id":"tr-743438","label":"Kesap","lat":40.91032,"lon":38.5013,"type":"city"},{"id":"tr-308024","label":"Keskin","lat":39.67306,"lon":33.61361,"type":"city"},{"id":"tr-319528","label":"Kestel","lat":36.50861,"lon":32.08278,"type":"city"},{"id":"tr-743404","label":"Kestel","lat":40.19828,"lon":29.21237,"type":"city"},{"id":"tr-307864","label":"Kilis","lat":36.71611,"lon":37.115,"type":"city"},{"id":"tr-300438","label":"Kindirip","lat":37.44706,"lon":41.21976,"type":"city"},{"id":"tr-307786","label":"Kinik","lat":39.08722,"lon":27.38333,"type":"city"},{"id":"tr-307727","label":"Kiraz","lat":38.23056,"lon":28.20444,"type":"city"},{"id":"tr-307677","label":"Kirecocagi","lat":37.05,"lon":35.23333,"type":"city"},{"id":"tr-307657","label":"Kirikhan","lat":36.49939,"lon":36.35755,"type":"city"},{"id":"tr-307654","label":"Kirikkale","lat":39.84528,"lon":33.50639,"type":"city"},{"id":"tr-307623","label":"Kirkagac","lat":39.10638,"lon":27.66925,"type":"city"},{"id":"tr-743166","label":"Kirklareli","lat":41.73508,"lon":27.22521,"type":"city"},{"id":"tr-307515","label":"Kirsehir","lat":39.14583,"lon":34.16389,"type":"city"},{"id":"tr-743051","label":"Kizilcahamam","lat":40.46972,"lon":32.65056,"type":"city"},{"id":"tr-307290","label":"Kizilcasar","lat":39.82264,"lon":32.73292,"type":"city"},{"id":"tr-307084","label":"Kiziltepe","lat":37.18836,"lon":40.57723,"type":"city"},{"id":"tr-742902","label":"Kocaali","lat":41.05336,"lon":30.85278,"type":"city"},{"id":"tr-306962","label":"Kocahasanli","lat":36.58417,"lon":34.27359,"type":"city"},{"id":"tr-742855","label":"Kocakaymaz","lat":40.95317,"lon":30.10224,"type":"city"},{"id":"tr-306935","label":"Kocakoey","lat":38.28889,"lon":40.49786,"type":"city"},{"id":"tr-306908","label":"Kocarli","lat":37.76113,"lon":27.70583,"type":"city"},{"id":"tr-742686","label":"Koepruebasi","lat":40.80692,"lon":40.11439,"type":"city"},{"id":"tr-737961","label":"Koerfez","lat":40.76704,"lon":29.78275,"type":"city"},{"id":"tr-742606","label":"Koese","lat":40.20692,"lon":39.64626,"type":"city"},{"id":"tr-742588","label":"Koesekoey","lat":40.74012,"lon":30.00556,"type":"city"},{"id":"tr-306285","label":"Koesk","lat":37.85333,"lon":28.05167,"type":"city"},{"id":"tr-10251085","label":"Konacik","lat":37.04487,"lon":27.40994,"type":"city"},{"id":"tr-306641","label":"Konak","lat":38.4,"lon":27.1,"type":"city"},{"id":"tr-306626","label":"Konakli","lat":36.59251,"lon":31.89539,"type":"city"},{"id":"tr-7539160","label":"Konuklu","lat":37.12632,"lon":38.84858,"type":"city"},{"id":"tr-306571","label":"Konya","lat":37.87135,"lon":32.48464,"type":"city"},{"id":"tr-742658","label":"Korgan","lat":40.82472,"lon":37.34667,"type":"city"},{"id":"tr-742657","label":"Korgun","lat":40.73479,"lon":33.51844,"type":"city"},{"id":"tr-306476","label":"Korkut","lat":38.7339,"lon":41.78396,"type":"city"},{"id":"tr-306474","label":"Korkuteli","lat":37.06498,"lon":30.19565,"type":"city"},{"id":"tr-306207","label":"Kovancilar","lat":38.71882,"lon":39.86268,"type":"city"},{"id":"tr-742499","label":"Koyulhisar","lat":40.30184,"lon":37.82336,"type":"city"},{"id":"tr-306112","label":"Kozan","lat":37.45517,"lon":35.81573,"type":"city"},{"id":"tr-306041","label":"Kozluk","lat":38.19118,"lon":41.47775,"type":"city"},{"id":"tr-742394","label":"Kuecuekcekmece","lat":40.99104,"lon":28.77123,"type":"city"},{"id":"tr-305969","label":"Kuecuekcigli","lat":38.50801,"lon":27.0554,"type":"city"},{"id":"tr-305268","label":"Kuetahya","lat":39.42417,"lon":29.98333,"type":"city"},{"id":"tr-305810","label":"Kula","lat":38.54726,"lon":28.64976,"type":"city"},{"id":"tr-742292","label":"Kullar","lat":40.72419,"lon":29.98943,"type":"city"},{"id":"tr-305750","label":"Kulp","lat":38.49754,"lon":41.00668,"type":"city"},{"id":"tr-305742","label":"Kulu","lat":39.09513,"lon":33.07989,"type":"city"},{"id":"tr-305737","label":"Kuluncak","lat":38.87656,"lon":37.66279,"type":"city"},{"id":"tr-742266","label":"Kumburgaz","lat":41.03004,"lon":28.45387,"type":"city"},{"id":"tr-305699","label":"Kumcati","lat":37.47334,"lon":42.31626,"type":"city"},{"id":"tr-742238","label":"Kumru","lat":40.87444,"lon":37.26389,"type":"city"},{"id":"tr-742164","label":"Kursunlu","lat":40.84101,"lon":33.26028,"type":"city"},{"id":"tr-305532","label":"Kurtalan","lat":37.92533,"lon":41.68493,"type":"city"},{"id":"tr-305469","label":"Kurttepe","lat":37.05472,"lon":35.2757,"type":"city"},{"id":"tr-305359","label":"Kusadasi","lat":37.86014,"lon":27.25713,"type":"city"},{"id":"tr-305210","label":"Kuyucak","lat":37.9133,"lon":28.45917,"type":"city"},{"id":"tr-741892","label":"Ladik","lat":40.91056,"lon":35.89194,"type":"city"},{"id":"tr-741878","label":"Lapseki","lat":40.34417,"lon":26.68556,"type":"city"},{"id":"tr-305089","label":"Lice","lat":38.45821,"lon":40.63888,"type":"city"},{"id":"tr-741855","label":"Lueleburgaz","lat":41.40173,"lon":27.35746,"type":"city"},{"id":"tr-741850","label":"Macka","lat":40.81072,"lon":39.60465,"type":"city"},{"id":"tr-304964","label":"Mahmutlar","lat":36.49463,"lon":32.09085,"type":"city"},{"id":"tr-436507","label":"Mahmutlar","lat":36.949,"lon":36.19231,"type":"city"},{"id":"tr-304922","label":"Malatya","lat":38.35018,"lon":38.31667,"type":"city"},{"id":"tr-304916","label":"Malazgirt","lat":39.1465,"lon":42.53536,"type":"city"},{"id":"tr-13591681","label":"Malazgirt","lat":37.77174,"lon":38.27231,"type":"city"},{"id":"tr-741771","label":"Malkara","lat":40.89105,"lon":26.90201,"type":"city"},{"id":"tr-741763","label":"Maltepe","lat":40.93567,"lon":29.15507,"type":"city"},{"id":"tr-304854","label":"Manavgat","lat":36.78672,"lon":31.44086,"type":"city"},{"id":"tr-304827","label":"Manisa","lat":38.61202,"lon":27.42647,"type":"city"},{"id":"tr-741737","label":"Manyas","lat":40.04639,"lon":27.97,"type":"city"},{"id":"tr-304797","label":"Mardin","lat":37.31309,"lon":40.74357,"type":"city"},{"id":"tr-741725","label":"Marmara Ereglisi","lat":40.96907,"lon":27.95503,"type":"city"},{"id":"tr-741727","label":"Marmaracik","lat":41.20667,"lon":27.75444,"type":"city"},{"id":"tr-304782","label":"Marmaris","lat":36.855,"lon":28.27417,"type":"city"},{"id":"tr-741712","label":"Maslak","lat":41.10827,"lon":29.01833,"type":"city"},{"id":"tr-297130","label":"Mavikent","lat":36.31667,"lon":30.35,"type":"city"},{"id":"tr-6695616","label":"Mavisehir","lat":38.46992,"lon":27.07731,"type":"city"},{"id":"tr-304734","label":"Mazidagi","lat":37.47801,"lon":40.48152,"type":"city"},{"id":"tr-741692","label":"Mecitoezue","lat":40.52,"lon":35.29528,"type":"city"},{"id":"tr-317851","label":"Menderes","lat":38.24963,"lon":27.13429,"type":"city"},{"id":"tr-304612","label":"Menemen","lat":38.60754,"lon":27.06938,"type":"city"},{"id":"tr-11238838","label":"Merkezefendi","lat":37.80544,"lon":29.04236,"type":"city"},{"id":"tr-304531","label":"Mersin","lat":36.81196,"lon":34.63886,"type":"city"},{"id":"tr-6354984","label":"Merter Keresteciler","lat":41.01295,"lon":28.88593,"type":"city"},{"id":"tr-741609","label":"Merzifon","lat":40.87333,"lon":35.46306,"type":"city"},{"id":"tr-741570","label":"Mesudiye","lat":40.45446,"lon":37.77353,"type":"city"},{"id":"tr-304382","label":"Midyat","lat":37.41908,"lon":41.33909,"type":"city"},{"id":"tr-741538","label":"Mihalgazi","lat":40.02621,"lon":30.57707,"type":"city"},{"id":"tr-304355","label":"Milas","lat":37.31639,"lon":27.78389,"type":"city"},{"id":"tr-741529","label":"Mimarsinan","lat":41.01488,"lon":28.56085,"type":"city"},{"id":"tr-304204","label":"Mordogan","lat":38.51624,"lon":26.62487,"type":"city"},{"id":"tr-304196","label":"Mucur","lat":39.06147,"lon":34.38286,"type":"city"},{"id":"tr-741487","label":"Mudanya","lat":40.37524,"lon":28.8838,"type":"city"},{"id":"tr-741484","label":"Mudurnu","lat":40.473,"lon":31.20755,"type":"city"},{"id":"tr-304184","label":"Mugla","lat":37.21807,"lon":28.3665,"type":"city"},{"id":"tr-8074174","label":"Muratpasa","lat":36.89157,"lon":30.76498,"type":"city"},{"id":"tr-304081","label":"Mus","lat":38.73163,"lon":41.48482,"type":"city"},{"id":"tr-741385","label":"Mustafakemalpasa","lat":40.03815,"lon":28.40866,"type":"city"},{"id":"tr-304013","label":"Mut","lat":36.64389,"lon":33.43885,"type":"city"},{"id":"tr-304009","label":"Mutki","lat":38.40624,"lon":41.92018,"type":"city"},{"id":"tr-741347","label":"Nallihan","lat":40.18593,"lon":31.35179,"type":"city"},{"id":"tr-303919","label":"Narli","lat":37.39148,"lon":37.13614,"type":"city"},{"id":"tr-438055","label":"Narlica","lat":36.23533,"lon":36.21458,"type":"city"},{"id":"tr-741330","label":"Narman","lat":40.34449,"lon":41.86088,"type":"city"},{"id":"tr-303873","label":"Nazilli","lat":37.91631,"lon":28.32225,"type":"city"},{"id":"tr-303831","label":"Nevsehir","lat":38.625,"lon":34.71222,"type":"city"},{"id":"tr-303827","label":"Nigde","lat":37.96583,"lon":34.67935,"type":"city"},{"id":"tr-320177","label":"Nikfer","lat":37.40542,"lon":29.13727,"type":"city"},{"id":"tr-741304","label":"Niksar","lat":40.59167,"lon":36.95167,"type":"city"},{"id":"tr-10346824","label":"Niluefer","lat":40.21401,"lon":28.91567,"type":"city"},{"id":"tr-303798","label":"Nizip","lat":37.00972,"lon":37.79417,"type":"city"},{"id":"tr-415534","label":"Nurdagi","lat":37.16821,"lon":36.73623,"type":"city"},{"id":"tr-303763","label":"Nurhak","lat":37.96366,"lon":37.44047,"type":"city"},{"id":"tr-303750","label":"Nusaybin","lat":37.07028,"lon":41.21465,"type":"city"},{"id":"tr-8068982","label":"Oba","lat":36.55013,"lon":32.0596,"type":"city"},{"id":"tr-303700","label":"OEdemis","lat":38.2278,"lon":27.96955,"type":"city"},{"id":"tr-303532","label":"OEmerli","lat":37.39903,"lon":40.95442,"type":"city"},{"id":"tr-741125","label":"OEmerli","lat":40.3125,"lon":28.04833,"type":"city"},{"id":"tr-303022","label":"OEzalp","lat":38.65455,"lon":43.98869,"type":"city"},{"id":"tr-302986","label":"OEzdere","lat":38.01611,"lon":27.12806,"type":"city"},{"id":"tr-741240","label":"Of","lat":40.94055,"lon":40.25918,"type":"city"},{"id":"tr-303642","label":"Oguzeli","lat":36.96572,"lon":37.51339,"type":"city"},{"id":"tr-741160","label":"Oltu","lat":40.53945,"lon":41.98722,"type":"city"},{"id":"tr-741100","label":"Ordu","lat":40.97782,"lon":37.89047,"type":"city"},{"id":"tr-303409","label":"Orhaneli","lat":39.90333,"lon":28.99056,"type":"city"},{"id":"tr-741045","label":"Orhangazi","lat":40.48917,"lon":29.30889,"type":"city"},{"id":"tr-741002","label":"Orta","lat":40.6242,"lon":33.10928,"type":"city"},{"id":"tr-303354","label":"Ortaca","lat":36.83915,"lon":28.76457,"type":"city"},{"id":"tr-303290","label":"Ortakoey","lat":38.73728,"lon":34.03866,"type":"city"},{"id":"tr-303305","label":"Ortakoey","lat":37.22296,"lon":40.78404,"type":"city"},{"id":"tr-740883","label":"Osmancik","lat":40.97818,"lon":34.8047,"type":"city"},{"id":"tr-740881","label":"Osmaneli","lat":40.35722,"lon":30.01417,"type":"city"},{"id":"tr-303195","label":"Osmaniye","lat":37.07417,"lon":36.24778,"type":"city"},{"id":"tr-303107","label":"Ovacik","lat":39.35259,"lon":39.2089,"type":"city"},{"id":"tr-302912","label":"Palu","lat":38.69135,"lon":39.91984,"type":"city"},{"id":"tr-302903","label":"Pamukkale","lat":37.91644,"lon":29.11729,"type":"city"},{"id":"tr-740729","label":"Pamukova","lat":40.5081,"lon":30.16732,"type":"city"},{"id":"tr-302824","label":"Pasinler","lat":39.97975,"lon":41.66997,"type":"city"},{"id":"tr-302819","label":"Patnos","lat":39.22493,"lon":42.85693,"type":"city"},{"id":"tr-302816","label":"Payallar","lat":36.6016,"lon":31.85057,"type":"city"},{"id":"tr-740677","label":"Pazar","lat":40.27652,"lon":36.28347,"type":"city"},{"id":"tr-302800","label":"Pazarcik","lat":37.48685,"lon":37.29961,"type":"city"},{"id":"tr-302787","label":"Pazarlar","lat":38.995,"lon":29.12583,"type":"city"},{"id":"tr-302781","label":"Pazaryeri","lat":39.99395,"lon":29.90424,"type":"city"},{"id":"tr-740659","label":"Pazaryolu","lat":40.41142,"lon":40.7678,"type":"city"},{"id":"tr-740605","label":"Persembe","lat":41.06556,"lon":37.77139,"type":"city"},{"id":"tr-302724","label":"Pertek","lat":38.86574,"lon":39.32273,"type":"city"},{"id":"tr-302720","label":"Pervari","lat":37.93573,"lon":42.54927,"type":"city"},{"id":"tr-299044","label":"Pinarbasi","lat":36.7034,"lon":34.3627,"type":"city"},{"id":"tr-302667","label":"Pinarbasi","lat":38.72285,"lon":36.39314,"type":"city"},{"id":"tr-740570","label":"Pinarhisar","lat":41.6271,"lon":27.51481,"type":"city"},{"id":"tr-10180439","label":"Pinarkent","lat":37.79731,"lon":29.22205,"type":"city"},{"id":"tr-740561","label":"Piraziz","lat":40.92244,"lon":38.12458,"type":"city"},{"id":"tr-302525","label":"Polatli","lat":39.57715,"lon":32.14132,"type":"city"},{"id":"tr-302496","label":"Poyracik","lat":39.08722,"lon":27.35099,"type":"city"},{"id":"tr-302482","label":"Pozanti","lat":37.42778,"lon":34.87167,"type":"city"},{"id":"tr-302401","label":"Refahiye","lat":39.89315,"lon":38.76607,"type":"city"},{"id":"tr-302355","label":"Reyhanli","lat":36.26791,"lon":36.56747,"type":"city"},{"id":"tr-740483","label":"Rize","lat":41.02083,"lon":40.52194,"type":"city"},{"id":"tr-740462","label":"Sabanoezue","lat":40.48249,"lon":33.28352,"type":"city"},{"id":"tr-740430","label":"Safranbolu","lat":41.25083,"lon":32.69417,"type":"city"},{"id":"tr-302150","label":"Saimbeyli","lat":37.98632,"lon":36.09056,"type":"city"},{"id":"tr-740340","label":"Salacak","lat":41.01501,"lon":29.01258,"type":"city"},{"id":"tr-296247","label":"Salat","lat":37.84172,"lon":40.8865,"type":"city"},{"id":"tr-302043","label":"Salihli","lat":38.48258,"lon":28.14774,"type":"city"},{"id":"tr-740303","label":"Salpazari","lat":40.93826,"lon":39.19006,"type":"city"},{"id":"tr-301975","label":"Samandag","lat":36.08012,"lon":35.97603,"type":"city"},{"id":"tr-301962","label":"Sambayadi","lat":37.04206,"lon":35.19935,"type":"city"},{"id":"tr-301943","label":"Samsat","lat":37.58194,"lon":38.47417,"type":"city"},{"id":"tr-740264","label":"Samsun","lat":41.27976,"lon":36.3361,"type":"city"},{"id":"tr-7628420","label":"Sancaktepe","lat":41.00244,"lon":29.23187,"type":"city"},{"id":"tr-301911","label":"Sandikli","lat":38.46472,"lon":30.26946,"type":"city"},{"id":"tr-298333","label":"Sanliurfa","lat":37.16708,"lon":38.79392,"type":"city"},{"id":"tr-740230","label":"Sapanca","lat":40.69141,"lon":30.26738,"type":"city"},{"id":"tr-301884","label":"Saphane","lat":39.0273,"lon":29.22218,"type":"city"},{"id":"tr-301829","label":"Saraykent","lat":39.69361,"lon":35.51111,"type":"city"},{"id":"tr-301827","label":"Saraykoey","lat":37.92448,"lon":28.92516,"type":"city"},{"id":"tr-301824","label":"Sarayoenue","lat":38.26201,"lon":32.40457,"type":"city"},{"id":"tr-301770","label":"Saricam","lat":37.15172,"lon":35.50769,"type":"city"},{"id":"tr-6692524","label":"Sarigerme","lat":36.71549,"lon":28.70436,"type":"city"},{"id":"tr-301731","label":"Sarigoel","lat":38.23953,"lon":28.69663,"type":"city"},{"id":"tr-301719","label":"Sarihamzali","lat":36.9775,"lon":35.22533,"type":"city"},{"id":"tr-740088","label":"Sarikamis","lat":40.32769,"lon":42.58705,"type":"city"},{"id":"tr-301609","label":"Sarioglan","lat":39.07694,"lon":35.96671,"type":"city"},{"id":"tr-301567","label":"Sariveliler","lat":36.69759,"lon":32.61673,"type":"city"},{"id":"tr-301566","label":"Sariyahsi","lat":38.98349,"lon":33.84136,"type":"city"},{"id":"tr-301539","label":"Sarkikaraagac","lat":38.07944,"lon":31.36639,"type":"city"},{"id":"tr-301537","label":"Sarkisla","lat":39.35186,"lon":36.40976,"type":"city"},{"id":"tr-301492","label":"Saruhanli","lat":38.73455,"lon":27.56811,"type":"city"},{"id":"tr-301483","label":"Sason","lat":38.32767,"lon":41.41377,"type":"city"},{"id":"tr-301453","label":"Savastepe","lat":39.38319,"lon":27.65612,"type":"city"},{"id":"tr-739950","label":"Savsat","lat":41.25336,"lon":42.35531,"type":"city"},{"id":"tr-301432","label":"Savulca","lat":37.73803,"lon":27.39894,"type":"city"},{"id":"tr-301431","label":"Savur","lat":37.53544,"lon":40.87876,"type":"city"},{"id":"tr-739914","label":"Sebin Karahisar","lat":40.28833,"lon":38.42361,"type":"city"},{"id":"tr-301353","label":"Sefaatli","lat":39.5043,"lon":34.7563,"type":"city"},{"id":"tr-301350","label":"Seferihisar","lat":38.1975,"lon":26.83881,"type":"city"},{"id":"tr-301256","label":"Selcuk","lat":37.95137,"lon":27.36849,"type":"city"},{"id":"tr-301251","label":"Selendi","lat":38.74444,"lon":28.86778,"type":"city"},{"id":"tr-739838","label":"Selimpasa","lat":41.05526,"lon":28.36778,"type":"city"},{"id":"tr-301209","label":"Semdinli","lat":37.30514,"lon":44.5742,"type":"city"},{"id":"tr-9888806","label":"Semikler","lat":38.47497,"lon":27.09591,"type":"city"},{"id":"tr-301172","label":"Senirkent","lat":38.10444,"lon":30.54861,"type":"city"},{"id":"tr-301167","label":"Senkoey","lat":37.46437,"lon":41.19058,"type":"city"},{"id":"tr-301161","label":"Senoba","lat":37.46286,"lon":42.72279,"type":"city"},{"id":"tr-301116","label":"Sereflikochisar","lat":38.93925,"lon":33.5386,"type":"city"},{"id":"tr-301101","label":"Serik","lat":36.91748,"lon":31.10463,"type":"city"},{"id":"tr-307211","label":"Serinhisar","lat":37.58105,"lon":29.26639,"type":"city"},{"id":"tr-301089","label":"Serinyol","lat":36.36139,"lon":36.21361,"type":"city"},{"id":"tr-301010","label":"Seydisehir","lat":37.41926,"lon":31.84527,"type":"city"},{"id":"tr-301238","label":"Side","lat":36.76667,"lon":31.38889,"type":"city"},{"id":"tr-300822","label":"Siirt","lat":37.9293,"lon":41.94134,"type":"city"},{"id":"tr-739636","label":"Sile","lat":41.17891,"lon":29.61085,"type":"city"},{"id":"tr-300808","label":"Silifke","lat":36.37778,"lon":33.93444,"type":"city"},{"id":"tr-739634","label":"Silivri","lat":41.07393,"lon":28.24644,"type":"city"},{"id":"tr-300797","label":"Silopi","lat":37.24379,"lon":42.46345,"type":"city"},{"id":"tr-300796","label":"Silvan","lat":38.13708,"lon":41.00817,"type":"city"},{"id":"tr-300791","label":"Simav","lat":39.0882,"lon":28.97767,"type":"city"},{"id":"tr-300754","label":"Sinanpasa","lat":38.74444,"lon":30.24278,"type":"city"},{"id":"tr-300743","label":"Sincik","lat":38.03645,"lon":38.61257,"type":"city"},{"id":"tr-300732","label":"Sindirgi","lat":39.24128,"lon":28.17842,"type":"city"},{"id":"tr-739600","label":"Sinop","lat":42.02683,"lon":35.16253,"type":"city"},{"id":"tr-739574","label":"Siran","lat":40.19064,"lon":39.11747,"type":"city"},{"id":"tr-9888778","label":"Sirintepe","lat":38.49598,"lon":27.06681,"type":"city"},{"id":"tr-300640","label":"Sirnak","lat":37.51393,"lon":42.45432,"type":"city"},{"id":"tr-300632","label":"Sirvan","lat":38.06251,"lon":42.02517,"type":"city"},{"id":"tr-739549","label":"Sisli","lat":41.06046,"lon":28.98717,"type":"city"},{"id":"tr-300619","label":"Sivas","lat":39.74833,"lon":37.01611,"type":"city"},{"id":"tr-300616","label":"Sivasli","lat":38.49944,"lon":29.68361,"type":"city"},{"id":"tr-300614","label":"Siverek","lat":37.75503,"lon":39.31667,"type":"city"},{"id":"tr-300601","label":"Sivrice","lat":38.44223,"lon":39.30938,"type":"city"},{"id":"tr-300593","label":"Sivrihisar","lat":39.45037,"lon":31.53409,"type":"city"},{"id":"tr-739425","label":"Soeguetlue","lat":40.9059,"lon":30.47448,"type":"city"},{"id":"tr-300399","label":"Soeke","lat":37.7482,"lon":27.40614,"type":"city"},{"id":"tr-300377","label":"Solhan","lat":38.96525,"lon":41.05443,"type":"city"},{"id":"tr-300371","label":"Soma","lat":39.18554,"lon":27.60945,"type":"city"},{"id":"tr-300352","label":"Sorgun","lat":39.81012,"lon":35.18596,"type":"city"},{"id":"tr-739215","label":"Suermene","lat":40.90588,"lon":40.12792,"type":"city"},{"id":"tr-300273","label":"Suhut","lat":38.53111,"lon":30.54583,"type":"city"},{"id":"tr-739318","label":"Sulakyurt","lat":40.15733,"lon":33.716,"type":"city"},{"id":"tr-7628419","label":"Sultanbeyli","lat":40.96072,"lon":29.27067,"type":"city"},{"id":"tr-300201","label":"Sultandagi","lat":38.53111,"lon":31.22806,"type":"city"},{"id":"tr-7628416","label":"Sultangazi","lat":41.10652,"lon":28.86847,"type":"city"},{"id":"tr-300195","label":"Sultanhisar","lat":37.88989,"lon":28.15436,"type":"city"},{"id":"tr-739251","label":"Suluova","lat":40.83129,"lon":35.64788,"type":"city"},{"id":"tr-739236","label":"Sungurlu","lat":40.1675,"lon":34.37389,"type":"city"},{"id":"tr-300075","label":"Suruc","lat":36.97612,"lon":38.42533,"type":"city"},{"id":"tr-739209","label":"Susehri","lat":40.16005,"lon":38.08413,"type":"city"},{"id":"tr-300058","label":"Susurluk","lat":39.91361,"lon":28.15778,"type":"city"},{"id":"tr-300032","label":"Sutasi","lat":36.08212,"lon":36.00632,"type":"city"},{"id":"tr-299900","label":"Talas","lat":38.6908,"lon":35.5538,"type":"city"},{"id":"tr-739110","label":"Tarabya","lat":41.13361,"lon":29.04639,"type":"city"},{"id":"tr-299817","label":"Tarsus","lat":36.91766,"lon":34.89277,"type":"city"},{"id":"tr-299755","label":"Taskent","lat":36.9243,"lon":32.49131,"type":"city"},{"id":"tr-739061","label":"Taskoeprue","lat":41.5098,"lon":34.21414,"type":"city"},{"id":"tr-299701","label":"Taslicay","lat":39.62966,"lon":43.36878,"type":"city"},{"id":"tr-739015","label":"Tasova","lat":40.75972,"lon":36.3225,"type":"city"},{"id":"tr-299643","label":"Tasucu","lat":36.3214,"lon":33.88165,"type":"city"},{"id":"tr-299582","label":"Tatvan","lat":38.49221,"lon":42.28269,"type":"city"},{"id":"tr-299575","label":"Tavas","lat":37.57351,"lon":29.07058,"type":"city"},{"id":"tr-299545","label":"Tavsanli","lat":39.54237,"lon":29.49866,"type":"city"},{"id":"tr-299499","label":"Tefenni","lat":37.30968,"lon":29.77538,"type":"city"},{"id":"tr-738927","label":"Tekirdag","lat":40.9781,"lon":27.51101,"type":"city"},{"id":"tr-738907","label":"Tekkekoey","lat":41.21167,"lon":36.46,"type":"city"},{"id":"tr-299413","label":"Tekman","lat":39.64111,"lon":41.50542,"type":"city"},{"id":"tr-738858","label":"Tepecik","lat":41.02931,"lon":28.54978,"type":"city"},{"id":"tr-299268","label":"Tercan","lat":39.77709,"lon":40.37783,"type":"city"},{"id":"tr-738803","label":"Terme","lat":41.20917,"lon":36.97389,"type":"city"},{"id":"tr-299137","label":"Tire","lat":38.08877,"lon":27.73508,"type":"city"},{"id":"tr-738753","label":"Tirebolu","lat":41.00694,"lon":38.81389,"type":"city"},{"id":"tr-738743","label":"Tokat","lat":40.31389,"lon":36.55444,"type":"city"},{"id":"tr-299054","label":"Tomarza","lat":38.44722,"lon":35.79917,"type":"city"},{"id":"tr-738715","label":"Tonya","lat":40.88402,"lon":39.28486,"type":"city"},{"id":"tr-298977","label":"Toprakkale","lat":37.06855,"lon":36.14661,"type":"city"},{"id":"tr-298935","label":"Torbali","lat":38.182,"lon":27.335,"type":"city"},{"id":"tr-738674","label":"Tortum","lat":40.28892,"lon":41.54096,"type":"city"},{"id":"tr-8068981","label":"Tosmur","lat":36.53201,"lon":32.05287,"type":"city"},{"id":"tr-738662","label":"Tosya","lat":41.01545,"lon":34.04013,"type":"city"},{"id":"tr-738648","label":"Trabzon","lat":41.005,"lon":39.72694,"type":"city"},{"id":"tr-738614","label":"Tuerkeli","lat":41.94764,"lon":34.33861,"type":"city"},{"id":"tr-447025","label":"Tuerkler","lat":36.60198,"lon":31.82067,"type":"city"},{"id":"tr-298882","label":"Tufanbeyli","lat":38.26333,"lon":36.22056,"type":"city"},{"id":"tr-298846","label":"Tunceli","lat":39.09921,"lon":39.54351,"type":"city"},{"id":"tr-298806","label":"Turgutlu","lat":38.49533,"lon":27.6997,"type":"city"},{"id":"tr-6620290","label":"Turgutreis","lat":37.01667,"lon":27.26667,"type":"city"},{"id":"tr-738618","label":"Turhal","lat":40.3875,"lon":36.08111,"type":"city"},{"id":"tr-298729","label":"Turuncova","lat":36.36889,"lon":30.1375,"type":"city"},{"id":"tr-298728","label":"Tut","lat":37.79529,"lon":37.9161,"type":"city"},{"id":"tr-298647","label":"Tuzlukcu","lat":38.47778,"lon":31.62639,"type":"city"},{"id":"tr-738349","label":"UEnye","lat":41.14049,"lon":37.28851,"type":"city"},{"id":"tr-298326","label":"UErguep","lat":38.6296,"lon":34.91199,"type":"city"},{"id":"tr-738329","label":"UEskuedar","lat":41.02274,"lon":29.01366,"type":"city"},{"id":"tr-9888787","label":"Ugur Mumcu","lat":38.527,"lon":27.0446,"type":"city"},{"id":"tr-738468","label":"Ugurludag","lat":40.44631,"lon":34.45259,"type":"city"},{"id":"tr-298485","label":"Ula","lat":37.10491,"lon":28.41667,"type":"city"},{"id":"tr-298454","label":"Ulubey","lat":38.41987,"lon":29.29129,"type":"city"},{"id":"tr-738444","label":"Ulubey","lat":40.86863,"lon":37.75405,"type":"city"},{"id":"tr-298451","label":"Uluborlu","lat":38.07825,"lon":30.45019,"type":"city"},{"id":"tr-298433","label":"Uludere","lat":37.44074,"lon":42.85236,"type":"city"},{"id":"tr-738390","label":"Ulus","lat":41.58417,"lon":32.64139,"type":"city"},{"id":"tr-738377","label":"Umraniye","lat":41.01643,"lon":29.12476,"type":"city"},{"id":"tr-298360","label":"Umurlu","lat":37.85003,"lon":27.96275,"type":"city"},{"id":"tr-298316","label":"Urla","lat":38.32292,"lon":26.76403,"type":"city"},{"id":"tr-298299","label":"Usak","lat":38.67351,"lon":29.4058,"type":"city"},{"id":"tr-738327","label":"Uskumrukoey","lat":41.22034,"lon":29.02326,"type":"city"},{"id":"tr-738276","label":"Uzundere","lat":40.53218,"lon":41.53832,"type":"city"},{"id":"tr-298198","label":"Uzungecit","lat":37.49425,"lon":42.99303,"type":"city"},{"id":"tr-738251","label":"Uzunkoeprue","lat":41.26914,"lon":26.68598,"type":"city"},{"id":"tr-738228","label":"Vakfikebir","lat":41.04583,"lon":39.27639,"type":"city"},{"id":"tr-298117","label":"Van","lat":38.49457,"lon":43.38323,"type":"city"},{"id":"tr-298091","label":"Varsak","lat":36.98973,"lon":30.71588,"type":"city"},{"id":"tr-298088","label":"Varto","lat":39.17375,"lon":41.45402,"type":"city"},{"id":"tr-738183","label":"Velimese","lat":41.25361,"lon":27.87833,"type":"city"},{"id":"tr-738167","label":"Vezirkoeprue","lat":41.14361,"lon":35.45472,"type":"city"},{"id":"tr-298033","label":"Viransehir","lat":37.22349,"lon":39.75519,"type":"city"},{"id":"tr-738154","label":"Vize","lat":41.57629,"lon":27.76732,"type":"city"},{"id":"tr-297917","label":"Yahyali","lat":38.10228,"lon":35.35704,"type":"city"},{"id":"tr-738085","label":"Yakakent","lat":41.6325,"lon":35.52889,"type":"city"},{"id":"tr-13590570","label":"Yakakent","lat":38.50786,"lon":27.0734,"type":"city"},{"id":"tr-7458188","label":"Yakinca","lat":38.30533,"lon":38.23828,"type":"city"},{"id":"tr-738064","label":"Yakuplu","lat":40.98894,"lon":28.67582,"type":"city"},{"id":"tr-297839","label":"Yalihueyuek","lat":37.30077,"lon":32.08548,"type":"city"},{"id":"tr-297838","label":"Yalikavak","lat":37.10528,"lon":27.29722,"type":"city"},{"id":"tr-8523940","label":"Yalintas","lat":40.01836,"lon":28.39846,"type":"city"},{"id":"tr-738025","label":"Yalova","lat":40.65501,"lon":29.27693,"type":"city"},{"id":"tr-297789","label":"Yalvac","lat":38.29556,"lon":31.17778,"type":"city"},{"id":"tr-737980","label":"Yaprakli","lat":40.75785,"lon":33.77819,"type":"city"},{"id":"tr-297564","label":"Yatagan","lat":37.34025,"lon":28.14279,"type":"city"},{"id":"tr-297532","label":"Yavuzeli","lat":37.31772,"lon":37.56824,"type":"city"},{"id":"tr-297466","label":"Yayladagi","lat":35.9025,"lon":36.06272,"type":"city"},{"id":"tr-297371","label":"Yazihan","lat":38.59292,"lon":38.17327,"type":"city"},{"id":"tr-737756","label":"Yenicaga","lat":40.77115,"lon":32.03375,"type":"city"},{"id":"tr-297099","label":"Yenifakili","lat":39.21142,"lon":35.00036,"type":"city"},{"id":"tr-737627","label":"Yenikoey","lat":41.12171,"lon":29.06993,"type":"city"},{"id":"tr-296950","label":"Yenipazar","lat":37.82332,"lon":28.19573,"type":"city"},{"id":"tr-296942","label":"Yenisarbademli","lat":37.70778,"lon":31.38639,"type":"city"},{"id":"tr-737611","label":"Yenisehir","lat":40.26444,"lon":29.65306,"type":"city"},{"id":"tr-296895","label":"Yerkoey","lat":39.63806,"lon":34.46722,"type":"city"},{"id":"tr-296860","label":"Yesilhisar","lat":38.35232,"lon":35.08873,"type":"city"},{"id":"tr-296832","label":"Yesilli","lat":37.33813,"lon":40.81739,"type":"city"},{"id":"tr-296823","label":"Yesilova","lat":37.50806,"lon":29.75472,"type":"city"},{"id":"tr-296829","label":"Yesilova","lat":38.15566,"lon":36.25758,"type":"city"},{"id":"tr-296791","label":"Yesilyurt","lat":38.29602,"lon":38.24526,"type":"city"},{"id":"tr-737529","label":"Yesilyurt","lat":40.32786,"lon":36.35144,"type":"city"},{"id":"tr-737486","label":"Yildiz","lat":41.04997,"lon":29.01644,"type":"city"},{"id":"tr-296708","label":"Yildizeli","lat":39.86639,"lon":36.59889,"type":"city"},{"id":"tr-737478","label":"Yildizli","lat":41.00122,"lon":39.60731,"type":"city"},{"id":"tr-296644","label":"Yolbasi","lat":37.38736,"lon":41.3166,"type":"city"},{"id":"tr-737421","label":"Yomra","lat":40.95326,"lon":39.85546,"type":"city"},{"id":"tr-296562","label":"Yozgat","lat":39.82,"lon":34.80444,"type":"city"},{"id":"tr-296173","label":"Yueksekova","lat":37.57362,"lon":44.28716,"type":"city"},{"id":"tr-296134","label":"Yunak","lat":38.81418,"lon":31.73223,"type":"city"},{"id":"tr-737140","label":"Yusufeli","lat":40.82042,"lon":41.53743,"type":"city"},{"id":"tr-737119","label":"Yuvacik","lat":40.68815,"lon":29.96738,"type":"city"},{"id":"tr-295982","label":"Zara","lat":39.89778,"lon":37.75833,"type":"city"},{"id":"tr-737081","label":"Zekeriya","lat":41.19806,"lon":29.03028,"type":"city"},{"id":"tr-737071","label":"Zeytinburnu","lat":40.99441,"lon":28.90417,"type":"city"},{"id":"tr-737054","label":"Zile","lat":40.30306,"lon":35.88639,"type":"city"},{"id":"tr-737022","label":"Zonguldak","lat":41.45139,"lon":31.79305,"type":"city"}]