[{"id":"tz-161325","label":"Arusha","lat":-3.36667,"lon":36.68333,"type":"city"},{"id":"tz-161312","label":"Babati","lat":-4.21667,"lon":35.75,"type":"city"},{"id":"tz-161290","label":"Bagamoyo","lat":-6.44222,"lon":38.90422,"type":"city"},{"id":"tz-161218","label":"Bariadi","lat":-2.8,"lon":33.98333,"type":"city"},{"id":"tz-161204","label":"Bashanet","lat":-4.23333,"lon":35.41667,"type":"city"},{"id":"tz-161197","label":"Basotu","lat":-4.36667,"lon":35.08333,"type":"city"},{"id":"tz-161154","label":"Biharamulo","lat":-2.63194,"lon":31.30889,"type":"city"},{"id":"tz-161100","label":"Boma la Ngombe","lat":-3.33333,"lon":37.15,"type":"city"},{"id":"tz-161044","label":"Bububu","lat":-6.1,"lon":39.21667,"type":"city"},{"id":"tz-161023","label":"Bugarama","lat":-2.87056,"lon":30.52806,"type":"city"},{"id":"tz-161022","label":"Bugene","lat":-1.59111,"lon":31.14028,"type":"city"},{"id":"tz-160971","label":"Bukene","lat":-4.23333,"lon":32.88333,"type":"city"},{"id":"tz-160961","label":"Bukoba","lat":-1.33167,"lon":31.81222,"type":"city"},{"id":"tz-160892","label":"Bunda","lat":-2.02153,"lon":33.87109,"type":"city"},{"id":"tz-160877","label":"Bungu","lat":-7.63369,"lon":39.05818,"type":"city"},{"id":"tz-160833","label":"Buseresere","lat":-3.04877,"lon":31.88542,"type":"city"},{"id":"tz-160798","label":"Butiama","lat":-1.76667,"lon":33.96667,"type":"city"},{"id":"tz-160677","label":"Chake Chake","lat":-5.24586,"lon":39.76659,"type":"city"},{"id":"tz-160670","label":"Chala","lat":-7.58333,"lon":31.26667,"type":"city"},{"id":"tz-160660","label":"Chalinze","lat":-6.63784,"lon":38.35396,"type":"city"},{"id":"tz-160592","label":"Chanika","lat":-5.41667,"lon":38.01667,"type":"city"},{"id":"tz-160552","label":"Chato","lat":-2.63778,"lon":31.76694,"type":"city"},{"id":"tz-160464","label":"Chimala","lat":-8.85637,"lon":34.02393,"type":"city"},{"id":"tz-878455","label":"Chiungutwa","lat":-10.88333,"lon":38.98333,"type":"city"},{"id":"tz-160263","label":"Dar es Salaam","lat":-6.82349,"lon":39.26951,"type":"city"},{"id":"tz-160266","label":"Dareda","lat":-4.21667,"lon":35.55,"type":"city"},{"id":"tz-13132454","label":"Diobahika","lat":-3.33907,"lon":31.52344,"type":"city"},{"id":"tz-160196","label":"Dodoma","lat":-6.17221,"lon":35.73947,"type":"city"},{"id":"tz-160172","label":"Dongobesh","lat":-4.06667,"lon":35.38333,"type":"city"},{"id":"tz-13132455","label":"Dumila","lat":-6.38395,"lon":37.34331,"type":"city"},{"id":"tz-160141","label":"Dunda","lat":-8.11667,"lon":34.25,"type":"city"},{"id":"tz-160073","label":"Endasak","lat":-4.41667,"lon":35.51667,"type":"city"},{"id":"tz-159951","label":"Galappo","lat":-4.26667,"lon":35.85,"type":"city"},{"id":"tz-159909","label":"Geiro","lat":-6.15,"lon":36.86667,"type":"city"},{"id":"tz-159908","label":"Geita","lat":-2.8725,"lon":32.2325,"type":"city"},{"id":"tz-159675","label":"Handeni","lat":-5.43333,"lon":38.01667,"type":"city"},{"id":"tz-159647","label":"Hedaru","lat":-4.5,"lon":37.9,"type":"city"},{"id":"tz-159492","label":"Ifakara","lat":-8.13333,"lon":36.68333,"type":"city"},{"id":"tz-159398","label":"Igugunu","lat":-4.56667,"lon":34.63333,"type":"city"},{"id":"tz-159386","label":"Igunga","lat":-4.28333,"lon":33.88333,"type":"city"},{"id":"tz-159382","label":"Igurubi","lat":-4,"lon":33.7,"type":"city"},{"id":"tz-159380","label":"Igurusi","lat":-8.85,"lon":33.85,"type":"city"},{"id":"tz-159267","label":"Ikungi","lat":-5.13333,"lon":34.76667,"type":"city"},{"id":"tz-159242","label":"Ikwiriri","lat":-7.95618,"lon":38.97164,"type":"city"},{"id":"tz-159218","label":"Ilembula","lat":-8.9,"lon":34.58333,"type":"city"},{"id":"tz-159186","label":"Ilongero","lat":-4.66667,"lon":34.86667,"type":"city"},{"id":"tz-159179","label":"Ilula","lat":-7.6766,"lon":36.03658,"type":"city"},{"id":"tz-159134","label":"Inyonga","lat":-6.71667,"lon":32.06667,"type":"city"},{"id":"tz-159107","label":"Ipinda","lat":-9.48333,"lon":33.9,"type":"city"},{"id":"tz-159071","label":"Iringa","lat":-7.76667,"lon":35.7,"type":"city"},{"id":"tz-159045","label":"Isaka","lat":-3.9,"lon":32.93333,"type":"city"},{"id":"tz-158974","label":"Issenye","lat":-2,"lon":34.33333,"type":"city"},{"id":"tz-158904","label":"Itigi","lat":-5.7,"lon":34.48333,"type":"city"},{"id":"tz-158876","label":"Itumba","lat":-9.4,"lon":33.18333,"type":"city"},{"id":"tz-158825","label":"Izazi","lat":-7.2,"lon":35.73333,"type":"city"},{"id":"tz-158684","label":"Kabanga","lat":-2.63861,"lon":30.46778,"type":"city"},{"id":"tz-158597","label":"Kahama","lat":-3.83333,"lon":32.6,"type":"city"},{"id":"tz-158563","label":"Kakonko","lat":-3.28278,"lon":30.96417,"type":"city"},{"id":"tz-158514","label":"Kaliua","lat":-5.06056,"lon":31.79361,"type":"city"},{"id":"tz-158492","label":"Kamachumu","lat":-1.61861,"lon":31.62,"type":"city"},{"id":"tz-158422","label":"Kandete","lat":-9.15,"lon":33.8,"type":"city"},{"id":"tz-158321","label":"Karema","lat":-6.82052,"lon":30.43887,"type":"city"},{"id":"tz-158289","label":"Kasamwa","lat":-2.85,"lon":32.43333,"type":"city"},{"id":"tz-158214","label":"Kasulu","lat":-4.57667,"lon":30.1025,"type":"city"},{"id":"tz-158179","label":"Katerero","lat":-1.4,"lon":31.73333,"type":"city"},{"id":"tz-158178","label":"Katesh","lat":-4.52483,"lon":35.3849,"type":"city"},{"id":"tz-158160","label":"Katoro","lat":-2.99983,"lon":31.93261,"type":"city"},{"id":"tz-158161","label":"Katoro","lat":-1.39972,"lon":31.50028,"type":"city"},{"id":"tz-158151","label":"Katumba","lat":-9.23333,"lon":33.61667,"type":"city"},{"id":"tz-158027","label":"Kibaha","lat":-6.76667,"lon":38.91667,"type":"city"},{"id":"tz-13132456","label":"Kibaigwa","lat":-6.08125,"lon":36.64657,"type":"city"},{"id":"tz-158024","label":"Kibakwe","lat":-6.71667,"lon":36.36667,"type":"city"},{"id":"tz-158016","label":"Kibara","lat":-2.15,"lon":33.45,"type":"city"},{"id":"tz-158006","label":"Kibaya","lat":-5.3,"lon":36.56667,"type":"city"},{"id":"tz-157977","label":"Kibiti","lat":-7.72178,"lon":38.93749,"type":"city"},{"id":"tz-157960","label":"Kibondo","lat":-3.58639,"lon":30.72028,"type":"city"},{"id":"tz-157863","label":"Kidatu","lat":-7.69916,"lon":36.95722,"type":"city"},{"id":"tz-157826","label":"Kidodi","lat":-7.60361,"lon":37.00438,"type":"city"},{"id":"tz-157738","label":"Kigoma","lat":-4.87694,"lon":29.62667,"type":"city"},{"id":"tz-878400","label":"Kigonsera","lat":-10.8,"lon":35.05,"type":"city"},{"id":"tz-155307","label":"Kihangara","lat":-2.58333,"lon":33.35,"type":"city"},{"id":"tz-157653","label":"Kihurio","lat":-4.46667,"lon":38.06667,"type":"city"},{"id":"tz-157448","label":"Kilimatinde","lat":-5.85,"lon":34.95,"type":"city"},{"id":"tz-157429","label":"Kilindoni","lat":-7.91446,"lon":39.66204,"type":"city"},{"id":"tz-157403","label":"Kilosa","lat":-6.83333,"lon":36.98333,"type":"city"},{"id":"tz-157377","label":"Kilwa Masoko","lat":-8.9251,"lon":39.5131,"type":"city"},{"id":"tz-157366","label":"Kimamba","lat":-6.78333,"lon":37.13333,"type":"city"},{"id":"tz-157268","label":"Kingori","lat":-3.28333,"lon":36.98333,"type":"city"},{"id":"tz-157247","label":"Kintinku","lat":-5.88333,"lon":35.23333,"type":"city"},{"id":"tz-157198","label":"Kiomboi","lat":-4.26667,"lon":34.36667,"type":"city"},{"id":"tz-157107","label":"Kirando","lat":-7.41667,"lon":30.6,"type":"city"},{"id":"tz-158324","label":"Kiratu","lat":-3.33333,"lon":35.66667,"type":"city"},{"id":"tz-157014","label":"Kisanga","lat":-7.43622,"lon":37.70337,"type":"city"},{"id":"tz-156996","label":"Kisarawe","lat":-6.9,"lon":39.06667,"type":"city"},{"id":"tz-9063978","label":"Kisasa","lat":-6.17526,"lon":35.79266,"type":"city"},{"id":"tz-156973","label":"Kisesa","lat":-2.55,"lon":33.03333,"type":"city"},{"id":"tz-156974","label":"Kisesa","lat":-3.08333,"lon":34.15,"type":"city"},{"id":"tz-156963","label":"Kishapu","lat":-3.61667,"lon":33.86667,"type":"city"},{"id":"tz-156918","label":"Kisiwani","lat":-4.13333,"lon":37.95,"type":"city"},{"id":"tz-878367","label":"Kitama","lat":-10.71667,"lon":39.73333,"type":"city"},{"id":"tz-878362","label":"Kitangari","lat":-10.65,"lon":39.33333,"type":"city"},{"id":"tz-156627","label":"Kiwira","lat":-9.17307,"lon":33.54152,"type":"city"},{"id":"tz-156589","label":"Koani","lat":-6.13333,"lon":39.28333,"type":"city"},{"id":"tz-156513","label":"Konde","lat":-4.95,"lon":39.75,"type":"city"},{"id":"tz-156510","label":"Kondoa","lat":-4.9,"lon":35.78333,"type":"city"},{"id":"tz-156493","label":"Kongwa","lat":-6.2,"lon":36.41667,"type":"city"},{"id":"tz-156479","label":"Korogwe","lat":-5.15,"lon":38.48333,"type":"city"},{"id":"tz-156312","label":"Kwakoa","lat":-3.76667,"lon":37.71667,"type":"city"},{"id":"tz-156124","label":"Kyaka","lat":-1.25222,"lon":31.42028,"type":"city"},{"id":"tz-156111","label":"Kyela","lat":-9.58333,"lon":33.85,"type":"city"},{"id":"tz-156098","label":"Laela","lat":-8.56667,"lon":32.05,"type":"city"},{"id":"tz-156080","label":"Lalago","lat":-3.45,"lon":33.95,"type":"city"},{"id":"tz-156025","label":"Lembeni","lat":-3.78333,"lon":37.61667,"type":"city"},{"id":"tz-878281","label":"Lindi","lat":-9.99709,"lon":39.71649,"type":"city"},{"id":"tz-878242","label":"Liuli","lat":-11.08333,"lon":34.63333,"type":"city"},{"id":"tz-155921","label":"Liwale","lat":-9.76667,"lon":37.93333,"type":"city"},{"id":"tz-155848","label":"Longido","lat":-2.73319,"lon":36.69773,"type":"city"},{"id":"tz-155794","label":"Lubata","lat":-6.1,"lon":37.45,"type":"city"},{"id":"tz-878223","label":"Luchingu","lat":-10.9,"lon":39.33333,"type":"city"},{"id":"tz-155743","label":"Lugoba","lat":-6.45,"lon":38.33333,"type":"city"},{"id":"tz-878195","label":"Lukuledi","lat":-10.56667,"lon":38.8,"type":"city"},{"id":"tz-878184","label":"Lulindi","lat":-10.81667,"lon":39.13333,"type":"city"},{"id":"tz-155584","label":"Lupiro","lat":-8.38333,"lon":36.66667,"type":"city"},{"id":"tz-155569","label":"Lushoto","lat":-4.78333,"lon":38.28333,"type":"city"},{"id":"tz-155515","label":"Mabama","lat":-5.13333,"lon":32.53333,"type":"city"},{"id":"tz-155514","label":"Mabamba","lat":-3.59833,"lon":30.50194,"type":"city"},{"id":"tz-878141","label":"Madimba","lat":-10.4,"lon":40.33333,"type":"city"},{"id":"tz-13132457","label":"Madizini","lat":-6.14089,"lon":37.63604,"type":"city"},{"id":"tz-155405","label":"Mafinga","lat":-7.25,"lon":35.06667,"type":"city"},{"id":"tz-13132458","label":"Mafinga","lat":-8.30019,"lon":35.29366,"type":"city"},{"id":"tz-155334","label":"Magole","lat":-6.37697,"lon":37.37373,"type":"city"},{"id":"tz-155321","label":"Magomeni","lat":-6.8,"lon":39.25,"type":"city"},{"id":"tz-155322","label":"Magomeni","lat":-5.23333,"lon":38.11667,"type":"city"},{"id":"tz-8549456","label":"Magu","lat":-2.59075,"lon":33.44619,"type":"city"},{"id":"tz-155310","label":"Magugu","lat":-4.01667,"lon":35.76667,"type":"city"},{"id":"tz-155285","label":"Mahanje","lat":-9.93333,"lon":35.33333,"type":"city"},{"id":"tz-155274","label":"Mahenge","lat":-8.68333,"lon":36.71667,"type":"city"},{"id":"tz-155263","label":"Mahonda","lat":-6.45,"lon":39.46667,"type":"city"},{"id":"tz-878121","label":"Mahuta","lat":-10.86667,"lon":39.45,"type":"city"},{"id":"tz-155244","label":"Majengo","lat":-5.15,"lon":38.98333,"type":"city"},{"id":"tz-155187","label":"Makanya","lat":-4.36667,"lon":37.83333,"type":"city"},{"id":"tz-155125","label":"Makongolosi","lat":-8.4,"lon":33.15,"type":"city"},{"id":"tz-155101","label":"Makumbako","lat":-8.85,"lon":34.83333,"type":"city"},{"id":"tz-155093","label":"Makungu","lat":-8.73333,"lon":35.28333,"type":"city"},{"id":"tz-155076","label":"Makuyuni","lat":-4.73333,"lon":38.1,"type":"city"},{"id":"tz-155077","label":"Makuyuni","lat":-3.55,"lon":36.1,"type":"city"},{"id":"tz-155056","label":"Malampaka","lat":-3.13333,"lon":33.53333,"type":"city"},{"id":"tz-155052","label":"Malangali","lat":-8.56667,"lon":34.85,"type":"city"},{"id":"tz-155016","label":"Malinyi","lat":-8.93333,"lon":36.13333,"type":"city"},{"id":"tz-154995","label":"Malya","lat":-2.98333,"lon":33.51667,"type":"city"},{"id":"tz-878087","label":"Manda","lat":-10.46667,"lon":34.58333,"type":"city"},{"id":"tz-154915","label":"Maneromango","lat":-7.1988,"lon":38.78478,"type":"city"},{"id":"tz-154837","label":"Manyoni","lat":-5.75,"lon":34.83333,"type":"city"},{"id":"tz-154805","label":"Mapinga","lat":-6.6,"lon":39.06667,"type":"city"},{"id":"tz-878073","label":"Maposeni","lat":-10.58333,"lon":35.4,"type":"city"},{"id":"tz-154780","label":"Maramba","lat":-5.05,"lon":38.61667,"type":"city"},{"id":"tz-878058","label":"Masasi","lat":-10.71667,"lon":38.8,"type":"city"},{"id":"tz-154666","label":"Masoko","lat":-9.33333,"lon":33.75,"type":"city"},{"id":"tz-878054","label":"Masuguru","lat":-11.36667,"lon":38.41667,"type":"city"},{"id":"tz-154654","label":"Masumbwe","lat":-3.63333,"lon":32.18333,"type":"city"},{"id":"tz-154648","label":"Maswa","lat":-2.68333,"lon":33.98333,"type":"city"},{"id":"tz-154638","label":"Matai","lat":-8.3,"lon":31.51667,"type":"city"},{"id":"tz-154635","label":"Matamba","lat":-8.98333,"lon":33.96667,"type":"city"},{"id":"tz-878041","label":"Matiri","lat":-10.75,"lon":34.9,"type":"city"},{"id":"tz-154576","label":"Matonga","lat":-2.38333,"lon":34.08333,"type":"city"},{"id":"tz-13132459","label":"Matongo","lat":-1.46771,"lon":34.52279,"type":"city"},{"id":"tz-154566","label":"Matui","lat":-4.8,"lon":38.25,"type":"city"},{"id":"tz-154551","label":"Matundasi","lat":-8.45,"lon":33.28333,"type":"city"},{"id":"tz-154470","label":"Mazinde","lat":-4.8,"lon":38.21667,"type":"city"},{"id":"tz-878023","label":"Mbamba Bay","lat":-11.28333,"lon":34.76667,"type":"city"},{"id":"tz-878006","label":"Mbekenyera","lat":-10,"lon":38.98333,"type":"city"},{"id":"tz-154380","label":"Mbeya","lat":-8.9,"lon":33.45,"type":"city"},{"id":"tz-877998","label":"Mbinga","lat":-10.93333,"lon":35.01667,"type":"city"},{"id":"tz-154321","label":"Mbuguni","lat":-3.56667,"lon":36.95,"type":"city"},{"id":"tz-154313","label":"Mbulu","lat":-3.85,"lon":35.53333,"type":"city"},{"id":"tz-6640202","label":"Merelani","lat":-3.56182,"lon":36.97895,"type":"city"},{"id":"tz-154097","label":"Mgandu","lat":-5.95,"lon":34.13333,"type":"city"},{"id":"tz-8549608","label":"Mhalamba","lat":-2.5812,"lon":32.00991,"type":"city"},{"id":"tz-154002","label":"Mhango","lat":-3.28333,"lon":32.85,"type":"city"},{"id":"tz-153955","label":"Micheweni","lat":-4.96667,"lon":39.83333,"type":"city"},{"id":"tz-153871","label":"Mikumi","lat":-7.40409,"lon":36.98309,"type":"city"},{"id":"tz-877925","label":"Mingoyo","lat":-10.10526,"lon":39.61859,"type":"city"},{"id":"tz-153772","label":"Misasi","lat":-3,"lon":33.08333,"type":"city"},{"id":"tz-153759","label":"Misungwi","lat":-2.85,"lon":33.08333,"type":"city"},{"id":"tz-153600","label":"Mkoani","lat":-5.36667,"lon":39.65,"type":"city"},{"id":"tz-153585","label":"Mkokotoni","lat":-5.87506,"lon":39.25523,"type":"city"},{"id":"tz-153482","label":"Mkuranga","lat":-7.11799,"lon":39.20782,"type":"city"},{"id":"tz-153423","label":"Mlalo","lat":-4.93333,"lon":38.93333,"type":"city"},{"id":"tz-153412","label":"Mlandizi","lat":-6.7,"lon":38.73333,"type":"city"},{"id":"tz-153408","label":"Mlangali","lat":-9.78333,"lon":34.51667,"type":"city"},{"id":"tz-153384","label":"Mlimba","lat":-8.8,"lon":35.81667,"type":"city"},{"id":"tz-153352","label":"Mlowo","lat":-9,"lon":32.98333,"type":"city"},{"id":"tz-153247","label":"Monduli","lat":-3.3,"lon":36.45,"type":"city"},{"id":"tz-153220","label":"Morogoro","lat":-6.82102,"lon":37.66122,"type":"city"},{"id":"tz-153209","label":"Moshi","lat":-3.35,"lon":37.33333,"type":"city"},{"id":"tz-153176","label":"Mpanda","lat":-6.34379,"lon":31.06951,"type":"city"},{"id":"tz-153094","label":"Mpwapwa","lat":-6.35,"lon":36.48333,"type":"city"},{"id":"tz-153046","label":"Msanga","lat":-6.05,"lon":36.03333,"type":"city"},{"id":"tz-152933","label":"Msowero","lat":-6.53333,"lon":37.2,"type":"city"},{"id":"tz-877784","label":"Mtama","lat":-10.3,"lon":39.36667,"type":"city"},{"id":"tz-152877","label":"Mtambile","lat":-5.38333,"lon":39.7,"type":"city"},{"id":"tz-152793","label":"Mtimbira","lat":-8.78333,"lon":36.35,"type":"city"},{"id":"tz-152781","label":"Mtinko","lat":-4.55,"lon":34.85,"type":"city"},{"id":"tz-152743","label":"Mto wa Mbu","lat":-3.35,"lon":35.85,"type":"city"},{"id":"tz-152718","label":"Mtwango","lat":-9.01667,"lon":34.8,"type":"city"},{"id":"tz-877747","label":"Mtwara","lat":-10.26667,"lon":40.18333,"type":"city"},{"id":"tz-152689","label":"Mugango","lat":-1.68333,"lon":33.7,"type":"city"},{"id":"tz-152663","label":"Mugumu","lat":-1.85,"lon":34.7,"type":"city"},{"id":"tz-152632","label":"Muheza","lat":-5.16667,"lon":38.78333,"type":"city"},{"id":"tz-152570","label":"Muleba","lat":-1.83972,"lon":31.65444,"type":"city"},{"id":"tz-152546","label":"Mungaa","lat":-4.96667,"lon":34.88333,"type":"city"},{"id":"tz-152497","label":"Muriti","lat":-1.98333,"lon":32.91667,"type":"city"},{"id":"tz-152451","label":"Musoma","lat":-1.5,"lon":33.8,"type":"city"},{"id":"tz-152403","label":"Mvomero","lat":-6.25,"lon":38.66667,"type":"city"},{"id":"tz-152376","label":"Mwadui","lat":-3.55,"lon":33.6,"type":"city"},{"id":"tz-13132460","label":"Mwandege","lat":-6.97558,"lon":39.2893,"type":"city"},{"id":"tz-153709","label":"Mwandiga","lat":-4.83,"lon":29.65806,"type":"city"},{"id":"tz-152265","label":"Mwanga","lat":-4.8,"lon":38.2,"type":"city"},{"id":"tz-13132461","label":"Mwanhuzi","lat":-3.52723,"lon":34.31513,"type":"city"},{"id":"tz-152224","label":"Mwanza","lat":-2.51667,"lon":32.9,"type":"city"},{"id":"tz-152183","label":"Mwaya","lat":-9.55,"lon":33.95,"type":"city"},{"id":"tz-152169","label":"Mwembe","lat":-4.15,"lon":37.85,"type":"city"},{"id":"tz-152042","label":"Naberera","lat":-4.2,"lon":36.93333,"type":"city"},{"id":"tz-877702","label":"Nachingwea","lat":-10.3725,"lon":38.76251,"type":"city"},{"id":"tz-152009","label":"Nakatunguru","lat":-2.11667,"lon":33.06667,"type":"city"},{"id":"tz-877670","label":"Namalenga","lat":-10.95,"lon":39.1,"type":"city"},{"id":"tz-151988","label":"Namanga","lat":-2.55116,"lon":36.78377,"type":"city"},{"id":"tz-151986","label":"Namanyere","lat":-7.51667,"lon":31.05,"type":"city"},{"id":"tz-877631","label":"Namikupa","lat":-10.83333,"lon":39.6,"type":"city"},{"id":"tz-877605","label":"Nanganga","lat":-10.38333,"lon":39.15,"type":"city"},{"id":"tz-877597","label":"Nangomba","lat":-10.9,"lon":38.5,"type":"city"},{"id":"tz-151929","label":"Nangwa","lat":-4.46667,"lon":35.45,"type":"city"},{"id":"tz-877588","label":"Nanhyanga","lat":-10.8,"lon":39.55,"type":"city"},{"id":"tz-151920","label":"Nansio","lat":-2.13333,"lon":33.05,"type":"city"},{"id":"tz-877581","label":"Nanyamba","lat":-10.68333,"lon":39.83333,"type":"city"},{"id":"tz-151872","label":"Ndago","lat":-4.6,"lon":34.35,"type":"city"},{"id":"tz-151775","label":"Ndungu","lat":-4.36667,"lon":38.05,"type":"city"},{"id":"tz-877534","label":"Newala","lat":-10.93333,"lon":39.3,"type":"city"},{"id":"tz-877532","label":"Newala Kisimani","lat":-10.95,"lon":39.28333,"type":"city"},{"id":"tz-151711","label":"Ngara","lat":-2.51222,"lon":30.65583,"type":"city"},{"id":"tz-151678","label":"Ngerengere","lat":-6.75,"lon":38.11667,"type":"city"},{"id":"tz-151610","label":"Ngorongoro","lat":-3.23973,"lon":35.48747,"type":"city"},{"id":"tz-151599","label":"Ngudu","lat":-2.96667,"lon":33.33333,"type":"city"},{"id":"tz-151567","label":"Nguruka","lat":-5.10917,"lon":31.04194,"type":"city"},{"id":"tz-151479","label":"Njombe","lat":-9.34917,"lon":34.77167,"type":"city"},{"id":"tz-151445","label":"Nkoaranga","lat":-3.33391,"lon":36.84887,"type":"city"},{"id":"tz-151424","label":"Nkove","lat":-7.95,"lon":30.85,"type":"city"},{"id":"tz-151373","label":"Nshamba","lat":-1.79833,"lon":31.55111,"type":"city"},{"id":"tz-151363","label":"Nsunga","lat":-1.14389,"lon":31.39472,"type":"city"},{"id":"tz-7284275","label":"Nungwi","lat":-5.72651,"lon":39.2987,"type":"city"},{"id":"tz-151266","label":"Nyakabindi","lat":-2.63333,"lon":33.98333,"type":"city"},{"id":"tz-151262","label":"Nyakahanga","lat":-1.60333,"lon":31.14139,"type":"city"},{"id":"tz-151211","label":"Nyalikungu","lat":-3.18333,"lon":33.78333,"type":"city"},{"id":"tz-151108","label":"Nyamuswa","lat":-1.9,"lon":34.01667,"type":"city"},{"id":"tz-877471","label":"Nyangao","lat":-10.33333,"lon":39.28333,"type":"city"},{"id":"tz-151062","label":"Nyanguge","lat":-2.55,"lon":33.2,"type":"city"},{"id":"tz-150930","label":"Nzega","lat":-4.21667,"lon":33.18333,"type":"city"},{"id":"tz-150885","label":"Old Shinyanga","lat":-3.55,"lon":33.4,"type":"city"},{"id":"tz-150793","label":"Pangani","lat":-5.42526,"lon":38.97473,"type":"city"},{"id":"tz-150689","label":"Poli","lat":-3.36146,"lon":36.81751,"type":"city"},{"id":"tz-150634","label":"Puma","lat":-5,"lon":34.73333,"type":"city"},{"id":"tz-13132462","label":"Ruaha","lat":-7.65685,"lon":36.98299,"type":"city"},{"id":"tz-877433","label":"Ruangwa","lat":-10.06667,"lon":38.93333,"type":"city"},{"id":"tz-150453","label":"Rujewa","lat":-8.7,"lon":34.38333,"type":"city"},{"id":"tz-150436","label":"Rulenge","lat":-2.7175,"lon":30.6325,"type":"city"},{"id":"tz-150276","label":"Same","lat":-4.06667,"lon":37.73333,"type":"city"},{"id":"tz-150103","label":"Sengerema","lat":-2.66667,"lon":32.65,"type":"city"},{"id":"tz-150099","label":"Sepuka","lat":-4.75,"lon":34.53333,"type":"city"},{"id":"tz-150044","label":"Shanwa","lat":-3.16667,"lon":33.76667,"type":"city"},{"id":"tz-150037","label":"Shelui","lat":-4.36667,"lon":34.2,"type":"city"},{"id":"tz-150006","label":"Shinyanga","lat":-3.66393,"lon":33.42118,"type":"city"},{"id":"tz-149996","label":"Shirati","lat":-1.13333,"lon":33.98333,"type":"city"},{"id":"tz-149929","label":"Sikonge","lat":-5.63333,"lon":32.76667,"type":"city"},{"id":"tz-149879","label":"Singida","lat":-4.81629,"lon":34.74358,"type":"city"},{"id":"tz-149854","label":"Sirari","lat":-1.25367,"lon":34.47596,"type":"city"},{"id":"tz-149812","label":"Sokoni","lat":-6.43333,"lon":39.55,"type":"city"},{"id":"tz-149792","label":"Somanda","lat":-3.36667,"lon":33.95,"type":"city"},{"id":"tz-877401","label":"Songea","lat":-10.68333,"lon":35.65,"type":"city"},{"id":"tz-149775","label":"Songwa","lat":-3.51667,"lon":33.51667,"type":"city"},{"id":"tz-149768","label":"Soni","lat":-4.85,"lon":38.36667,"type":"city"},{"id":"tz-149703","label":"Sumbawanga","lat":-7.96667,"lon":31.61667,"type":"city"},{"id":"tz-149658","label":"Tabora","lat":-5.01622,"lon":32.82663,"type":"city"},{"id":"tz-877391","label":"Tandahimba","lat":-10.75,"lon":39.63333,"type":"city"},{"id":"tz-149606","label":"Tanga","lat":-5.06893,"lon":39.09875,"type":"city"},{"id":"tz-11905975","label":"Tarakea","lat":-3.00083,"lon":37.56416,"type":"city"},{"id":"tz-149581","label":"Tarime","lat":-1.35,"lon":34.36667,"type":"city"},{"id":"tz-149512","label":"Tinde","lat":-3.88333,"lon":33.2,"type":"city"},{"id":"tz-877384","label":"Tingi","lat":-11.3,"lon":35.03333,"type":"city"},{"id":"tz-149437","label":"Tukuyu","lat":-9.25,"lon":33.65,"type":"city"},{"id":"tz-149418","label":"Tumbi","lat":-5.06667,"lon":32.73333,"type":"city"},{"id":"tz-149402","label":"Tunduma","lat":-9.3,"lon":32.76667,"type":"city"},{"id":"tz-877378","label":"Tunduru","lat":-11.06667,"lon":37.35,"type":"city"},{"id":"tz-149239","label":"Ulenje","lat":-8.93333,"lon":33.68333,"type":"city"},{"id":"tz-149172","label":"Urambo","lat":-5.06667,"lon":32.05,"type":"city"},{"id":"tz-149158","label":"Urunda","lat":-8.65,"lon":34.3,"type":"city"},{"id":"tz-149155","label":"Usa River","lat":-3.36667,"lon":36.85,"type":"city"},{"id":"tz-149151","label":"Usagara","lat":-2.68333,"lon":33,"type":"city"},{"id":"tz-149143","label":"Usangi","lat":-3.7,"lon":37.66667,"type":"city"},{"id":"tz-149132","label":"Usevia","lat":-7.1,"lon":31.23333,"type":"city"},{"id":"tz-149129","label":"Ushirombo","lat":-3.49194,"lon":31.96389,"type":"city"},{"id":"tz-149114","label":"Usoke","lat":-5.16667,"lon":32.35,"type":"city"},{"id":"tz-149072","label":"Utengule","lat":-8.9,"lon":33.33333,"type":"city"},{"id":"tz-149070","label":"Utete","lat":-7.98598,"lon":38.75795,"type":"city"},{"id":"tz-149050","label":"Uvinza","lat":-5.10361,"lon":30.39111,"type":"city"},{"id":"tz-149027","label":"Uyovu","lat":-3.28333,"lon":31.52583,"type":"city"},{"id":"tz-148987","label":"Vikindu","lat":-7.00667,"lon":39.29849,"type":"city"},{"id":"tz-148942","label":"Vwawa","lat":-9.10806,"lon":32.93472,"type":"city"},{"id":"tz-148842","label":"Wete","lat":-5.05589,"lon":39.72938,"type":"city"},{"id":"tz-148730","label":"Zanzibar","lat":-6.16394,"lon":39.19793,"type":"city"}]