[{"id":"yt-922015","label":"Acoua","lat":-12.72391,"lon":45.05819,"type":"city"},{"id":"yt-1090119","label":"Bandraboua","lat":-12.7044,"lon":45.12231,"type":"city"},{"id":"yt-1090397","label":"Bandrele","lat":-12.91276,"lon":45.19256,"type":"city"},{"id":"yt-1090467","label":"Boueni","lat":-12.9025,"lon":45.07611,"type":"city"},{"id":"yt-1090322","label":"Chiconi","lat":-12.83333,"lon":45.11056,"type":"city"},{"id":"yt-1090415","label":"Chirongui","lat":-12.93194,"lon":45.14833,"type":"city"},{"id":"yt-921933","label":"Combani","lat":-12.8,"lon":45.16667,"type":"city"},{"id":"yt-921917","label":"Dembeni","lat":-12.8436,"lon":45.18436,"type":"city"},{"id":"yt-921900","label":"Dzaoudzi","lat":-12.78339,"lon":45.25693,"type":"city"},{"id":"yt-921895","label":"Dzumogne","lat":-12.71667,"lon":45.11667,"type":"city"},{"id":"yt-1090476","label":"Kani-Keli","lat":-12.95361,"lon":45.10333,"type":"city"},{"id":"yt-1090239","label":"Kaoueni","lat":-12.77121,"lon":45.22419,"type":"city"},{"id":"yt-1090240","label":"Kavani","lat":-12.78447,"lon":45.22299,"type":"city"},{"id":"yt-1090225","label":"Koungou","lat":-12.73361,"lon":45.20417,"type":"city"},{"id":"yt-1090275","label":"Labattoir","lat":-12.77698,"lon":45.28234,"type":"city"},{"id":"yt-1090161","label":"M'Tsangamouji","lat":-12.75944,"lon":45.08361,"type":"city"},{"id":"yt-1090227","label":"Majikavo Koropa","lat":-12.74701,"lon":45.22058,"type":"city"},{"id":"yt-921815","label":"Mamoudzou","lat":-12.78234,"lon":45.22878,"type":"city"},{"id":"yt-1090126","label":"Mtsamboro","lat":-12.69982,"lon":45.06894,"type":"city"},{"id":"yt-1090242","label":"Mtsapere","lat":-12.78636,"lon":45.21732,"type":"city"},{"id":"yt-1090311","label":"Ouangani","lat":-12.84639,"lon":45.13611,"type":"city"},{"id":"yt-921707","label":"Pamandzi","lat":-12.79674,"lon":45.27938,"type":"city"},{"id":"yt-921704","label":"Passamainty","lat":-12.80201,"lon":45.20818,"type":"city"},{"id":"yt-1090340","label":"Sada","lat":-12.85055,"lon":45.10205,"type":"city"},{"id":"yt-1090177","label":"Tsingoni","lat":-12.78722,"lon":45.10278,"type":"city"},{"id":"yt-1090248","label":"Tsoundzou 1","lat":-12.80615,"lon":45.2023,"type":"city"},{"id":"yt-1090254","label":"Vahibe","lat":-12.79024,"lon":45.17707,"type":"city"}]